[
    {
        "id": 154264,
        "name": "Almagro",
        "state_id": 4880,
        "state_code": "C",
        "state_name": "Autonomous City of Buenos Aires",
        "country_id": 11,
        "country_code": "AR",
        "country_name": "Argentina",
        "latitude": "-34.60985140",
        "longitude": "-58.44322610",
        "timezone": null,
        "wikiDataId": "Q2064433"
    },
    {
        "id": 154265,
        "name": "Balvanera",
        "state_id": 4880,
        "state_code": "C",
        "state_name": "Autonomous City of Buenos Aires",
        "country_id": 11,
        "country_code": "AR",
        "country_name": "Argentina",
        "latitude": "-34.60928550",
        "longitude": "-58.42375890",
        "timezone": null,
        "wikiDataId": "Q805848"
    },
    {
        "id": 154266,
        "name": "Barracas",
        "state_id": 4880,
        "state_code": "C",
        "state_name": "Autonomous City of Buenos Aires",
        "country_id": 11,
        "country_code": "AR",
        "country_name": "Argentina",
        "latitude": "-34.64448730",
        "longitude": "-58.40516880",
        "timezone": null,
        "wikiDataId": "Q680964"
    },
    {
        "id": 154267,
        "name": "Belgrano",
        "state_id": 4880,
        "state_code": "C",
        "state_name": "Autonomous City of Buenos Aires",
        "country_id": 11,
        "country_code": "AR",
        "country_name": "Argentina",
        "latitude": "-34.55543270",
        "longitude": "-58.47138570",
        "timezone": null,
        "wikiDataId": "Q815569"
    },
    {
        "id": 154268,
        "name": "Boedo",
        "state_id": 4880,
        "state_code": "C",
        "state_name": "Autonomous City of Buenos Aires",
        "country_id": 11,
        "country_code": "AR",
        "country_name": "Argentina",
        "latitude": "-34.63038420",
        "longitude": "-58.43974170",
        "timezone": null,
        "wikiDataId": "Q890147"
    },
    {
        "id": 154269,
        "name": "Caballito",
        "state_id": 4880,
        "state_code": "C",
        "state_name": "Autonomous City of Buenos Aires",
        "country_id": 11,
        "country_code": "AR",
        "country_name": "Argentina",
        "latitude": "-34.61661920",
        "longitude": "-58.46532990",
        "timezone": null,
        "wikiDataId": "Q536312"
    },
    {
        "id": 154270,
        "name": "Chacarita",
        "state_id": 4880,
        "state_code": "C",
        "state_name": "Autonomous City of Buenos Aires",
        "country_id": 11,
        "country_code": "AR",
        "country_name": "Argentina",
        "latitude": "-34.58802750",
        "longitude": "-58.47332730",
        "timezone": null,
        "wikiDataId": "Q547713"
    },
    {
        "id": 154271,
        "name": "Coghlan",
        "state_id": 4880,
        "state_code": "C",
        "state_name": "Autonomous City of Buenos Aires",
        "country_id": 11,
        "country_code": "AR",
        "country_name": "Argentina",
        "latitude": "-34.56017320",
        "longitude": "-58.48536760",
        "timezone": null,
        "wikiDataId": "Q1106974"
    },
    {
        "id": 154272,
        "name": "Colegiales",
        "state_id": 4880,
        "state_code": "C",
        "state_name": "Autonomous City of Buenos Aires",
        "country_id": 11,
        "country_code": "AR",
        "country_name": "Argentina",
        "latitude": "-34.57463180",
        "longitude": "-58.46194700",
        "timezone": null,
        "wikiDataId": "Q1108064"
    },
    {
        "id": 154273,
        "name": "Constitución",
        "state_id": 4880,
        "state_code": "C",
        "state_name": "Autonomous City of Buenos Aires",
        "country_id": 11,
        "country_code": "AR",
        "country_name": "Argentina",
        "latitude": "-34.62577020",
        "longitude": "-58.39393470",
        "timezone": null,
        "wikiDataId": "Q1405193"
    },
    {
        "id": 154274,
        "name": "Flores",
        "state_id": 4880,
        "state_code": "C",
        "state_name": "Autonomous City of Buenos Aires",
        "country_id": 11,
        "country_code": "AR",
        "country_name": "Argentina",
        "latitude": "-34.63528600",
        "longitude": "-58.49881470",
        "timezone": null,
        "wikiDataId": "Q643907"
    },
    {
        "id": 154275,
        "name": "Floresta",
        "state_id": 4880,
        "state_code": "C",
        "state_name": "Autonomous City of Buenos Aires",
        "country_id": 11,
        "country_code": "AR",
        "country_name": "Argentina",
        "latitude": "-34.62778190",
        "longitude": "-58.50535160",
        "timezone": null,
        "wikiDataId": "Q1429543"
    },
    {
        "id": 154276,
        "name": "La Boca",
        "state_id": 4880,
        "state_code": "C",
        "state_name": "Autonomous City of Buenos Aires",
        "country_id": 11,
        "country_code": "AR",
        "country_name": "Argentina",
        "latitude": "-34.63755140",
        "longitude": "-58.38229510",
        "timezone": null,
        "wikiDataId": "Q690649"
    },
    {
        "id": 154277,
        "name": "La Paternal",
        "state_id": 4880,
        "state_code": "C",
        "state_name": "Autonomous City of Buenos Aires",
        "country_id": 11,
        "country_code": "AR",
        "country_name": "Argentina",
        "latitude": "-34.59636130",
        "longitude": "-58.47783340",
        "timezone": null,
        "wikiDataId": "Q1799004"
    },
    {
        "id": 154278,
        "name": "Liniers",
        "state_id": 4880,
        "state_code": "C",
        "state_name": "Autonomous City of Buenos Aires",
        "country_id": 11,
        "country_code": "AR",
        "country_name": "Argentina",
        "latitude": "-34.64494830",
        "longitude": "-58.53670290",
        "timezone": null,
        "wikiDataId": "Q1826778"
    },
    {
        "id": 154279,
        "name": "Mataderos",
        "state_id": 4880,
        "state_code": "C",
        "state_name": "Autonomous City of Buenos Aires",
        "country_id": 11,
        "country_code": "AR",
        "country_name": "Argentina",
        "latitude": "-34.65888530",
        "longitude": "-58.52288120",
        "timezone": null,
        "wikiDataId": "Q1301660"
    },
    {
        "id": 154280,
        "name": "Monserrat",
        "state_id": 4880,
        "state_code": "C",
        "state_name": "Autonomous City of Buenos Aires",
        "country_id": 11,
        "country_code": "AR",
        "country_name": "Argentina",
        "latitude": "-34.61254060",
        "longitude": "-58.38964190",
        "timezone": null,
        "wikiDataId": "Q1027282"
    },
    {
        "id": 154281,
        "name": "Monte Castro",
        "state_id": 4880,
        "state_code": "C",
        "state_name": "Autonomous City of Buenos Aires",
        "country_id": 11,
        "country_code": "AR",
        "country_name": "Argentina",
        "latitude": "-34.61876990",
        "longitude": "-58.51743230",
        "timezone": null,
        "wikiDataId": "Q1945789"
    },
    {
        "id": 154282,
        "name": "Nueva Pompeya",
        "state_id": 4880,
        "state_code": "C",
        "state_name": "Autonomous City of Buenos Aires",
        "country_id": 11,
        "country_code": "AR",
        "country_name": "Argentina",
        "latitude": "-34.65005810",
        "longitude": "-58.44252610",
        "timezone": null,
        "wikiDataId": "Q2004385"
    },
    {
        "id": 154283,
        "name": "Núñez",
        "state_id": 4880,
        "state_code": "C",
        "state_name": "Autonomous City of Buenos Aires",
        "country_id": 11,
        "country_code": "AR",
        "country_name": "Argentina",
        "latitude": "-34.54270030",
        "longitude": "-58.48169430",
        "timezone": null,
        "wikiDataId": "Q2007015"
    },
    {
        "id": 154284,
        "name": "Palermo",
        "state_id": 4880,
        "state_code": "C",
        "state_name": "Autonomous City of Buenos Aires",
        "country_id": 11,
        "country_code": "AR",
        "country_name": "Argentina",
        "latitude": "-34.57335580",
        "longitude": "-58.46221540",
        "timezone": null,
        "wikiDataId": "Q1018128"
    },
    {
        "id": 154285,
        "name": "Parque Avellaneda",
        "state_id": 4880,
        "state_code": "C",
        "state_name": "Autonomous City of Buenos Aires",
        "country_id": 11,
        "country_code": "AR",
        "country_name": "Argentina",
        "latitude": "-34.65075370",
        "longitude": "-58.49842840",
        "timezone": null,
        "wikiDataId": "Q597824"
    },
    {
        "id": 154286,
        "name": "Parque Chacabuco",
        "state_id": 4880,
        "state_code": "C",
        "state_name": "Autonomous City of Buenos Aires",
        "country_id": 11,
        "country_code": "AR",
        "country_name": "Argentina",
        "latitude": "-34.63713830",
        "longitude": "-58.45953460",
        "timezone": null,
        "wikiDataId": "Q1118308"
    },
    {
        "id": 154287,
        "name": "Parque Chas",
        "state_id": 4880,
        "state_code": "C",
        "state_name": "Autonomous City of Buenos Aires",
        "country_id": 11,
        "country_code": "AR",
        "country_name": "Argentina",
        "latitude": "-34.58486150",
        "longitude": "-58.49010630",
        "timezone": null,
        "wikiDataId": "Q2053967"
    },
    {
        "id": 154288,
        "name": "Parque Patricios",
        "state_id": 4880,
        "state_code": "C",
        "state_name": "Autonomous City of Buenos Aires",
        "country_id": 11,
        "country_code": "AR",
        "country_name": "Argentina",
        "latitude": "-34.63788690",
        "longitude": "-58.42225860",
        "timezone": null,
        "wikiDataId": "Q2054024"
    },
    {
        "id": 154289,
        "name": "Puerto Madero",
        "state_id": 4880,
        "state_code": "C",
        "state_name": "Autonomous City of Buenos Aires",
        "country_id": 11,
        "country_code": "AR",
        "country_name": "Argentina",
        "latitude": "-34.61358660",
        "longitude": "-58.37286850",
        "timezone": null,
        "wikiDataId": "Q781553"
    },
    {
        "id": 154290,
        "name": "Recoleta",
        "state_id": 4880,
        "state_code": "C",
        "state_name": "Autonomous City of Buenos Aires",
        "country_id": 11,
        "country_code": "AR",
        "country_name": "Argentina",
        "latitude": "-34.58479060",
        "longitude": "-58.41694250",
        "timezone": null,
        "wikiDataId": "Q1010253"
    },
    {
        "id": 154291,
        "name": "Retiro",
        "state_id": 4880,
        "state_code": "C",
        "state_name": "Autonomous City of Buenos Aires",
        "country_id": 11,
        "country_code": "AR",
        "country_name": "Argentina",
        "latitude": "-34.58936080",
        "longitude": "-58.39738800",
        "timezone": null,
        "wikiDataId": "Q516411"
    },
    {
        "id": 154292,
        "name": "Saavedra",
        "state_id": 4880,
        "state_code": "C",
        "state_name": "Autonomous City of Buenos Aires",
        "country_id": 11,
        "country_code": "AR",
        "country_name": "Argentina",
        "latitude": "-34.55431210",
        "longitude": "-58.50975950",
        "timezone": null,
        "wikiDataId": "Q655297"
    },
    {
        "id": 154293,
        "name": "San Cristóbal",
        "state_id": 4880,
        "state_code": "C",
        "state_name": "Autonomous City of Buenos Aires",
        "country_id": 11,
        "country_code": "AR",
        "country_name": "Argentina",
        "latitude": "-34.62423930",
        "longitude": "-58.41215650",
        "timezone": null,
        "wikiDataId": "Q2064416"
    },
    {
        "id": 154294,
        "name": "San Nicolás",
        "state_id": 4880,
        "state_code": "C",
        "state_name": "Autonomous City of Buenos Aires",
        "country_id": 11,
        "country_code": "AR",
        "country_name": "Argentina",
        "latitude": "-34.60390370",
        "longitude": "-58.39059120",
        "timezone": null,
        "wikiDataId": "Q2006239"
    },
    {
        "id": 154295,
        "name": "San Telmo",
        "state_id": 4880,
        "state_code": "C",
        "state_name": "Autonomous City of Buenos Aires",
        "country_id": 11,
        "country_code": "AR",
        "country_name": "Argentina",
        "latitude": "-34.62254210",
        "longitude": "-58.38055780",
        "timezone": null,
        "wikiDataId": "Q1026688"
    },
    {
        "id": 154296,
        "name": "Vélez Sársfield",
        "state_id": 4880,
        "state_code": "C",
        "state_name": "Autonomous City of Buenos Aires",
        "country_id": 11,
        "country_code": "AR",
        "country_name": "Argentina",
        "latitude": "-34.63129820",
        "longitude": "-58.51351920",
        "timezone": null,
        "wikiDataId": "Q643942"
    },
    {
        "id": 154297,
        "name": "Versalles",
        "state_id": 4880,
        "state_code": "C",
        "state_name": "Autonomous City of Buenos Aires",
        "country_id": 11,
        "country_code": "AR",
        "country_name": "Argentina",
        "latitude": "-34.62915440",
        "longitude": "-58.52963820",
        "timezone": null,
        "wikiDataId": "Q655117"
    },
    {
        "id": 154298,
        "name": "Villa Crespo",
        "state_id": 4880,
        "state_code": "C",
        "state_name": "Autonomous City of Buenos Aires",
        "country_id": 11,
        "country_code": "AR",
        "country_name": "Argentina",
        "latitude": "-34.59811590",
        "longitude": "-58.46174830",
        "timezone": null,
        "wikiDataId": "Q1670884"
    },
    {
        "id": 154299,
        "name": "Villa del Parque",
        "state_id": 4880,
        "state_code": "C",
        "state_name": "Autonomous City of Buenos Aires",
        "country_id": 11,
        "country_code": "AR",
        "country_name": "Argentina",
        "latitude": "-34.60587650",
        "longitude": "-58.51064410",
        "timezone": null,
        "wikiDataId": "Q771260"
    },
    {
        "id": 154300,
        "name": "Villa Devoto",
        "state_id": 4880,
        "state_code": "C",
        "state_name": "Autonomous City of Buenos Aires",
        "country_id": 11,
        "country_code": "AR",
        "country_name": "Argentina",
        "latitude": "-34.60046930",
        "longitude": "-58.55443260",
        "timezone": null,
        "wikiDataId": "Q386011"
    },
    {
        "id": 154301,
        "name": "Villa General Mitre",
        "state_id": 4880,
        "state_code": "C",
        "state_name": "Autonomous City of Buenos Aires",
        "country_id": 11,
        "country_code": "AR",
        "country_name": "Argentina",
        "latitude": "-34.61048970",
        "longitude": "-58.47974190",
        "timezone": null,
        "wikiDataId": "Q1026651"
    },
    {
        "id": 154302,
        "name": "Villa Lugano",
        "state_id": 4880,
        "state_code": "C",
        "state_name": "Autonomous City of Buenos Aires",
        "country_id": 11,
        "country_code": "AR",
        "country_name": "Argentina",
        "latitude": "-34.67485910",
        "longitude": "-58.49704580",
        "timezone": null,
        "wikiDataId": "Q731094"
    },
    {
        "id": 154303,
        "name": "Villa Luro",
        "state_id": 4880,
        "state_code": "C",
        "state_name": "Autonomous City of Buenos Aires",
        "country_id": 11,
        "country_code": "AR",
        "country_name": "Argentina",
        "latitude": "-34.63500670",
        "longitude": "-58.52269370",
        "timezone": null,
        "wikiDataId": "Q772760"
    },
    {
        "id": 154304,
        "name": "Villa Ortúzar",
        "state_id": 4880,
        "state_code": "C",
        "state_name": "Autonomous City of Buenos Aires",
        "country_id": 11,
        "country_code": "AR",
        "country_name": "Argentina",
        "latitude": "-34.58148740",
        "longitude": "-58.47898750",
        "timezone": null,
        "wikiDataId": "Q1026701"
    },
    {
        "id": 154305,
        "name": "Villa Pueyrredón",
        "state_id": 4880,
        "state_code": "C",
        "state_name": "Autonomous City of Buenos Aires",
        "country_id": 11,
        "country_code": "AR",
        "country_name": "Argentina",
        "latitude": "-34.58182550",
        "longitude": "-58.52264930",
        "timezone": null,
        "wikiDataId": "Q1026681"
    },
    {
        "id": 154306,
        "name": "Villa Real",
        "state_id": 4880,
        "state_code": "C",
        "state_name": "Autonomous City of Buenos Aires",
        "country_id": 11,
        "country_code": "AR",
        "country_name": "Argentina",
        "latitude": "-34.61909340",
        "longitude": "-58.53453420",
        "timezone": null,
        "wikiDataId": "Q641438"
    },
    {
        "id": 154307,
        "name": "Villa Riachuelo",
        "state_id": 4880,
        "state_code": "C",
        "state_name": "Autonomous City of Buenos Aires",
        "country_id": 11,
        "country_code": "AR",
        "country_name": "Argentina",
        "latitude": "-34.69266220",
        "longitude": "-58.48434810",
        "timezone": null,
        "wikiDataId": "Q1026678"
    },
    {
        "id": 154308,
        "name": "Villa Santa Rita",
        "state_id": 4880,
        "state_code": "C",
        "state_name": "Autonomous City of Buenos Aires",
        "country_id": 11,
        "country_code": "AR",
        "country_name": "Argentina",
        "latitude": "-34.61636020",
        "longitude": "-58.49350310",
        "timezone": null,
        "wikiDataId": "Q1026695"
    },
    {
        "id": 154309,
        "name": "Villa Soldati",
        "state_id": 4880,
        "state_code": "C",
        "state_name": "Autonomous City of Buenos Aires",
        "country_id": 11,
        "country_code": "AR",
        "country_name": "Argentina",
        "latitude": "-34.66789240",
        "longitude": "-58.46756510",
        "timezone": null,
        "wikiDataId": "Q1686228"
    },
    {
        "id": 154310,
        "name": "Villa Urquiza",
        "state_id": 4880,
        "state_code": "C",
        "state_name": "Autonomous City of Buenos Aires",
        "country_id": 11,
        "country_code": "AR",
        "country_name": "Argentina",
        "latitude": "-34.57192410",
        "longitude": "-58.50934640",
        "timezone": null,
        "wikiDataId": "Q1026691"
    },
    {
        "id": 154311,
        "name": "Adolfo Alsina",
        "state_id": 3656,
        "state_code": "B",
        "state_name": "Buenos Aires",
        "country_id": 11,
        "country_code": "AR",
        "country_name": "Argentina",
        "latitude": "-37.16054780",
        "longitude": "-64.22506020",
        "timezone": null,
        "wikiDataId": "Q505021"
    },
    {
        "id": 154312,
        "name": "Adolfo Gonzáles Chaves",
        "state_id": 3656,
        "state_code": "B",
        "state_name": "Buenos Aires",
        "country_id": 11,
        "country_code": "AR",
        "country_name": "Argentina",
        "latitude": "-37.93801600",
        "longitude": "-60.90296530",
        "timezone": null,
        "wikiDataId": "Q505050"
    },
    {
        "id": 154313,
        "name": "Alberti",
        "state_id": 3656,
        "state_code": "B",
        "state_name": "Buenos Aires",
        "country_id": 11,
        "country_code": "AR",
        "country_name": "Argentina",
        "latitude": "-35.02768320",
        "longitude": "-60.58411980",
        "timezone": null,
        "wikiDataId": "Q578717"
    },
    {
        "id": 154314,
        "name": "Almirante Brown",
        "state_id": 3656,
        "state_code": "B",
        "state_name": "Buenos Aires",
        "country_id": 11,
        "country_code": "AR",
        "country_name": "Argentina",
        "latitude": "-34.83197240",
        "longitude": "-58.45251410",
        "timezone": null,
        "wikiDataId": "Q1399432"
    },
    {
        "id": 154315,
        "name": "Arrecifes",
        "state_id": 3656,
        "state_code": "B",
        "state_name": "Buenos Aires",
        "country_id": 11,
        "country_code": "AR",
        "country_name": "Argentina",
        "latitude": "-34.00603330",
        "longitude": "-60.33782350",
        "timezone": null,
        "wikiDataId": "Q777895"
    },
    {
        "id": 154316,
        "name": "Avellaneda",
        "state_id": 3656,
        "state_code": "B",
        "state_name": "Buenos Aires",
        "country_id": 11,
        "country_code": "AR",
        "country_name": "Argentina",
        "latitude": "-34.66134140",
        "longitude": "-58.38802660",
        "timezone": null,
        "wikiDataId": "Q1882267"
    },
    {
        "id": 154317,
        "name": "Ayacucho",
        "state_id": 3656,
        "state_code": "B",
        "state_name": "Buenos Aires",
        "country_id": 11,
        "country_code": "AR",
        "country_name": "Argentina",
        "latitude": "-36.97372280",
        "longitude": "-59.08902220",
        "timezone": null,
        "wikiDataId": "Q783091"
    },
    {
        "id": 154318,
        "name": "Azul",
        "state_id": 3656,
        "state_code": "B",
        "state_name": "Buenos Aires",
        "country_id": 11,
        "country_code": "AR",
        "country_name": "Argentina",
        "latitude": "-36.82779090",
        "longitude": "-60.99253580",
        "timezone": null,
        "wikiDataId": "Q239789"
    },
    {
        "id": 154319,
        "name": "Bahía Blanca",
        "state_id": 3656,
        "state_code": "B",
        "state_name": "Buenos Aires",
        "country_id": 11,
        "country_code": "AR",
        "country_name": "Argentina",
        "latitude": "-38.58796980",
        "longitude": "-62.50794130",
        "timezone": null,
        "wikiDataId": "Q788626"
    },
    {
        "id": 154320,
        "name": "Balcarce",
        "state_id": 3656,
        "state_code": "B",
        "state_name": "Buenos Aires",
        "country_id": 11,
        "country_code": "AR",
        "country_name": "Argentina",
        "latitude": "-37.75449560",
        "longitude": "-58.93081520",
        "timezone": null,
        "wikiDataId": "Q629119"
    },
    {
        "id": 154321,
        "name": "Baradero",
        "state_id": 3656,
        "state_code": "B",
        "state_name": "Buenos Aires",
        "country_id": 11,
        "country_code": "AR",
        "country_name": "Argentina",
        "latitude": "-33.90652010",
        "longitude": "-59.81822290",
        "timezone": null,
        "wikiDataId": "Q790179"
    },
    {
        "id": 154322,
        "name": "Benito Juárez",
        "state_id": 3656,
        "state_code": "B",
        "state_name": "Buenos Aires",
        "country_id": 11,
        "country_code": "AR",
        "country_name": "Argentina",
        "latitude": "-37.58593960",
        "longitude": "-60.52379500",
        "timezone": null,
        "wikiDataId": "Q792933"
    },
    {
        "id": 154323,
        "name": "Berazategui",
        "state_id": 3656,
        "state_code": "B",
        "state_name": "Buenos Aires",
        "country_id": 11,
        "country_code": "AR",
        "country_name": "Argentina",
        "latitude": "-34.84334610",
        "longitude": "-58.30738810",
        "timezone": null,
        "wikiDataId": "Q2502677"
    },
    {
        "id": 154324,
        "name": "Berisso",
        "state_id": 3656,
        "state_code": "B",
        "state_name": "Buenos Aires",
        "country_id": 11,
        "country_code": "AR",
        "country_name": "Argentina",
        "latitude": "-34.89821320",
        "longitude": "-57.90243650",
        "timezone": null,
        "wikiDataId": "Q793491"
    },
    {
        "id": 154325,
        "name": "Bolívar",
        "state_id": 3656,
        "state_code": "B",
        "state_name": "Buenos Aires",
        "country_id": 11,
        "country_code": "AR",
        "country_name": "Argentina",
        "latitude": "-36.28911980",
        "longitude": "-61.78736580",
        "timezone": null,
        "wikiDataId": "Q834261"
    },
    {
        "id": 154326,
        "name": "Bragado",
        "state_id": 3656,
        "state_code": "B",
        "state_name": "Buenos Aires",
        "country_id": 11,
        "country_code": "AR",
        "country_name": "Argentina",
        "latitude": "-35.02574040",
        "longitude": "-61.25370530",
        "timezone": null,
        "wikiDataId": "Q268491"
    },
    {
        "id": 154327,
        "name": "Brandsen",
        "state_id": 3656,
        "state_code": "B",
        "state_name": "Buenos Aires",
        "country_id": 11,
        "country_code": "AR",
        "country_name": "Argentina",
        "latitude": "-35.19510090",
        "longitude": "-58.49818770",
        "timezone": null,
        "wikiDataId": "Q848995"
    },
    {
        "id": 154328,
        "name": "Campana",
        "state_id": 3656,
        "state_code": "B",
        "state_name": "Buenos Aires",
        "country_id": 11,
        "country_code": "AR",
        "country_name": "Argentina",
        "latitude": "-34.16079930",
        "longitude": "-59.22022530",
        "timezone": null,
        "wikiDataId": "Q857788"
    },
    {
        "id": 154329,
        "name": "Cañuelas",
        "state_id": 3656,
        "state_code": "B",
        "state_name": "Buenos Aires",
        "country_id": 11,
        "country_code": "AR",
        "country_name": "Argentina",
        "latitude": "-35.15525400",
        "longitude": "-59.03069800",
        "timezone": null,
        "wikiDataId": "Q370120"
    },
    {
        "id": 154330,
        "name": "Capitán Sarmiento",
        "state_id": 3656,
        "state_code": "B",
        "state_name": "Buenos Aires",
        "country_id": 11,
        "country_code": "AR",
        "country_name": "Argentina",
        "latitude": "-34.14170660",
        "longitude": "-60.02221190",
        "timezone": null,
        "wikiDataId": "Q858225"
    },
    {
        "id": 154331,
        "name": "Carlos Casares",
        "state_id": 3656,
        "state_code": "B",
        "state_name": "Buenos Aires",
        "country_id": 11,
        "country_code": "AR",
        "country_name": "Argentina",
        "latitude": "-35.72219790",
        "longitude": "-62.03779560",
        "timezone": null,
        "wikiDataId": "Q858587"
    },
    {
        "id": 154332,
        "name": "Carlos Tejedor",
        "state_id": 3656,
        "state_code": "B",
        "state_name": "Buenos Aires",
        "country_id": 11,
        "country_code": "AR",
        "country_name": "Argentina",
        "latitude": "-35.39445380",
        "longitude": "-63.06241220",
        "timezone": null,
        "wikiDataId": "Q858617"
    },
    {
        "id": 154333,
        "name": "Carmen de Areco",
        "state_id": 3656,
        "state_code": "B",
        "state_name": "Buenos Aires",
        "country_id": 11,
        "country_code": "AR",
        "country_name": "Argentina",
        "latitude": "-34.41836420",
        "longitude": "-60.23786820",
        "timezone": null,
        "wikiDataId": "Q858650"
    },
    {
        "id": 154334,
        "name": "Castelli",
        "state_id": 3656,
        "state_code": "B",
        "state_name": "Buenos Aires",
        "country_id": 11,
        "country_code": "AR",
        "country_name": "Argentina",
        "latitude": "-36.01838980",
        "longitude": "-57.98088650",
        "timezone": null,
        "wikiDataId": "Q510285"
    },
    {
        "id": 154335,
        "name": "Chacabuco",
        "state_id": 3656,
        "state_code": "B",
        "state_name": "Buenos Aires",
        "country_id": 11,
        "country_code": "AR",
        "country_name": "Argentina",
        "latitude": "-34.63340080",
        "longitude": "-60.65114680",
        "timezone": null,
        "wikiDataId": "Q859886"
    },
    {
        "id": 154336,
        "name": "Chascomús",
        "state_id": 3656,
        "state_code": "B",
        "state_name": "Buenos Aires",
        "country_id": 11,
        "country_code": "AR",
        "country_name": "Argentina",
        "latitude": "-35.59543280",
        "longitude": "-58.56002660",
        "timezone": null,
        "wikiDataId": "Q860350"
    },
    {
        "id": 154337,
        "name": "Chivilcoy",
        "state_id": 3656,
        "state_code": "B",
        "state_name": "Buenos Aires",
        "country_id": 11,
        "country_code": "AR",
        "country_name": "Argentina",
        "latitude": "-34.90790700",
        "longitude": "-60.28432600",
        "timezone": null,
        "wikiDataId": "Q860848"
    },
    {
        "id": 154338,
        "name": "Colón",
        "state_id": 3656,
        "state_code": "B",
        "state_name": "Buenos Aires",
        "country_id": 11,
        "country_code": "AR",
        "country_name": "Argentina",
        "latitude": "-33.85225870",
        "longitude": "-61.40124400",
        "timezone": null,
        "wikiDataId": "Q692762"
    },
    {
        "id": 154339,
        "name": "Coronel Dorrego",
        "state_id": 3656,
        "state_code": "B",
        "state_name": "Buenos Aires",
        "country_id": 11,
        "country_code": "AR",
        "country_name": "Argentina",
        "latitude": "-38.64031010",
        "longitude": "-61.77287250",
        "timezone": null,
        "wikiDataId": "Q869191"
    },
    {
        "id": 154340,
        "name": "Coronel Pringles",
        "state_id": 3656,
        "state_code": "B",
        "state_name": "Buenos Aires",
        "country_id": 11,
        "country_code": "AR",
        "country_name": "Argentina",
        "latitude": "-38.16604130",
        "longitude": "-61.89518000",
        "timezone": null,
        "wikiDataId": "Q585345"
    },
    {
        "id": 154341,
        "name": "Coronel Rosales",
        "state_id": 3656,
        "state_code": "B",
        "state_name": "Buenos Aires",
        "country_id": 11,
        "country_code": "AR",
        "country_name": "Argentina",
        "latitude": "-38.81492060",
        "longitude": "-62.14727610",
        "timezone": null,
        "wikiDataId": "Q653605"
    },
    {
        "id": 154342,
        "name": "Coronel Suárez",
        "state_id": 3656,
        "state_code": "B",
        "state_name": "Buenos Aires",
        "country_id": 11,
        "country_code": "AR",
        "country_name": "Argentina",
        "latitude": "-37.53029820",
        "longitude": "-63.25323390",
        "timezone": null,
        "wikiDataId": "Q269509"
    },
    {
        "id": 154343,
        "name": "Daireaux",
        "state_id": 3656,
        "state_code": "B",
        "state_name": "Buenos Aires",
        "country_id": 11,
        "country_code": "AR",
        "country_name": "Argentina",
        "latitude": "-36.61930860",
        "longitude": "-62.52352980",
        "timezone": null,
        "wikiDataId": "Q901248"
    },
    {
        "id": 154344,
        "name": "Dolores",
        "state_id": 3656,
        "state_code": "B",
        "state_name": "Buenos Aires",
        "country_id": 11,
        "country_code": "AR",
        "country_name": "Argentina",
        "latitude": "-36.41467360",
        "longitude": "-58.32462490",
        "timezone": null,
        "wikiDataId": "Q633321"
    },
    {
        "id": 154345,
        "name": "Ensenada",
        "state_id": 3656,
        "state_code": "B",
        "state_name": "Buenos Aires",
        "country_id": 11,
        "country_code": "AR",
        "country_name": "Argentina",
        "latitude": "-34.84156190",
        "longitude": "-58.06269460",
        "timezone": null,
        "wikiDataId": "Q768431"
    },
    {
        "id": 154346,
        "name": "Escobar",
        "state_id": 3656,
        "state_code": "B",
        "state_name": "Buenos Aires",
        "country_id": 11,
        "country_code": "AR",
        "country_name": "Argentina",
        "latitude": "-34.34251230",
        "longitude": "-58.93997620",
        "timezone": null,
        "wikiDataId": "Q991287"
    },
    {
        "id": 154347,
        "name": "Esteban Echeverríar",
        "state_id": 3656,
        "state_code": "B",
        "state_name": "Buenos Aires",
        "country_id": 11,
        "country_code": "AR",
        "country_name": "Argentina",
        "latitude": "-34.82406180",
        "longitude": "-58.63358570",
        "timezone": null,
        "wikiDataId": "Q1685960"
    },
    {
        "id": 154348,
        "name": "Exaltación de la Cruz",
        "state_id": 3656,
        "state_code": "B",
        "state_name": "Buenos Aires",
        "country_id": 11,
        "country_code": "AR",
        "country_name": "Argentina",
        "latitude": "-34.31228650",
        "longitude": "-59.31295630",
        "timezone": null,
        "wikiDataId": "Q253247"
    },
    {
        "id": 154349,
        "name": "Ezeiza",
        "state_id": 3656,
        "state_code": "B",
        "state_name": "Buenos Aires",
        "country_id": 11,
        "country_code": "AR",
        "country_name": "Argentina",
        "latitude": "-34.87357520",
        "longitude": "-58.73505670",
        "timezone": null,
        "wikiDataId": "Q2510045"
    },
    {
        "id": 154350,
        "name": "Florencio Varela",
        "state_id": 3656,
        "state_code": "B",
        "state_name": "Buenos Aires",
        "country_id": 11,
        "country_code": "AR",
        "country_name": "Argentina",
        "latitude": "-34.88873210",
        "longitude": "-58.42115210",
        "timezone": null,
        "wikiDataId": "Q2621603"
    },
    {
        "id": 154351,
        "name": "Florentino Ameghino",
        "state_id": 3656,
        "state_code": "B",
        "state_name": "Buenos Aires",
        "country_id": 11,
        "country_code": "AR",
        "country_name": "Argentina",
        "latitude": "-34.88624610",
        "longitude": "-62.70302560",
        "timezone": null,
        "wikiDataId": "Q970548"
    },
    {
        "id": 154352,
        "name": "General Alvarado",
        "state_id": 3656,
        "state_code": "B",
        "state_name": "Buenos Aires",
        "country_id": 11,
        "country_code": "AR",
        "country_name": "Argentina",
        "latitude": "-38.19975330",
        "longitude": "-58.38977980",
        "timezone": null,
        "wikiDataId": "Q240441"
    },
    {
        "id": 154353,
        "name": "General Alvear",
        "state_id": 3656,
        "state_code": "B",
        "state_name": "Buenos Aires",
        "country_id": 11,
        "country_code": "AR",
        "country_name": "Argentina",
        "latitude": "-36.03836820",
        "longitude": "-60.76716020",
        "timezone": null,
        "wikiDataId": "Q944419"
    },
    {
        "id": 154354,
        "name": "General Arenales",
        "state_id": 3656,
        "state_code": "B",
        "state_name": "Buenos Aires",
        "country_id": 11,
        "country_code": "AR",
        "country_name": "Argentina",
        "latitude": "-34.23810350",
        "longitude": "-61.61258250",
        "timezone": null,
        "wikiDataId": "Q1009107"
    },
    {
        "id": 154355,
        "name": "General Belgrano",
        "state_id": 3656,
        "state_code": "B",
        "state_name": "Buenos Aires",
        "country_id": 11,
        "country_code": "AR",
        "country_name": "Argentina",
        "latitude": "-35.84190100",
        "longitude": "-59.04535800",
        "timezone": null,
        "wikiDataId": "Q1009113"
    },
    {
        "id": 154356,
        "name": "General Guido",
        "state_id": 3656,
        "state_code": "B",
        "state_name": "Buenos Aires",
        "country_id": 11,
        "country_code": "AR",
        "country_name": "Argentina",
        "latitude": "-36.67376360",
        "longitude": "-58.63303620",
        "timezone": null,
        "wikiDataId": "Q1009125"
    },
    {
        "id": 154357,
        "name": "General La Madrid",
        "state_id": 3656,
        "state_code": "B",
        "state_name": "Buenos Aires",
        "country_id": 11,
        "country_code": "AR",
        "country_name": "Argentina",
        "latitude": "-37.39889560",
        "longitude": "-61.97377640",
        "timezone": null,
        "wikiDataId": "Q1009130"
    },
    {
        "id": 154358,
        "name": "General Las Heras",
        "state_id": 3656,
        "state_code": "B",
        "state_name": "Buenos Aires",
        "country_id": 11,
        "country_code": "AR",
        "country_name": "Argentina",
        "latitude": "-34.90931560",
        "longitude": "-59.32777060",
        "timezone": null,
        "wikiDataId": "Q1009139"
    },
    {
        "id": 154359,
        "name": "General Lavalle",
        "state_id": 3656,
        "state_code": "B",
        "state_name": "Buenos Aires",
        "country_id": 11,
        "country_code": "AR",
        "country_name": "Argentina",
        "latitude": "-36.67005230",
        "longitude": "-57.67282310",
        "timezone": null,
        "wikiDataId": "Q1009144"
    },
    {
        "id": 154360,
        "name": "General Madariaga",
        "state_id": 3656,
        "state_code": "B",
        "state_name": "Buenos Aires",
        "country_id": 11,
        "country_code": "AR",
        "country_name": "Argentina",
        "latitude": "-37.15579700",
        "longitude": "-57.90662040",
        "timezone": null,
        "wikiDataId": "Q1009146"
    },
    {
        "id": 154361,
        "name": "General Paz",
        "state_id": 3656,
        "state_code": "B",
        "state_name": "Buenos Aires",
        "country_id": 11,
        "country_code": "AR",
        "country_name": "Argentina",
        "latitude": "-35.47363710",
        "longitude": "-58.69690130",
        "timezone": null,
        "wikiDataId": "Q691166"
    },
    {
        "id": 154362,
        "name": "General Pinto",
        "state_id": 3656,
        "state_code": "B",
        "state_name": "Buenos Aires",
        "country_id": 11,
        "country_code": "AR",
        "country_name": "Argentina",
        "latitude": "-34.68311120",
        "longitude": "-62.34048360",
        "timezone": null,
        "wikiDataId": "Q1009156"
    },
    {
        "id": 154363,
        "name": "General Pueyrredón",
        "state_id": 3656,
        "state_code": "B",
        "state_name": "Buenos Aires",
        "country_id": 11,
        "country_code": "AR",
        "country_name": "Argentina",
        "latitude": "-37.97153260",
        "longitude": "-58.11219280",
        "timezone": null,
        "wikiDataId": "Q671742"
    },
    {
        "id": 154364,
        "name": "General Rodríguez",
        "state_id": 3656,
        "state_code": "B",
        "state_name": "Buenos Aires",
        "country_id": 11,
        "country_code": "AR",
        "country_name": "Argentina",
        "latitude": "-34.63970400",
        "longitude": "-59.16470220",
        "timezone": null,
        "wikiDataId": "Q1009163"
    },
    {
        "id": 154365,
        "name": "General San Martín",
        "state_id": 3656,
        "state_code": "B",
        "state_name": "Buenos Aires",
        "country_id": 11,
        "country_code": "AR",
        "country_name": "Argentina",
        "latitude": "-34.54379540",
        "longitude": "-58.64700250",
        "timezone": null,
        "wikiDataId": "Q2157253"
    },
    {
        "id": 154366,
        "name": "General Viamonte",
        "state_id": 3656,
        "state_code": "B",
        "state_name": "Buenos Aires",
        "country_id": 11,
        "country_code": "AR",
        "country_name": "Argentina",
        "latitude": "-34.97753020",
        "longitude": "-61.40151400",
        "timezone": null,
        "wikiDataId": "Q644027"
    },
    {
        "id": 154367,
        "name": "General Villegas",
        "state_id": 3656,
        "state_code": "B",
        "state_name": "Buenos Aires",
        "country_id": 11,
        "country_code": "AR",
        "country_name": "Argentina",
        "latitude": "-34.87360000",
        "longitude": "-63.48656420",
        "timezone": null,
        "wikiDataId": "Q604640"
    },
    {
        "id": 154368,
        "name": "Guaminí",
        "state_id": 3656,
        "state_code": "B",
        "state_name": "Buenos Aires",
        "country_id": 11,
        "country_code": "AR",
        "country_name": "Argentina",
        "latitude": "-36.89982740",
        "longitude": "-63.07273400",
        "timezone": null,
        "wikiDataId": "Q1028493"
    },
    {
        "id": 154369,
        "name": "Hipólito Yrigoyen",
        "state_id": 3656,
        "state_code": "B",
        "state_name": "Buenos Aires",
        "country_id": 11,
        "country_code": "AR",
        "country_name": "Argentina",
        "latitude": "-36.27101580",
        "longitude": "-61.98866530",
        "timezone": null,
        "wikiDataId": "Q935606"
    },
    {
        "id": 154370,
        "name": "Hurlingham",
        "state_id": 3656,
        "state_code": "B",
        "state_name": "Buenos Aires",
        "country_id": 11,
        "country_code": "AR",
        "country_name": "Argentina",
        "latitude": "-34.59796270",
        "longitude": "-58.69618060",
        "timezone": null,
        "wikiDataId": "Q2514038"
    },
    {
        "id": 154371,
        "name": "Ituzaingó",
        "state_id": 3656,
        "state_code": "B",
        "state_name": "Buenos Aires",
        "country_id": 11,
        "country_code": "AR",
        "country_name": "Argentina",
        "latitude": "-34.63969570",
        "longitude": "-58.77365750",
        "timezone": null,
        "wikiDataId": "Q2713086"
    },
    {
        "id": 154372,
        "name": "José C. Paz",
        "state_id": 3656,
        "state_code": "B",
        "state_name": "Buenos Aires",
        "country_id": 11,
        "country_code": "AR",
        "country_name": "Argentina",
        "latitude": "-34.50433760",
        "longitude": "-58.85464360",
        "timezone": null,
        "wikiDataId": "Q2329785"
    },
    {
        "id": 154373,
        "name": "Junín",
        "state_id": 3656,
        "state_code": "B",
        "state_name": "Buenos Aires",
        "country_id": 11,
        "country_code": "AR",
        "country_name": "Argentina",
        "latitude": "-34.54605770",
        "longitude": "-61.33077050",
        "timezone": null,
        "wikiDataId": "Q1038802"
    },
    {
        "id": 154374,
        "name": "La Costa",
        "state_id": 3656,
        "state_code": "B",
        "state_name": "Buenos Aires",
        "country_id": 11,
        "country_code": "AR",
        "country_name": "Argentina",
        "latitude": "-36.66068710",
        "longitude": "-57.40162530",
        "timezone": null,
        "wikiDataId": "Q1038912"
    },
    {
        "id": 154375,
        "name": "La Matanza",
        "state_id": 3656,
        "state_code": "B",
        "state_name": "Buenos Aires",
        "country_id": 11,
        "country_code": "AR",
        "country_name": "Argentina",
        "latitude": "-34.77307590",
        "longitude": "-58.78266180",
        "timezone": null,
        "wikiDataId": "Q1308616"
    },
    {
        "id": 154376,
        "name": "La Plata",
        "state_id": 3656,
        "state_code": "B",
        "state_name": "Buenos Aires",
        "country_id": 11,
        "country_code": "AR",
        "country_name": "Argentina",
        "latitude": "-34.70297680",
        "longitude": "-58.67985840",
        "timezone": null,
        "wikiDataId": "Q260600"
    },
    {
        "id": 154377,
        "name": "Lanús",
        "state_id": 3656,
        "state_code": "B",
        "state_name": "Buenos Aires",
        "country_id": 11,
        "country_code": "AR",
        "country_name": "Argentina",
        "latitude": "-34.70198040",
        "longitude": "-58.47261230",
        "timezone": null,
        "wikiDataId": "Q730109"
    },
    {
        "id": 154378,
        "name": "Laprida",
        "state_id": 3656,
        "state_code": "B",
        "state_name": "Buenos Aires",
        "country_id": 11,
        "country_code": "AR",
        "country_name": "Argentina",
        "latitude": "-37.49309250",
        "longitude": "-61.42308300",
        "timezone": null,
        "wikiDataId": "Q1039006"
    },
    {
        "id": 154379,
        "name": "Las Flores",
        "state_id": 3656,
        "state_code": "B",
        "state_name": "Buenos Aires",
        "country_id": 11,
        "country_code": "AR",
        "country_name": "Argentina",
        "latitude": "-36.01628740",
        "longitude": "-59.86327060",
        "timezone": null,
        "wikiDataId": "Q748639"
    },
    {
        "id": 154380,
        "name": "Leandro N. Alem",
        "state_id": 3656,
        "state_code": "B",
        "state_name": "Buenos Aires",
        "country_id": 11,
        "country_code": "AR",
        "country_name": "Argentina",
        "latitude": "-34.49251120",
        "longitude": "-61.95923550",
        "timezone": null,
        "wikiDataId": "Q282918"
    },
    {
        "id": 154381,
        "name": "Lezama",
        "state_id": 3656,
        "state_code": "B",
        "state_name": "Buenos Aires",
        "country_id": 11,
        "country_code": "AR",
        "country_name": "Argentina",
        "latitude": "-35.86369450",
        "longitude": "-58.15662470",
        "timezone": null,
        "wikiDataId": "Q3366881"
    },
    {
        "id": 154382,
        "name": "Lincoln",
        "state_id": 3656,
        "state_code": "B",
        "state_name": "Buenos Aires",
        "country_id": 11,
        "country_code": "AR",
        "country_name": "Argentina",
        "latitude": "-35.08589960",
        "longitude": "-62.35863070",
        "timezone": null,
        "wikiDataId": "Q632108"
    },
    {
        "id": 154383,
        "name": "Lobería",
        "state_id": 3656,
        "state_code": "B",
        "state_name": "Buenos Aires",
        "country_id": 11,
        "country_code": "AR",
        "country_name": "Argentina",
        "latitude": "-38.06737520",
        "longitude": "-59.36333310",
        "timezone": null,
        "wikiDataId": "Q628370"
    },
    {
        "id": 154384,
        "name": "Lobos",
        "state_id": 3656,
        "state_code": "B",
        "state_name": "Buenos Aires",
        "country_id": 11,
        "country_code": "AR",
        "country_name": "Argentina",
        "latitude": "-35.19779080",
        "longitude": "-59.51022420",
        "timezone": null,
        "wikiDataId": "Q1038822"
    },
    {
        "id": 154385,
        "name": "Lomas de Zamora",
        "state_id": 3656,
        "state_code": "B",
        "state_name": "Buenos Aires",
        "country_id": 11,
        "country_code": "AR",
        "country_name": "Argentina",
        "latitude": "-34.75284350",
        "longitude": "-58.50112000",
        "timezone": null,
        "wikiDataId": "Q14638682"
    },
    {
        "id": 154386,
        "name": "Luján",
        "state_id": 3656,
        "state_code": "B",
        "state_name": "Buenos Aires",
        "country_id": 11,
        "country_code": "AR",
        "country_name": "Argentina",
        "latitude": "-34.58755280",
        "longitude": "-59.47602840",
        "timezone": null,
        "wikiDataId": "Q662536"
    },
    {
        "id": 154387,
        "name": "Magdalena",
        "state_id": 3656,
        "state_code": "B",
        "state_name": "Buenos Aires",
        "country_id": 11,
        "country_code": "AR",
        "country_name": "Argentina",
        "latitude": "-35.18662720",
        "longitude": "-57.99943530",
        "timezone": null,
        "wikiDataId": "Q1038813"
    },
    {
        "id": 154388,
        "name": "Maipú",
        "state_id": 3656,
        "state_code": "B",
        "state_name": "Buenos Aires",
        "country_id": 11,
        "country_code": "AR",
        "country_name": "Argentina",
        "latitude": "-36.88401400",
        "longitude": "-58.25271870",
        "timezone": null,
        "wikiDataId": "Q1039014"
    },
    {
        "id": 154389,
        "name": "Malvinas Argentinas",
        "state_id": 3656,
        "state_code": "B",
        "state_name": "Buenos Aires",
        "country_id": 11,
        "country_code": "AR",
        "country_name": "Argentina",
        "latitude": "-34.48586020",
        "longitude": "-58.79796800",
        "timezone": null,
        "wikiDataId": "Q2721011"
    },
    {
        "id": 154390,
        "name": "Mar Chiquita",
        "state_id": 3656,
        "state_code": "B",
        "state_name": "Buenos Aires",
        "country_id": 11,
        "country_code": "AR",
        "country_name": "Argentina",
        "latitude": "-37.50980390",
        "longitude": "-58.30054500",
        "timezone": null,
        "wikiDataId": "Q1827027"
    },
    {
        "id": 154391,
        "name": "Marcos Paz",
        "state_id": 3656,
        "state_code": "B",
        "state_name": "Buenos Aires",
        "country_id": 11,
        "country_code": "AR",
        "country_name": "Argentina",
        "latitude": "-34.82080690",
        "longitude": "-59.02873170",
        "timezone": null,
        "wikiDataId": "Q2622327"
    },
    {
        "id": 154392,
        "name": "Mercedes",
        "state_id": 3656,
        "state_code": "B",
        "state_name": "Buenos Aires",
        "country_id": 11,
        "country_code": "AR",
        "country_name": "Argentina",
        "latitude": "-34.69878490",
        "longitude": "-59.77191470",
        "timezone": null,
        "wikiDataId": "Q2348421"
    },
    {
        "id": 154393,
        "name": "Merlo",
        "state_id": 3656,
        "state_code": "B",
        "state_name": "Buenos Aires",
        "country_id": 11,
        "country_code": "AR",
        "country_name": "Argentina",
        "latitude": "-34.70657840",
        "longitude": "-58.83276710",
        "timezone": null,
        "wikiDataId": "Q1239732"
    },
    {
        "id": 154394,
        "name": "Monte",
        "state_id": 3656,
        "state_code": "B",
        "state_name": "Buenos Aires",
        "country_id": 11,
        "country_code": "AR",
        "country_name": "Argentina",
        "latitude": "-35.49862290",
        "longitude": "-59.12519800",
        "timezone": null,
        "wikiDataId": "Q2136297"
    },
    {
        "id": 154395,
        "name": "Monte Hermoso",
        "state_id": 3656,
        "state_code": "B",
        "state_name": "Buenos Aires",
        "country_id": 11,
        "country_code": "AR",
        "country_name": "Argentina",
        "latitude": "-38.95737360",
        "longitude": "-61.44530580",
        "timezone": null,
        "wikiDataId": "Q2199691"
    },
    {
        "id": 154396,
        "name": "Moreno",
        "state_id": 3656,
        "state_code": "B",
        "state_name": "Buenos Aires",
        "country_id": 11,
        "country_code": "AR",
        "country_name": "Argentina",
        "latitude": "-34.59681430",
        "longitude": "-58.96697620",
        "timezone": null,
        "wikiDataId": "Q2037611"
    },
    {
        "id": 154397,
        "name": "Morón",
        "state_id": 3656,
        "state_code": "B",
        "state_name": "Buenos Aires",
        "country_id": 11,
        "country_code": "AR",
        "country_name": "Argentina",
        "latitude": "-34.64640300",
        "longitude": "-58.69414610",
        "timezone": null,
        "wikiDataId": "Q2213772"
    },
    {
        "id": 154398,
        "name": "Navarro",
        "state_id": 3656,
        "state_code": "B",
        "state_name": "Buenos Aires",
        "country_id": 11,
        "country_code": "AR",
        "country_name": "Argentina",
        "latitude": "-35.02457590",
        "longitude": "-59.77633880",
        "timezone": null,
        "wikiDataId": "Q775558"
    },
    {
        "id": 154399,
        "name": "Necochea",
        "state_id": 3656,
        "state_code": "B",
        "state_name": "Buenos Aires",
        "country_id": 11,
        "country_code": "AR",
        "country_name": "Argentina",
        "latitude": "-38.17378930",
        "longitude": "-59.80770580",
        "timezone": null,
        "wikiDataId": "Q2622293"
    },
    {
        "id": 154400,
        "name": "Nueve de Julio",
        "state_id": 3656,
        "state_code": "B",
        "state_name": "Buenos Aires",
        "country_id": 11,
        "country_code": "AR",
        "country_name": "Argentina",
        "latitude": "-35.45690360",
        "longitude": "-60.92393850",
        "timezone": null,
        "wikiDataId": "Q2289733"
    },
    {
        "id": 154401,
        "name": "Olavarría",
        "state_id": 3656,
        "state_code": "B",
        "state_name": "Buenos Aires",
        "country_id": 11,
        "country_code": "AR",
        "country_name": "Argentina",
        "latitude": "-36.85692910",
        "longitude": "-61.37189000",
        "timezone": null,
        "wikiDataId": "Q2621613"
    },
    {
        "id": 154402,
        "name": "Patagones",
        "state_id": 3656,
        "state_code": "B",
        "state_name": "Buenos Aires",
        "country_id": 11,
        "country_code": "AR",
        "country_name": "Argentina",
        "latitude": "-40.17288440",
        "longitude": "-64.09569830",
        "timezone": null,
        "wikiDataId": "Q2621919"
    },
    {
        "id": 154403,
        "name": "Pehuajó",
        "state_id": 3656,
        "state_code": "B",
        "state_name": "Buenos Aires",
        "country_id": 11,
        "country_code": "AR",
        "country_name": "Argentina",
        "latitude": "-35.90670570",
        "longitude": "-62.59308720",
        "timezone": null,
        "wikiDataId": "Q2345020"
    },
    {
        "id": 154404,
        "name": "Pellegrini",
        "state_id": 3656,
        "state_code": "B",
        "state_name": "Buenos Aires",
        "country_id": 11,
        "country_code": "AR",
        "country_name": "Argentina",
        "latitude": "-36.24270170",
        "longitude": "-63.82182700",
        "timezone": null,
        "wikiDataId": "Q2054688"
    },
    {
        "id": 154405,
        "name": "Pergamino",
        "state_id": 3656,
        "state_code": "B",
        "state_name": "Buenos Aires",
        "country_id": 11,
        "country_code": "AR",
        "country_name": "Argentina",
        "latitude": "-33.85555800",
        "longitude": "-61.20026950",
        "timezone": null,
        "wikiDataId": "Q2192713"
    },
    {
        "id": 154406,
        "name": "Pila",
        "state_id": 3656,
        "state_code": "B",
        "state_name": "Buenos Aires",
        "country_id": 11,
        "country_code": "AR",
        "country_name": "Argentina",
        "latitude": "-36.21422440",
        "longitude": "-59.05999650",
        "timezone": null,
        "wikiDataId": "Q2054697"
    },
    {
        "id": 154407,
        "name": "Pilar",
        "state_id": 3656,
        "state_code": "B",
        "state_name": "Buenos Aires",
        "country_id": 11,
        "country_code": "AR",
        "country_name": "Argentina",
        "latitude": "-34.44243960",
        "longitude": "-59.06160640",
        "timezone": null,
        "wikiDataId": "Q2621913"
    },
    {
        "id": 154408,
        "name": "Pinamar",
        "state_id": 3656,
        "state_code": "B",
        "state_name": "Buenos Aires",
        "country_id": 11,
        "country_code": "AR",
        "country_name": "Argentina",
        "latitude": "-37.10658290",
        "longitude": "-57.03470380",
        "timezone": null,
        "wikiDataId": "Q2501574"
    },
    {
        "id": 154409,
        "name": "Presidente Perón",
        "state_id": 3656,
        "state_code": "B",
        "state_name": "Buenos Aires",
        "country_id": 11,
        "country_code": "AR",
        "country_name": "Argentina",
        "latitude": "-34.94225680",
        "longitude": "-58.46566260",
        "timezone": null,
        "wikiDataId": "Q2360669"
    },
    {
        "id": 154410,
        "name": "Puan",
        "state_id": 3656,
        "state_code": "B",
        "state_name": "Buenos Aires",
        "country_id": 11,
        "country_code": "AR",
        "country_name": "Argentina",
        "latitude": "-38.09189020",
        "longitude": "-64.30307990",
        "timezone": null,
        "wikiDataId": "Q2761723"
    },
    {
        "id": 154411,
        "name": "Punta Indio",
        "state_id": 3656,
        "state_code": "B",
        "state_name": "Buenos Aires",
        "country_id": 11,
        "country_code": "AR",
        "country_name": "Argentina",
        "latitude": "-35.45569760",
        "longitude": "-57.79169470",
        "timezone": null,
        "wikiDataId": "Q2711703"
    },
    {
        "id": 154412,
        "name": "Quilmes",
        "state_id": 3656,
        "state_code": "B",
        "state_name": "Buenos Aires",
        "country_id": 11,
        "country_code": "AR",
        "country_name": "Argentina",
        "latitude": "-34.73973430",
        "longitude": "-58.35320560",
        "timezone": null,
        "wikiDataId": "Q1855418"
    },
    {
        "id": 154413,
        "name": "Ramallo",
        "state_id": 3656,
        "state_code": "B",
        "state_name": "Buenos Aires",
        "country_id": 11,
        "country_code": "AR",
        "country_name": "Argentina",
        "latitude": "-33.58813140",
        "longitude": "-60.38975740",
        "timezone": null,
        "wikiDataId": "Q2297669"
    },
    {
        "id": 154414,
        "name": "Rauch",
        "state_id": 3656,
        "state_code": "B",
        "state_name": "Buenos Aires",
        "country_id": 11,
        "country_code": "AR",
        "country_name": "Argentina",
        "latitude": "-36.59916740",
        "longitude": "-59.55774850",
        "timezone": null,
        "wikiDataId": "Q2167140"
    },
    {
        "id": 154415,
        "name": "Rivadavia",
        "state_id": 3656,
        "state_code": "B",
        "state_name": "Buenos Aires",
        "country_id": 11,
        "country_code": "AR",
        "country_name": "Argentina",
        "latitude": "-35.57782590",
        "longitude": "-63.66436280",
        "timezone": null,
        "wikiDataId": "Q2149622"
    },
    {
        "id": 154416,
        "name": "Rojas",
        "state_id": 3656,
        "state_code": "B",
        "state_name": "Buenos Aires",
        "country_id": 11,
        "country_code": "AR",
        "country_name": "Argentina",
        "latitude": "-34.19513250",
        "longitude": "-61.12565120",
        "timezone": null,
        "wikiDataId": "Q2621930"
    },
    {
        "id": 154417,
        "name": "Roque Pérez",
        "state_id": 3656,
        "state_code": "B",
        "state_name": "Buenos Aires",
        "country_id": 11,
        "country_code": "AR",
        "country_name": "Argentina",
        "latitude": "-35.52006040",
        "longitude": "-59.74705690",
        "timezone": null,
        "wikiDataId": "Q2531829"
    },
    {
        "id": 154418,
        "name": "Saavedra",
        "state_id": 3656,
        "state_code": "B",
        "state_name": "Buenos Aires",
        "country_id": 11,
        "country_code": "AR",
        "country_name": "Argentina",
        "latitude": "-37.73956430",
        "longitude": "-63.12959180",
        "timezone": null,
        "wikiDataId": "Q2622314"
    },
    {
        "id": 154419,
        "name": "Saladillo",
        "state_id": 3656,
        "state_code": "B",
        "state_name": "Buenos Aires",
        "country_id": 11,
        "country_code": "AR",
        "country_name": "Argentina",
        "latitude": "-35.67906870",
        "longitude": "-60.35942330",
        "timezone": null,
        "wikiDataId": "Q2621623"
    },
    {
        "id": 154420,
        "name": "Salliqueló",
        "state_id": 3656,
        "state_code": "B",
        "state_name": "Buenos Aires",
        "country_id": 11,
        "country_code": "AR",
        "country_name": "Argentina",
        "latitude": "-36.67026330",
        "longitude": "-63.37763790",
        "timezone": null,
        "wikiDataId": "Q2054758"
    },
    {
        "id": 154421,
        "name": "Salto",
        "state_id": 3656,
        "state_code": "B",
        "state_name": "Buenos Aires",
        "country_id": 11,
        "country_code": "AR",
        "country_name": "Argentina",
        "latitude": "-34.24698560",
        "longitude": "-60.61305280",
        "timezone": null,
        "wikiDataId": "Q2042858"
    },
    {
        "id": 154422,
        "name": "San Andrés de Giles",
        "state_id": 3656,
        "state_code": "B",
        "state_name": "Buenos Aires",
        "country_id": 11,
        "country_code": "AR",
        "country_name": "Argentina",
        "latitude": "-34.42586240",
        "longitude": "-59.81017060",
        "timezone": null,
        "wikiDataId": "Q2392259"
    },
    {
        "id": 154423,
        "name": "San Antonio de Areco",
        "state_id": 3656,
        "state_code": "B",
        "state_name": "Buenos Aires",
        "country_id": 11,
        "country_code": "AR",
        "country_name": "Argentina",
        "latitude": "-34.20590450",
        "longitude": "-59.85355590",
        "timezone": null,
        "wikiDataId": "Q2398056"
    },
    {
        "id": 154424,
        "name": "San Cayetano",
        "state_id": 3656,
        "state_code": "B",
        "state_name": "Buenos Aires",
        "country_id": 11,
        "country_code": "AR",
        "country_name": "Argentina",
        "latitude": "-38.40262680",
        "longitude": "-60.27756580",
        "timezone": null,
        "wikiDataId": "Q2342207"
    },
    {
        "id": 154425,
        "name": "San Fernando",
        "state_id": 3656,
        "state_code": "B",
        "state_name": "Buenos Aires",
        "country_id": 11,
        "country_code": "AR",
        "country_name": "Argentina",
        "latitude": "-34.24511400",
        "longitude": "-58.90071950",
        "timezone": null,
        "wikiDataId": "Q1971695"
    },
    {
        "id": 154426,
        "name": "San Isidro",
        "state_id": 3656,
        "state_code": "B",
        "state_name": "Buenos Aires",
        "country_id": 11,
        "country_code": "AR",
        "country_name": "Argentina",
        "latitude": "-34.48659380",
        "longitude": "-58.62225340",
        "timezone": null,
        "wikiDataId": "Q2644735"
    },
    {
        "id": 154427,
        "name": "San Miguel",
        "state_id": 3656,
        "state_code": "B",
        "state_name": "Buenos Aires",
        "country_id": 11,
        "country_code": "AR",
        "country_name": "Argentina",
        "latitude": "-34.55334190",
        "longitude": "-58.77405090",
        "timezone": null,
        "wikiDataId": "Q2209426"
    },
    {
        "id": 154428,
        "name": "San Nicolás",
        "state_id": 3656,
        "state_code": "B",
        "state_name": "Buenos Aires",
        "country_id": 11,
        "country_code": "AR",
        "country_name": "Argentina",
        "latitude": "-33.47155080",
        "longitude": "-60.63886600",
        "timezone": null,
        "wikiDataId": "Q2027949"
    },
    {
        "id": 154429,
        "name": "San Pedro",
        "state_id": 3656,
        "state_code": "B",
        "state_name": "Buenos Aires",
        "country_id": 11,
        "country_code": "AR",
        "country_name": "Argentina",
        "latitude": "-33.79559030",
        "longitude": "-60.11056980",
        "timezone": null,
        "wikiDataId": "Q1925048"
    },
    {
        "id": 154430,
        "name": "San Vicente",
        "state_id": 3656,
        "state_code": "B",
        "state_name": "Buenos Aires",
        "country_id": 11,
        "country_code": "AR",
        "country_name": "Argentina",
        "latitude": "-35.08097070",
        "longitude": "-58.74801840",
        "timezone": null,
        "wikiDataId": "Q2594035"
    },
    {
        "id": 154431,
        "name": "Suipacha",
        "state_id": 3656,
        "state_code": "B",
        "state_name": "Buenos Aires",
        "country_id": 11,
        "country_code": "AR",
        "country_name": "Argentina",
        "latitude": "-34.73712310",
        "longitude": "-60.03526020",
        "timezone": null,
        "wikiDataId": "Q593401"
    },
    {
        "id": 154432,
        "name": "Tandil",
        "state_id": 3656,
        "state_code": "B",
        "state_name": "Buenos Aires",
        "country_id": 11,
        "country_code": "AR",
        "country_name": "Argentina",
        "latitude": "-37.33286290",
        "longitude": "-59.85479050",
        "timezone": null,
        "wikiDataId": "Q2101298"
    },
    {
        "id": 154433,
        "name": "Tapalqué",
        "state_id": 3656,
        "state_code": "B",
        "state_name": "Buenos Aires",
        "country_id": 11,
        "country_code": "AR",
        "country_name": "Argentina",
        "latitude": "-36.36637830",
        "longitude": "-60.81551140",
        "timezone": null,
        "wikiDataId": "Q730947"
    },
    {
        "id": 154434,
        "name": "Tigre",
        "state_id": 3656,
        "state_code": "B",
        "state_name": "Buenos Aires",
        "country_id": 11,
        "country_code": "AR",
        "country_name": "Argentina",
        "latitude": "-34.40017610",
        "longitude": "-58.75939520",
        "timezone": null,
        "wikiDataId": "Q1906802"
    },
    {
        "id": 154435,
        "name": "Tordillo",
        "state_id": 3656,
        "state_code": "B",
        "state_name": "Buenos Aires",
        "country_id": 11,
        "country_code": "AR",
        "country_name": "Argentina",
        "latitude": "-36.41238410",
        "longitude": "-57.57341650",
        "timezone": null,
        "wikiDataId": "Q1861464"
    },
    {
        "id": 154436,
        "name": "Tornquist",
        "state_id": 3656,
        "state_code": "B",
        "state_name": "Buenos Aires",
        "country_id": 11,
        "country_code": "AR",
        "country_name": "Argentina",
        "latitude": "-38.26024950",
        "longitude": "-62.95775910",
        "timezone": null,
        "wikiDataId": "Q2096228"
    },
    {
        "id": 154437,
        "name": "Trenque Lauquen",
        "state_id": 3656,
        "state_code": "B",
        "state_name": "Buenos Aires",
        "country_id": 11,
        "country_code": "AR",
        "country_name": "Argentina",
        "latitude": "-36.05316630",
        "longitude": "-63.30255910",
        "timezone": null,
        "wikiDataId": "Q967691"
    },
    {
        "id": 154438,
        "name": "Tres Arroyos",
        "state_id": 3656,
        "state_code": "B",
        "state_name": "Buenos Aires",
        "country_id": 11,
        "country_code": "AR",
        "country_name": "Argentina",
        "latitude": "-38.46994170",
        "longitude": "-60.84561550",
        "timezone": null,
        "wikiDataId": "Q1982616"
    },
    {
        "id": 154439,
        "name": "Tres de Febrero",
        "state_id": 3656,
        "state_code": "B",
        "state_name": "Buenos Aires",
        "country_id": 11,
        "country_code": "AR",
        "country_name": "Argentina",
        "latitude": "-34.59999320",
        "longitude": "-58.66706300",
        "timezone": null,
        "wikiDataId": "Q2054829"
    },
    {
        "id": 154440,
        "name": "Tres Lomas",
        "state_id": 3656,
        "state_code": "B",
        "state_name": "Buenos Aires",
        "country_id": 11,
        "country_code": "AR",
        "country_name": "Argentina",
        "latitude": "-36.48938820",
        "longitude": "-63.19723280",
        "timezone": null,
        "wikiDataId": "Q2388331"
    },
    {
        "id": 154441,
        "name": "Veinticinco de Mayo",
        "state_id": 3656,
        "state_code": "B",
        "state_name": "Buenos Aires",
        "country_id": 11,
        "country_code": "AR",
        "country_name": "Argentina",
        "latitude": "-35.55138480",
        "longitude": "-60.84646650",
        "timezone": null,
        "wikiDataId": "Q2109979"
    },
    {
        "id": 154442,
        "name": "Vicente López",
        "state_id": 3656,
        "state_code": "B",
        "state_name": "Buenos Aires",
        "country_id": 11,
        "country_code": "AR",
        "country_name": "Argentina",
        "latitude": "-34.52931400",
        "longitude": "-58.58906610",
        "timezone": null,
        "wikiDataId": "Q2099330"
    },
    {
        "id": 154443,
        "name": "Villa Gesell",
        "state_id": 3656,
        "state_code": "B",
        "state_name": "Buenos Aires",
        "country_id": 11,
        "country_code": "AR",
        "country_name": "Argentina",
        "latitude": "-37.36616190",
        "longitude": "-57.38978580",
        "timezone": null,
        "wikiDataId": "Q2426312"
    },
    {
        "id": 154444,
        "name": "Villarino",
        "state_id": 3656,
        "state_code": "B",
        "state_name": "Buenos Aires",
        "country_id": 11,
        "country_code": "AR",
        "country_name": "Argentina",
        "latitude": "-39.14254170",
        "longitude": "-64.01619890",
        "timezone": null,
        "wikiDataId": "Q2621992"
    },
    {
        "id": 154445,
        "name": "Zárate",
        "state_id": 3656,
        "state_code": "B",
        "state_name": "Buenos Aires",
        "country_id": 11,
        "country_code": "AR",
        "country_name": "Argentina",
        "latitude": "-34.00225010",
        "longitude": "-59.42188710",
        "timezone": null,
        "wikiDataId": "Q2622012"
    },
    {
        "id": 659,
        "name": "Ancasti",
        "state_id": 3647,
        "state_code": "K",
        "state_name": "Catamarca",
        "country_id": 11,
        "country_code": "AR",
        "country_name": "Argentina",
        "latitude": "-28.81247000",
        "longitude": "-65.50145000",
        "timezone": null,
        "wikiDataId": "Q21845580"
    },
    {
        "id": 661,
        "name": "Andalgalá",
        "state_id": 3647,
        "state_code": "K",
        "state_name": "Catamarca",
        "country_id": 11,
        "country_code": "AR",
        "country_name": "Argentina",
        "latitude": "-27.58185000",
        "longitude": "-66.31626000",
        "timezone": null,
        "wikiDataId": "Q489679"
    },
    {
        "id": 663,
        "name": "Antofagasta de la Sierra",
        "state_id": 3647,
        "state_code": "K",
        "state_name": "Catamarca",
        "country_id": 11,
        "country_code": "AR",
        "country_name": "Argentina",
        "latitude": "-26.05940000",
        "longitude": "-67.40636000",
        "timezone": null,
        "wikiDataId": "Q2536371"
    },
    {
        "id": 726,
        "name": "Capayán",
        "state_id": 3647,
        "state_code": "K",
        "state_name": "Catamarca",
        "country_id": 11,
        "country_code": "AR",
        "country_name": "Argentina",
        "latitude": "-28.77436000",
        "longitude": "-66.04749000",
        "timezone": null,
        "wikiDataId": "Q21844014"
    },
    {
        "id": 824,
        "name": "Departamento de Ambato",
        "state_id": 3647,
        "state_code": "K",
        "state_name": "Catamarca",
        "country_id": 11,
        "country_code": "AR",
        "country_name": "Argentina",
        "latitude": "-28.00000000",
        "longitude": "-65.91667000",
        "timezone": null,
        "wikiDataId": "Q688734"
    },
    {
        "id": 825,
        "name": "Departamento de Ancasti",
        "state_id": 3647,
        "state_code": "K",
        "state_name": "Catamarca",
        "country_id": 11,
        "country_code": "AR",
        "country_name": "Argentina",
        "latitude": "-29.00000000",
        "longitude": "-65.50000000",
        "timezone": null,
        "wikiDataId": "Q760261"
    },
    {
        "id": 826,
        "name": "Departamento de Andalgalá",
        "state_id": 3647,
        "state_code": "K",
        "state_name": "Catamarca",
        "country_id": 11,
        "country_code": "AR",
        "country_name": "Argentina",
        "latitude": "-27.58333000",
        "longitude": "-66.46667000",
        "timezone": null,
        "wikiDataId": "Q1190227"
    },
    {
        "id": 829,
        "name": "Departamento de Antofagasta de la Sierra",
        "state_id": 3647,
        "state_code": "K",
        "state_name": "Catamarca",
        "country_id": 11,
        "country_code": "AR",
        "country_name": "Argentina",
        "latitude": "-26.00000000",
        "longitude": "-67.58333000",
        "timezone": null,
        "wikiDataId": "Q1190229"
    },
    {
        "id": 846,
        "name": "Departamento de Capayán",
        "state_id": 3647,
        "state_code": "K",
        "state_name": "Catamarca",
        "country_id": 11,
        "country_code": "AR",
        "country_name": "Argentina",
        "latitude": "-28.83333000",
        "longitude": "-66.00000000",
        "timezone": null,
        "wikiDataId": "Q858107"
    },
    {
        "id": 849,
        "name": "Departamento de Capital",
        "state_id": 3647,
        "state_code": "K",
        "state_name": "Catamarca",
        "country_id": 11,
        "country_code": "AR",
        "country_name": "Argentina",
        "latitude": "-28.41667000",
        "longitude": "-65.80000000",
        "timezone": null,
        "wikiDataId": "Q858182"
    },
    {
        "id": 877,
        "name": "Departamento de El Alto",
        "state_id": 3647,
        "state_code": "K",
        "state_name": "Catamarca",
        "country_id": 11,
        "country_code": "AR",
        "country_name": "Argentina",
        "latitude": "-28.41667000",
        "longitude": "-65.41667000",
        "timezone": null,
        "wikiDataId": "Q899638"
    },
    {
        "id": 884,
        "name": "Departamento de Fray Mamerto Esquiú",
        "state_id": 3647,
        "state_code": "K",
        "state_name": "Catamarca",
        "country_id": 11,
        "country_code": "AR",
        "country_name": "Argentina",
        "latitude": "-28.30000000",
        "longitude": "-65.75000000",
        "timezone": null,
        "wikiDataId": "Q775145"
    },
    {
        "id": 918,
        "name": "Departamento de La Paz",
        "state_id": 3647,
        "state_code": "K",
        "state_name": "Catamarca",
        "country_id": 11,
        "country_code": "AR",
        "country_name": "Argentina",
        "latitude": "-29.25000000",
        "longitude": "-65.25000000",
        "timezone": null,
        "wikiDataId": "Q1127089"
    },
    {
        "id": 959,
        "name": "Departamento de Pomán",
        "state_id": 3647,
        "state_code": "K",
        "state_name": "Catamarca",
        "country_id": 11,
        "country_code": "AR",
        "country_name": "Argentina",
        "latitude": "-28.25000000",
        "longitude": "-66.41667000",
        "timezone": null,
        "wikiDataId": "Q1190958"
    },
    {
        "id": 1006,
        "name": "Departamento de Santa María",
        "state_id": 3647,
        "state_code": "K",
        "state_name": "Catamarca",
        "country_id": 11,
        "country_code": "AR",
        "country_name": "Argentina",
        "latitude": "-26.66667000",
        "longitude": "-66.41667000",
        "timezone": null,
        "wikiDataId": "Q1080656"
    },
    {
        "id": 1007,
        "name": "Departamento de Santa Rosa",
        "state_id": 3647,
        "state_code": "K",
        "state_name": "Catamarca",
        "country_id": 11,
        "country_code": "AR",
        "country_name": "Argentina",
        "latitude": "-28.08333000",
        "longitude": "-65.25000000",
        "timezone": null,
        "wikiDataId": "Q638965"
    },
    {
        "id": 1020,
        "name": "Departamento de Tinogasta",
        "state_id": 3647,
        "state_code": "K",
        "state_name": "Catamarca",
        "country_id": 11,
        "country_code": "AR",
        "country_name": "Argentina",
        "latitude": "-27.50000000",
        "longitude": "-68.00000000",
        "timezone": null,
        "wikiDataId": "Q1080210"
    },
    {
        "id": 1030,
        "name": "Departamento de Valle Viejo",
        "state_id": 3647,
        "state_code": "K",
        "state_name": "Catamarca",
        "country_id": 11,
        "country_code": "AR",
        "country_name": "Argentina",
        "latitude": "-28.58333000",
        "longitude": "-65.75000000",
        "timezone": null,
        "wikiDataId": "Q288586"
    },
    {
        "id": 1060,
        "name": "El Rodeo",
        "state_id": 3647,
        "state_code": "K",
        "state_name": "Catamarca",
        "country_id": 11,
        "country_code": "AR",
        "country_name": "Argentina",
        "latitude": "-28.21518000",
        "longitude": "-65.87420000",
        "timezone": null,
        "wikiDataId": "Q21842213"
    },
    {
        "id": 1078,
        "name": "Fiambalá",
        "state_id": 3647,
        "state_code": "K",
        "state_name": "Catamarca",
        "country_id": 11,
        "country_code": "AR",
        "country_name": "Argentina",
        "latitude": "-27.67225000",
        "longitude": "-67.61870000",
        "timezone": null,
        "wikiDataId": "Q2613214"
    },
    {
        "id": 1142,
        "name": "Hualfín",
        "state_id": 3647,
        "state_code": "K",
        "state_name": "Catamarca",
        "country_id": 11,
        "country_code": "AR",
        "country_name": "Argentina",
        "latitude": "-27.22896000",
        "longitude": "-66.83131000",
        "timezone": null,
        "wikiDataId": "Q1774287"
    },
    {
        "id": 1145,
        "name": "Huillapima",
        "state_id": 3647,
        "state_code": "K",
        "state_name": "Catamarca",
        "country_id": 11,
        "country_code": "AR",
        "country_name": "Argentina",
        "latitude": "-28.72533000",
        "longitude": "-65.97870000",
        "timezone": null,
        "wikiDataId": "Q81653"
    },
    {
        "id": 1149,
        "name": "Icaño",
        "state_id": 3647,
        "state_code": "K",
        "state_name": "Catamarca",
        "country_id": 11,
        "country_code": "AR",
        "country_name": "Argentina",
        "latitude": "-28.91934000",
        "longitude": "-65.32817000",
        "timezone": null,
        "wikiDataId": "Q3791626"
    },
    {
        "id": 1197,
        "name": "La Puerta de San José",
        "state_id": 3647,
        "state_code": "K",
        "state_name": "Catamarca",
        "country_id": 11,
        "country_code": "AR",
        "country_name": "Argentina",
        "latitude": "-27.55000000",
        "longitude": "-67.01667000",
        "timezone": null,
        "wikiDataId": "Q1774215"
    },
    {
        "id": 1239,
        "name": "Londres",
        "state_id": 3647,
        "state_code": "K",
        "state_name": "Catamarca",
        "country_id": 11,
        "country_code": "AR",
        "country_name": "Argentina",
        "latitude": "-27.71439000",
        "longitude": "-67.13349000",
        "timezone": null,
        "wikiDataId": "Q930973"
    },
    {
        "id": 1243,
        "name": "Los Altos",
        "state_id": 3647,
        "state_code": "K",
        "state_name": "Catamarca",
        "country_id": 11,
        "country_code": "AR",
        "country_name": "Argentina",
        "latitude": "-28.04845000",
        "longitude": "-65.49945000",
        "timezone": null,
        "wikiDataId": "Q6681893"
    },
    {
        "id": 1256,
        "name": "Los Varela",
        "state_id": 3647,
        "state_code": "K",
        "state_name": "Catamarca",
        "country_id": 11,
        "country_code": "AR",
        "country_name": "Argentina",
        "latitude": "-27.93003000",
        "longitude": "-65.87153000",
        "timezone": null,
        "wikiDataId": "Q1774269"
    },
    {
        "id": 1294,
        "name": "Mutquín",
        "state_id": 3647,
        "state_code": "K",
        "state_name": "Catamarca",
        "country_id": 11,
        "country_code": "AR",
        "country_name": "Argentina",
        "latitude": "-28.32104000",
        "longitude": "-66.14253000",
        "timezone": null,
        "wikiDataId": "Q2387512"
    },
    {
        "id": 1340,
        "name": "Pomán",
        "state_id": 3647,
        "state_code": "K",
        "state_name": "Catamarca",
        "country_id": 11,
        "country_code": "AR",
        "country_name": "Argentina",
        "latitude": "-28.39455000",
        "longitude": "-66.22052000",
        "timezone": null,
        "wikiDataId": "Q2437304"
    },
    {
        "id": 1350,
        "name": "Puerta de Corral Quemado",
        "state_id": 3647,
        "state_code": "K",
        "state_name": "Catamarca",
        "country_id": 11,
        "country_code": "AR",
        "country_name": "Argentina",
        "latitude": "-27.23000000",
        "longitude": "-66.93635000",
        "timezone": null,
        "wikiDataId": "Q1774277"
    },
    {
        "id": 1378,
        "name": "Recreo",
        "state_id": 3647,
        "state_code": "K",
        "state_name": "Catamarca",
        "country_id": 11,
        "country_code": "AR",
        "country_name": "Argentina",
        "latitude": "-29.28184000",
        "longitude": "-65.06096000",
        "timezone": null,
        "wikiDataId": "Q766923"
    },
    {
        "id": 1408,
        "name": "San Antonio",
        "state_id": 3647,
        "state_code": "K",
        "state_name": "Catamarca",
        "country_id": 11,
        "country_code": "AR",
        "country_name": "Argentina",
        "latitude": "-28.01009000",
        "longitude": "-65.70874000",
        "timezone": null,
        "wikiDataId": "Q7413304"
    },
    {
        "id": 1421,
        "name": "San Fernando del Valle de Catamarca",
        "state_id": 3647,
        "state_code": "K",
        "state_name": "Catamarca",
        "country_id": 11,
        "country_code": "AR",
        "country_name": "Argentina",
        "latitude": "-28.46957000",
        "longitude": "-65.78524000",
        "timezone": null,
        "wikiDataId": "Q44162"
    },
    {
        "id": 1464,
        "name": "Santa María",
        "state_id": 3647,
        "state_code": "K",
        "state_name": "Catamarca",
        "country_id": 11,
        "country_code": "AR",
        "country_name": "Argentina",
        "latitude": "-26.69547000",
        "longitude": "-66.04732000",
        "timezone": null,
        "wikiDataId": "Q1012407"
    },
    {
        "id": 1505,
        "name": "Tinogasta",
        "state_id": 3647,
        "state_code": "K",
        "state_name": "Catamarca",
        "country_id": 11,
        "country_code": "AR",
        "country_name": "Argentina",
        "latitude": "-28.06319000",
        "longitude": "-67.56488000",
        "timezone": null,
        "wikiDataId": "Q81563"
    },
    {
        "id": 677,
        "name": "Aviá Terai",
        "state_id": 3640,
        "state_code": "H",
        "state_name": "Chaco",
        "country_id": 11,
        "country_code": "AR",
        "country_name": "Argentina",
        "latitude": "-26.68532000",
        "longitude": "-60.72920000",
        "timezone": null,
        "wikiDataId": "Q528399"
    },
    {
        "id": 685,
        "name": "Barranqueras",
        "state_id": 3640,
        "state_code": "H",
        "state_name": "Chaco",
        "country_id": 11,
        "country_code": "AR",
        "country_name": "Argentina",
        "latitude": "-27.48132000",
        "longitude": "-58.93925000",
        "timezone": null,
        "wikiDataId": "Q2885504"
    },
    {
        "id": 686,
        "name": "Basail",
        "state_id": 3640,
        "state_code": "H",
        "state_name": "Chaco",
        "country_id": 11,
        "country_code": "AR",
        "country_name": "Argentina",
        "latitude": "-27.88539000",
        "longitude": "-59.28245000",
        "timezone": null,
        "wikiDataId": "Q1578997"
    },
    {
        "id": 719,
        "name": "Campo Largo",
        "state_id": 3640,
        "state_code": "H",
        "state_name": "Chaco",
        "country_id": 11,
        "country_code": "AR",
        "country_name": "Argentina",
        "latitude": "-26.80077000",
        "longitude": "-60.84215000",
        "timezone": null,
        "wikiDataId": "Q21843910"
    },
    {
        "id": 730,
        "name": "Capitán Solari",
        "state_id": 3640,
        "state_code": "H",
        "state_name": "Chaco",
        "country_id": 11,
        "country_code": "AR",
        "country_name": "Argentina",
        "latitude": "-26.80215000",
        "longitude": "-59.56089000",
        "timezone": null,
        "wikiDataId": "Q1579019"
    },
    {
        "id": 737,
        "name": "Castelli",
        "state_id": 3640,
        "state_code": "H",
        "state_name": "Chaco",
        "country_id": 11,
        "country_code": "AR",
        "country_name": "Argentina",
        "latitude": "-25.94679000",
        "longitude": "-60.61947000",
        "timezone": null,
        "wikiDataId": "Q568624"
    },
    {
        "id": 753,
        "name": "Charadai",
        "state_id": 3640,
        "state_code": "H",
        "state_name": "Chaco",
        "country_id": 11,
        "country_code": "AR",
        "country_name": "Argentina",
        "latitude": "-27.65503000",
        "longitude": "-59.86291000",
        "timezone": null,
        "wikiDataId": "Q1578855"
    },
    {
        "id": 754,
        "name": "Charata",
        "state_id": 3640,
        "state_code": "H",
        "state_name": "Chaco",
        "country_id": 11,
        "country_code": "AR",
        "country_name": "Argentina",
        "latitude": "-27.21438000",
        "longitude": "-61.18795000",
        "timezone": null,
        "wikiDataId": "Q1578300"
    },
    {
        "id": 765,
        "name": "Chorotis",
        "state_id": 3640,
        "state_code": "H",
        "state_name": "Chaco",
        "country_id": 11,
        "country_code": "AR",
        "country_name": "Argentina",
        "latitude": "-27.91578000",
        "longitude": "-61.39982000",
        "timezone": null,
        "wikiDataId": "Q1579594"
    },
    {
        "id": 767,
        "name": "Ciervo Petiso",
        "state_id": 3640,
        "state_code": "H",
        "state_name": "Chaco",
        "country_id": 11,
        "country_code": "AR",
        "country_name": "Argentina",
        "latitude": "-26.58041000",
        "longitude": "-59.63094000",
        "timezone": null,
        "wikiDataId": "Q5119715"
    },
    {
        "id": 776,
        "name": "Colonia Benítez",
        "state_id": 3640,
        "state_code": "H",
        "state_name": "Chaco",
        "country_id": 11,
        "country_code": "AR",
        "country_name": "Argentina",
        "latitude": "-27.33099000",
        "longitude": "-58.94622000",
        "timezone": null,
        "wikiDataId": "Q1579162"
    },
    {
        "id": 778,
        "name": "Colonia Elisa",
        "state_id": 3640,
        "state_code": "H",
        "state_name": "Chaco",
        "country_id": 11,
        "country_code": "AR",
        "country_name": "Argentina",
        "latitude": "-26.93041000",
        "longitude": "-59.51861000",
        "timezone": null,
        "wikiDataId": "Q1579265"
    },
    {
        "id": 782,
        "name": "Colonias Unidas",
        "state_id": 3640,
        "state_code": "H",
        "state_name": "Chaco",
        "country_id": 11,
        "country_code": "AR",
        "country_name": "Argentina",
        "latitude": "-26.69825000",
        "longitude": "-59.63154000",
        "timezone": null,
        "wikiDataId": "Q1579067"
    },
    {
        "id": 791,
        "name": "Concepción del Bermejo",
        "state_id": 3640,
        "state_code": "H",
        "state_name": "Chaco",
        "country_id": 11,
        "country_code": "AR",
        "country_name": "Argentina",
        "latitude": "-26.59926000",
        "longitude": "-60.94617000",
        "timezone": null,
        "wikiDataId": "Q785491"
    },
    {
        "id": 799,
        "name": "Coronel Du Graty",
        "state_id": 3640,
        "state_code": "H",
        "state_name": "Chaco",
        "country_id": 11,
        "country_code": "AR",
        "country_name": "Argentina",
        "latitude": "-27.68038000",
        "longitude": "-60.91462000",
        "timezone": null,
        "wikiDataId": "Q1657891"
    },
    {
        "id": 804,
        "name": "Corzuela",
        "state_id": 3640,
        "state_code": "H",
        "state_name": "Chaco",
        "country_id": 11,
        "country_code": "AR",
        "country_name": "Argentina",
        "latitude": "-26.95374000",
        "longitude": "-60.96928000",
        "timezone": null,
        "wikiDataId": "Q1135953"
    },
    {
        "id": 807,
        "name": "Coté-Lai",
        "state_id": 3640,
        "state_code": "H",
        "state_name": "Chaco",
        "country_id": 11,
        "country_code": "AR",
        "country_name": "Argentina",
        "latitude": "-27.50000000",
        "longitude": "-59.60000000",
        "timezone": null,
        "wikiDataId": "Q21829400"
    },
    {
        "id": 822,
        "name": "Departamento de Almirante Brown",
        "state_id": 3640,
        "state_code": "H",
        "state_name": "Chaco",
        "country_id": 11,
        "country_code": "AR",
        "country_name": "Argentina",
        "latitude": "-25.81662000",
        "longitude": "-61.45576000",
        "timezone": null,
        "wikiDataId": "Q1190331"
    },
    {
        "id": 837,
        "name": "Departamento de Bermejo",
        "state_id": 3640,
        "state_code": "H",
        "state_name": "Chaco",
        "country_id": 11,
        "country_code": "AR",
        "country_name": "Argentina",
        "latitude": "-27.00000000",
        "longitude": "-58.66667000",
        "timezone": null,
        "wikiDataId": "Q792464"
    },
    {
        "id": 865,
        "name": "Departamento de Comandante Fernández",
        "state_id": 3640,
        "state_code": "H",
        "state_name": "Chaco",
        "country_id": 11,
        "country_code": "AR",
        "country_name": "Argentina",
        "latitude": "-26.83333000",
        "longitude": "-60.50000000",
        "timezone": null,
        "wikiDataId": "Q868409"
    },
    {
        "id": 875,
        "name": "Departamento de Doce de Octubre",
        "state_id": 3640,
        "state_code": "H",
        "state_name": "Chaco",
        "country_id": 11,
        "country_code": "AR",
        "country_name": "Argentina",
        "latitude": "-27.41667000",
        "longitude": "-61.33333000",
        "timezone": null,
        "wikiDataId": "Q899638"
    },
    {
        "id": 876,
        "name": "Departamento de Dos de Abril",
        "state_id": 3640,
        "state_code": "H",
        "state_name": "Chaco",
        "country_id": 11,
        "country_code": "AR",
        "country_name": "Argentina",
        "latitude": "-27.60932000",
        "longitude": "-61.34473000",
        "timezone": null,
        "wikiDataId": "Q899638"
    },
    {
        "id": 890,
        "name": "Departamento de General Donovan",
        "state_id": 3640,
        "state_code": "H",
        "state_name": "Chaco",
        "country_id": 11,
        "country_code": "AR",
        "country_name": "Argentina",
        "latitude": "-27.16667000",
        "longitude": "-59.33333000",
        "timezone": null,
        "wikiDataId": "Q922325"
    },
    {
        "id": 892,
        "name": "Departamento de General Güemes",
        "state_id": 3640,
        "state_code": "H",
        "state_name": "Chaco",
        "country_id": 11,
        "country_code": "AR",
        "country_name": "Argentina",
        "latitude": "-25.16667000",
        "longitude": "-61.41667000",
        "timezone": null,
        "wikiDataId": "Q922325"
    },
    {
        "id": 909,
        "name": "Departamento de Independencia",
        "state_id": 3640,
        "state_code": "H",
        "state_name": "Chaco",
        "country_id": 11,
        "country_code": "AR",
        "country_name": "Argentina",
        "latitude": "-26.66667000",
        "longitude": "-60.66667000",
        "timezone": null,
        "wikiDataId": "Q731983"
    },
    {
        "id": 928,
        "name": "Departamento de Libertad",
        "state_id": 3640,
        "state_code": "H",
        "state_name": "Chaco",
        "country_id": 11,
        "country_code": "AR",
        "country_name": "Argentina",
        "latitude": "-27.33333000",
        "longitude": "-59.33333000",
        "timezone": null,
        "wikiDataId": "Q279489"
    },
    {
        "id": 937,
        "name": "Departamento de Maipú",
        "state_id": 3640,
        "state_code": "H",
        "state_name": "Chaco",
        "country_id": 11,
        "country_code": "AR",
        "country_name": "Argentina",
        "latitude": "-26.33333000",
        "longitude": "-60.41667000",
        "timezone": null,
        "wikiDataId": "Q588032"
    },
    {
        "id": 950,
        "name": "Departamento de Nueve de Julio",
        "state_id": 3640,
        "state_code": "H",
        "state_name": "Chaco",
        "country_id": 11,
        "country_code": "AR",
        "country_name": "Argentina",
        "latitude": "-26.95331000",
        "longitude": "-61.27627000",
        "timezone": null,
        "wikiDataId": "Q770031"
    },
    {
        "id": 954,
        "name": "Departamento de O’Higgins",
        "state_id": 3640,
        "state_code": "H",
        "state_name": "Chaco",
        "country_id": 11,
        "country_code": "AR",
        "country_name": "Argentina",
        "latitude": "-27.25000000",
        "longitude": "-60.66667000",
        "timezone": null,
        "wikiDataId": "Q770031"
    },
    {
        "id": 960,
        "name": "Departamento de Presidencia de la Plaza",
        "state_id": 3640,
        "state_code": "H",
        "state_name": "Chaco",
        "country_id": 11,
        "country_code": "AR",
        "country_name": "Argentina",
        "latitude": "-27.00000000",
        "longitude": "-59.75000000",
        "timezone": null,
        "wikiDataId": "Q1190958"
    },
    {
        "id": 962,
        "name": "Departamento de Quitilipi",
        "state_id": 3640,
        "state_code": "H",
        "state_name": "Chaco",
        "country_id": 11,
        "country_code": "AR",
        "country_name": "Argentina",
        "latitude": "-26.66667000",
        "longitude": "-60.16667000",
        "timezone": null,
        "wikiDataId": "Q1063416"
    },
    {
        "id": 986,
        "name": "Departamento de San Fernando",
        "state_id": 3640,
        "state_code": "H",
        "state_name": "Chaco",
        "country_id": 11,
        "country_code": "AR",
        "country_name": "Argentina",
        "latitude": "-27.66667000",
        "longitude": "-59.16667000",
        "timezone": null,
        "wikiDataId": "Q1063341"
    },
    {
        "id": 994,
        "name": "Departamento de San Lorenzo",
        "state_id": 3640,
        "state_code": "H",
        "state_name": "Chaco",
        "country_id": 11,
        "country_code": "AR",
        "country_name": "Argentina",
        "latitude": "-27.33333000",
        "longitude": "-60.41667000",
        "timezone": null,
        "wikiDataId": "Q1191103"
    },
    {
        "id": 1010,
        "name": "Departamento de Sargento Cabral",
        "state_id": 3640,
        "state_code": "H",
        "state_name": "Chaco",
        "country_id": 11,
        "country_code": "AR",
        "country_name": "Argentina",
        "latitude": "-26.83333000",
        "longitude": "-59.50000000",
        "timezone": null,
        "wikiDataId": "Q1063313"
    },
    {
        "id": 1017,
        "name": "Departamento de Tapenagá",
        "state_id": 3640,
        "state_code": "H",
        "state_name": "Chaco",
        "country_id": 11,
        "country_code": "AR",
        "country_name": "Argentina",
        "latitude": "-27.50000000",
        "longitude": "-59.75000000",
        "timezone": null,
        "wikiDataId": "Q1063095"
    },
    {
        "id": 1081,
        "name": "Fontana",
        "state_id": 3640,
        "state_code": "H",
        "state_name": "Chaco",
        "country_id": 11,
        "country_code": "AR",
        "country_name": "Argentina",
        "latitude": "-27.41813000",
        "longitude": "-59.02392000",
        "timezone": null,
        "wikiDataId": "Q923414"
    },
    {
        "id": 1088,
        "name": "Gancedo",
        "state_id": 3640,
        "state_code": "H",
        "state_name": "Chaco",
        "country_id": 11,
        "country_code": "AR",
        "country_name": "Argentina",
        "latitude": "-27.49038000",
        "longitude": "-61.67571000",
        "timezone": null,
        "wikiDataId": "Q1578967"
    },
    {
        "id": 1105,
        "name": "General José de San Martín",
        "state_id": 3640,
        "state_code": "H",
        "state_name": "Chaco",
        "country_id": 11,
        "country_code": "AR",
        "country_name": "Argentina",
        "latitude": "-26.53743000",
        "longitude": "-59.34158000",
        "timezone": null,
        "wikiDataId": "Q2220740"
    },
    {
        "id": 1109,
        "name": "General Pinedo",
        "state_id": 3640,
        "state_code": "H",
        "state_name": "Chaco",
        "country_id": 11,
        "country_code": "AR",
        "country_name": "Argentina",
        "latitude": "-27.31667000",
        "longitude": "-61.28333000",
        "timezone": null,
        "wikiDataId": "Q611504"
    },
    {
        "id": 1114,
        "name": "General Vedia",
        "state_id": 3640,
        "state_code": "H",
        "state_name": "Chaco",
        "country_id": 11,
        "country_code": "AR",
        "country_name": "Argentina",
        "latitude": "-26.93382000",
        "longitude": "-58.66040000",
        "timezone": null,
        "wikiDataId": "Q1656049"
    },
    {
        "id": 1135,
        "name": "Hermoso Campo",
        "state_id": 3640,
        "state_code": "H",
        "state_name": "Chaco",
        "country_id": 11,
        "country_code": "AR",
        "country_name": "Argentina",
        "latitude": "-27.60816000",
        "longitude": "-61.34441000",
        "timezone": null,
        "wikiDataId": "Q751497"
    },
    {
        "id": 1181,
        "name": "La Clotilde",
        "state_id": 3640,
        "state_code": "H",
        "state_name": "Chaco",
        "country_id": 11,
        "country_code": "AR",
        "country_name": "Argentina",
        "latitude": "-27.13333000",
        "longitude": "-60.66667000",
        "timezone": null,
        "wikiDataId": "Q1656083"
    },
    {
        "id": 1186,
        "name": "La Eduvigis",
        "state_id": 3640,
        "state_code": "H",
        "state_name": "Chaco",
        "country_id": 11,
        "country_code": "AR",
        "country_name": "Argentina",
        "latitude": "-26.83607000",
        "longitude": "-59.06211000",
        "timezone": null,
        "wikiDataId": "Q1657326"
    },