[
    {
        "id": 1671,
        "name": "Antau",
        "state_id": 2062,
        "state_code": "1",
        "state_name": "Burgenland",
        "country_id": 15,
        "country_code": "AT",
        "country_name": "Austria",
        "latitude": "47.77377000",
        "longitude": "16.47984000",
        "timezone": null,
        "wikiDataId": "Q571503"
    },
    {
        "id": 1673,
        "name": "Apetlon",
        "state_id": 2062,
        "state_code": "1",
        "state_name": "Burgenland",
        "country_id": 15,
        "country_code": "AT",
        "country_name": "Austria",
        "latitude": "47.74394000",
        "longitude": "16.83020000",
        "timezone": null,
        "wikiDataId": "Q618270"
    },
    {
        "id": 1734,
        "name": "Bad Sauerbrunn",
        "state_id": 2062,
        "state_code": "1",
        "state_name": "Burgenland",
        "country_id": 15,
        "country_code": "AT",
        "country_name": "Austria",
        "latitude": "47.77439000",
        "longitude": "16.32841000",
        "timezone": null,
        "wikiDataId": "Q645500"
    },
    {
        "id": 1737,
        "name": "Bad Tatzmannsdorf",
        "state_id": 2062,
        "state_code": "1",
        "state_name": "Burgenland",
        "country_id": 15,
        "country_code": "AT",
        "country_name": "Austria",
        "latitude": "47.33126000",
        "longitude": "16.23067000",
        "timezone": null,
        "wikiDataId": "Q676166"
    },
    {
        "id": 1743,
        "name": "Badersdorf",
        "state_id": 2062,
        "state_code": "1",
        "state_name": "Burgenland",
        "country_id": 15,
        "country_code": "AT",
        "country_name": "Austria",
        "latitude": "47.20000000",
        "longitude": "16.36667000",
        "timezone": null,
        "wikiDataId": "Q662576"
    },
    {
        "id": 1765,
        "name": "Bernstein",
        "state_id": 2062,
        "state_code": "1",
        "state_name": "Burgenland",
        "country_id": 15,
        "country_code": "AT",
        "country_name": "Austria",
        "latitude": "47.40000000",
        "longitude": "16.25000000",
        "timezone": null,
        "wikiDataId": "Q666130"
    },
    {
        "id": 1787,
        "name": "Bocksdorf",
        "state_id": 2062,
        "state_code": "1",
        "state_name": "Burgenland",
        "country_id": 15,
        "country_code": "AT",
        "country_name": "Austria",
        "latitude": "47.14256000",
        "longitude": "16.17784000",
        "timezone": null,
        "wikiDataId": "Q669550"
    },
    {
        "id": 1798,
        "name": "Breitenbrunn",
        "state_id": 2062,
        "state_code": "1",
        "state_name": "Burgenland",
        "country_id": 15,
        "country_code": "AT",
        "country_name": "Austria",
        "latitude": "47.94452000",
        "longitude": "16.73149000",
        "timezone": null,
        "wikiDataId": "Q700444"
    },
    {
        "id": 1811,
        "name": "Bruckneudorf",
        "state_id": 2062,
        "state_code": "1",
        "state_name": "Burgenland",
        "country_id": 15,
        "country_code": "AT",
        "country_name": "Austria",
        "latitude": "48.01667000",
        "longitude": "16.78333000",
        "timezone": null,
        "wikiDataId": "Q660740"
    },
    {
        "id": 1839,
        "name": "Deutsch Jahrndorf",
        "state_id": 2062,
        "state_code": "1",
        "state_name": "Burgenland",
        "country_id": 15,
        "country_code": "AT",
        "country_name": "Austria",
        "latitude": "48.01667000",
        "longitude": "17.10000000",
        "timezone": null,
        "wikiDataId": "Q222990"
    },
    {
        "id": 1840,
        "name": "Deutsch Kaltenbrunn",
        "state_id": 2062,
        "state_code": "1",
        "state_name": "Burgenland",
        "country_id": 15,
        "country_code": "AT",
        "country_name": "Austria",
        "latitude": "47.09455000",
        "longitude": "16.13145000",
        "timezone": null,
        "wikiDataId": "Q222990"
    },
    {
        "id": 1843,
        "name": "Deutschkreutz",
        "state_id": 2062,
        "state_code": "1",
        "state_name": "Burgenland",
        "country_id": 15,
        "country_code": "AT",
        "country_name": "Austria",
        "latitude": "47.60000000",
        "longitude": "16.63333000",
        "timezone": null,
        "wikiDataId": "Q41945"
    },
    {
        "id": 1859,
        "name": "Donnerskirchen",
        "state_id": 2062,
        "state_code": "1",
        "state_name": "Burgenland",
        "country_id": 15,
        "country_code": "AT",
        "country_name": "Austria",
        "latitude": "47.89425000",
        "longitude": "16.64635000",
        "timezone": null,
        "wikiDataId": "Q268058"
    },
    {
        "id": 1868,
        "name": "Drassburg",
        "state_id": 2062,
        "state_code": "1",
        "state_name": "Burgenland",
        "country_id": 15,
        "country_code": "AT",
        "country_name": "Austria",
        "latitude": "47.74645000",
        "longitude": "16.48679000",
        "timezone": null,
        "wikiDataId": "Q533718"
    },
    {
        "id": 1888,
        "name": "Eberau",
        "state_id": 2062,
        "state_code": "1",
        "state_name": "Burgenland",
        "country_id": 15,
        "country_code": "AT",
        "country_name": "Austria",
        "latitude": "47.10764000",
        "longitude": "16.46044000",
        "timezone": null,
        "wikiDataId": "Q569835"
    },
    {
        "id": 1902,
        "name": "Edelstal",
        "state_id": 2062,
        "state_code": "1",
        "state_name": "Burgenland",
        "country_id": 15,
        "country_code": "AT",
        "country_name": "Austria",
        "latitude": "48.10000000",
        "longitude": "16.98333000",
        "timezone": null,
        "wikiDataId": "Q689153"
    },
    {
        "id": 1924,
        "name": "Eisenstadt",
        "state_id": 2062,
        "state_code": "1",
        "state_name": "Burgenland",
        "country_id": 15,
        "country_code": "AT",
        "country_name": "Austria",
        "latitude": "47.84565000",
        "longitude": "16.52327000",
        "timezone": null,
        "wikiDataId": "Q700603"
    },
    {
        "id": 1925,
        "name": "Eisenstadt Stadt",
        "state_id": 2062,
        "state_code": "1",
        "state_name": "Burgenland",
        "country_id": 15,
        "country_code": "AT",
        "country_name": "Austria",
        "latitude": "47.84450000",
        "longitude": "16.52575000",
        "timezone": null,
        "wikiDataId": "Q126321"
    },
    {
        "id": 1926,
        "name": "Eisenstadt-Umgebung",
        "state_id": 2062,
        "state_code": "1",
        "state_name": "Burgenland",
        "country_id": 15,
        "country_code": "AT",
        "country_name": "Austria",
        "latitude": "47.83333000",
        "longitude": "16.58333000",
        "timezone": null,
        "wikiDataId": "Q261432"
    },
    {
        "id": 1934,
        "name": "Eltendorf",
        "state_id": 2062,
        "state_code": "1",
        "state_name": "Burgenland",
        "country_id": 15,
        "country_code": "AT",
        "country_name": "Austria",
        "latitude": "47.00870000",
        "longitude": "16.20239000",
        "timezone": null,
        "wikiDataId": "Q662256"
    },
    {
        "id": 2005,
        "name": "Forchtenstein",
        "state_id": 2062,
        "state_code": "1",
        "state_name": "Burgenland",
        "country_id": 15,
        "country_code": "AT",
        "country_name": "Austria",
        "latitude": "47.71161000",
        "longitude": "16.34525000",
        "timezone": null,
        "wikiDataId": "Q664159"
    },
    {
        "id": 2014,
        "name": "Frauenkirchen",
        "state_id": 2062,
        "state_code": "1",
        "state_name": "Burgenland",
        "country_id": 15,
        "country_code": "AT",
        "country_name": "Austria",
        "latitude": "47.83678000",
        "longitude": "16.92581000",
        "timezone": null,
        "wikiDataId": "Q698577"
    },
    {
        "id": 2064,
        "name": "Gattendorf",
        "state_id": 2062,
        "state_code": "1",
        "state_name": "Burgenland",
        "country_id": 15,
        "country_code": "AT",
        "country_name": "Austria",
        "latitude": "48.01667000",
        "longitude": "16.98333000",
        "timezone": null,
        "wikiDataId": "Q678970"
    },
    {
        "id": 2104,
        "name": "Gols",
        "state_id": 2062,
        "state_code": "1",
        "state_name": "Burgenland",
        "country_id": 15,
        "country_code": "AT",
        "country_name": "Austria",
        "latitude": "47.89689000",
        "longitude": "16.91113000",
        "timezone": null,
        "wikiDataId": "Q527800"
    },
    {
        "id": 2111,
        "name": "Grafenschachen",
        "state_id": 2062,
        "state_code": "1",
        "state_name": "Burgenland",
        "country_id": 15,
        "country_code": "AT",
        "country_name": "Austria",
        "latitude": "47.36667000",
        "longitude": "16.06667000",
        "timezone": null,
        "wikiDataId": "Q665801"
    },
    {
        "id": 2141,
        "name": "Grosshöflein",
        "state_id": 2062,
        "state_code": "1",
        "state_name": "Burgenland",
        "country_id": 15,
        "country_code": "AT",
        "country_name": "Austria",
        "latitude": "47.83586000",
        "longitude": "16.48035000",
        "timezone": null,
        "wikiDataId": "Q251254"
    },
    {
        "id": 2142,
        "name": "Grosspetersdorf",
        "state_id": 2062,
        "state_code": "1",
        "state_name": "Burgenland",
        "country_id": 15,
        "country_code": "AT",
        "country_name": "Austria",
        "latitude": "47.23895000",
        "longitude": "16.31783000",
        "timezone": null,
        "wikiDataId": "Q662731"
    },
    {
        "id": 2197,
        "name": "Güssing",
        "state_id": 2062,
        "state_code": "1",
        "state_name": "Burgenland",
        "country_id": 15,
        "country_code": "AT",
        "country_name": "Austria",
        "latitude": "47.05936000",
        "longitude": "16.32431000",
        "timezone": null,
        "wikiDataId": "Q279823"
    },
    {
        "id": 2198,
        "name": "Güttenbach",
        "state_id": 2062,
        "state_code": "1",
        "state_name": "Burgenland",
        "country_id": 15,
        "country_code": "AT",
        "country_name": "Austria",
        "latitude": "47.15710000",
        "longitude": "16.29230000",
        "timezone": null,
        "wikiDataId": "Q661097"
    },
    {
        "id": 2203,
        "name": "Hackerberg",
        "state_id": 2062,
        "state_code": "1",
        "state_name": "Burgenland",
        "country_id": 15,
        "country_code": "AT",
        "country_name": "Austria",
        "latitude": "47.20000000",
        "longitude": "16.11667000",
        "timezone": null,
        "wikiDataId": "Q669595"
    },
    {
        "id": 2222,
        "name": "Halbturn",
        "state_id": 2062,
        "state_code": "1",
        "state_name": "Burgenland",
        "country_id": 15,
        "country_code": "AT",
        "country_name": "Austria",
        "latitude": "47.87019000",
        "longitude": "16.97542000",
        "timezone": null,
        "wikiDataId": "Q662292"
    },
    {
        "id": 2228,
        "name": "Hannersdorf",
        "state_id": 2062,
        "state_code": "1",
        "state_name": "Burgenland",
        "country_id": 15,
        "country_code": "AT",
        "country_name": "Austria",
        "latitude": "47.22895000",
        "longitude": "16.38250000",
        "timezone": null,
        "wikiDataId": "Q603093"
    },
    {
        "id": 2259,
        "name": "Heiligenbrunn",
        "state_id": 2062,
        "state_code": "1",
        "state_name": "Burgenland",
        "country_id": 15,
        "country_code": "AT",
        "country_name": "Austria",
        "latitude": "47.02705000",
        "longitude": "16.41688000",
        "timezone": null,
        "wikiDataId": "Q267689"
    },
    {
        "id": 2263,
        "name": "Heiligenkreuz im Lafnitztal",
        "state_id": 2062,
        "state_code": "1",
        "state_name": "Burgenland",
        "country_id": 15,
        "country_code": "AT",
        "country_name": "Austria",
        "latitude": "46.98917000",
        "longitude": "16.26083000",
        "timezone": null,
        "wikiDataId": "Q662219"
    },
    {
        "id": 2278,
        "name": "Heugraben",
        "state_id": 2062,
        "state_code": "1",
        "state_name": "Burgenland",
        "country_id": 15,
        "country_code": "AT",
        "country_name": "Austria",
        "latitude": "47.11783000",
        "longitude": "16.19041000",
        "timezone": null,
        "wikiDataId": "Q679190"
    },
    {
        "id": 2290,
        "name": "Hirm",
        "state_id": 2062,
        "state_code": "1",
        "state_name": "Burgenland",
        "country_id": 15,
        "country_code": "AT",
        "country_name": "Austria",
        "latitude": "47.78652000",
        "longitude": "16.45460000",
        "timezone": null,
        "wikiDataId": "Q286442"
    },
    {
        "id": 2330,
        "name": "Horitschon",
        "state_id": 2062,
        "state_code": "1",
        "state_name": "Burgenland",
        "country_id": 15,
        "country_code": "AT",
        "country_name": "Austria",
        "latitude": "47.58729000",
        "longitude": "16.54696000",
        "timezone": null,
        "wikiDataId": "Q690764"
    },
    {
        "id": 2332,
        "name": "Hornstein",
        "state_id": 2062,
        "state_code": "1",
        "state_name": "Burgenland",
        "country_id": 15,
        "country_code": "AT",
        "country_name": "Austria",
        "latitude": "47.88049000",
        "longitude": "16.44447000",
        "timezone": null,
        "wikiDataId": "Q690764"
    },
    {
        "id": 2351,
        "name": "Illmitz",
        "state_id": 2062,
        "state_code": "1",
        "state_name": "Burgenland",
        "country_id": 15,
        "country_code": "AT",
        "country_name": "Austria",
        "latitude": "47.76148000",
        "longitude": "16.80024000",
        "timezone": null,
        "wikiDataId": "Q663981"
    },
    {
        "id": 2362,
        "name": "Inzenhof",
        "state_id": 2062,
        "state_code": "1",
        "state_name": "Burgenland",
        "country_id": 15,
        "country_code": "AT",
        "country_name": "Austria",
        "latitude": "47.01667000",
        "longitude": "16.31667000",
        "timezone": null,
        "wikiDataId": "Q1735"
    },
    {
        "id": 2370,
        "name": "Jabing",
        "state_id": 2062,
        "state_code": "1",
        "state_name": "Burgenland",
        "country_id": 15,
        "country_code": "AT",
        "country_name": "Austria",
        "latitude": "47.23880000",
        "longitude": "16.27659000",
        "timezone": null,
        "wikiDataId": "Q664330"
    },
    {
        "id": 2377,
        "name": "Jennersdorf",
        "state_id": 2062,
        "state_code": "1",
        "state_name": "Burgenland",
        "country_id": 15,
        "country_code": "AT",
        "country_name": "Austria",
        "latitude": "46.93848000",
        "longitude": "16.14158000",
        "timezone": null,
        "wikiDataId": "Q660491"
    },
    {
        "id": 2381,
        "name": "Jois",
        "state_id": 2062,
        "state_code": "1",
        "state_name": "Burgenland",
        "country_id": 15,
        "country_code": "AT",
        "country_name": "Austria",
        "latitude": "47.96165000",
        "longitude": "16.79604000",
        "timezone": null,
        "wikiDataId": "Q668135"
    },
    {
        "id": 2390,
        "name": "Kaisersdorf",
        "state_id": 2062,
        "state_code": "1",
        "state_name": "Burgenland",
        "country_id": 15,
        "country_code": "AT",
        "country_name": "Austria",
        "latitude": "47.53741000",
        "longitude": "16.39198000",
        "timezone": null,
        "wikiDataId": "Q174150"
    },
    {
        "id": 2418,
        "name": "Kemeten",
        "state_id": 2062,
        "state_code": "1",
        "state_name": "Burgenland",
        "country_id": 15,
        "country_code": "AT",
        "country_name": "Austria",
        "latitude": "47.24859000",
        "longitude": "16.15213000",
        "timezone": null,
        "wikiDataId": "Q608855"
    },
    {
        "id": 2442,
        "name": "Kittsee",
        "state_id": 2062,
        "state_code": "1",
        "state_name": "Burgenland",
        "country_id": 15,
        "country_code": "AT",
        "country_name": "Austria",
        "latitude": "48.09250000",
        "longitude": "17.06389000",
        "timezone": null,
        "wikiDataId": "Q680628"
    },
    {
        "id": 2454,
        "name": "Kleinhöflein im Burgenland",
        "state_id": 2062,
        "state_code": "1",
        "state_name": "Burgenland",
        "country_id": 15,
        "country_code": "AT",
        "country_name": "Austria",
        "latitude": "47.84151000",
        "longitude": "16.50413000",
        "timezone": null,
        "wikiDataId": "Q675036"
    },
    {
        "id": 2456,
        "name": "Kleinmürbisch",
        "state_id": 2062,
        "state_code": "1",
        "state_name": "Burgenland",
        "country_id": 15,
        "country_code": "AT",
        "country_name": "Austria",
        "latitude": "47.03299000",
        "longitude": "16.32448000",
        "timezone": null,
        "wikiDataId": "Q696059"
    },
    {
        "id": 2460,
        "name": "Klingenbach",
        "state_id": 2062,
        "state_code": "1",
        "state_name": "Burgenland",
        "country_id": 15,
        "country_code": "AT",
        "country_name": "Austria",
        "latitude": "47.75202000",
        "longitude": "16.54069000",
        "timezone": null,
        "wikiDataId": "Q662564"
    },
    {
        "id": 2467,
        "name": "Kobersdorf",
        "state_id": 2062,
        "state_code": "1",
        "state_name": "Burgenland",
        "country_id": 15,
        "country_code": "AT",
        "country_name": "Austria",
        "latitude": "47.59572000",
        "longitude": "16.39173000",
        "timezone": null,
        "wikiDataId": "Q660854"
    },
    {
        "id": 2469,
        "name": "Kohfidisch",
        "state_id": 2062,
        "state_code": "1",
        "state_name": "Burgenland",
        "country_id": 15,
        "country_code": "AT",
        "country_name": "Austria",
        "latitude": "47.17472000",
        "longitude": "16.35701000",
        "timezone": null,
        "wikiDataId": "Q427263"
    },
    {
        "id": 2509,
        "name": "Königsdorf",
        "state_id": 2062,
        "state_code": "1",
        "state_name": "Burgenland",
        "country_id": 15,
        "country_code": "AT",
        "country_name": "Austria",
        "latitude": "47.00000000",
        "longitude": "16.16667000",
        "timezone": null,
        "wikiDataId": "Q550434"
    },
    {
        "id": 2487,
        "name": "Krensdorf",
        "state_id": 2062,
        "state_code": "1",
        "state_name": "Burgenland",
        "country_id": 15,
        "country_code": "AT",
        "country_name": "Austria",
        "latitude": "47.78552000",
        "longitude": "16.41495000",
        "timezone": null,
        "wikiDataId": "Q670784"
    },
    {
        "id": 2504,
        "name": "Kukmirn",
        "state_id": 2062,
        "state_code": "1",
        "state_name": "Burgenland",
        "country_id": 15,
        "country_code": "AT",
        "country_name": "Austria",
        "latitude": "47.07544000",
        "longitude": "16.21033000",
        "timezone": null,
        "wikiDataId": "Q383001"
    },
    {
        "id": 2523,
        "name": "Lackenbach",
        "state_id": 2062,
        "state_code": "1",
        "state_name": "Burgenland",
        "country_id": 15,
        "country_code": "AT",
        "country_name": "Austria",
        "latitude": "47.59042000",
        "longitude": "16.46533000",
        "timezone": null,
        "wikiDataId": "Q663242"
    },
    {
        "id": 2524,
        "name": "Lackendorf",
        "state_id": 2062,
        "state_code": "1",
        "state_name": "Burgenland",
        "country_id": 15,
        "country_code": "AT",
        "country_name": "Austria",
        "latitude": "47.58996000",
        "longitude": "16.50404000",
        "timezone": null,
        "wikiDataId": "Q268063"
    },
    {
        "id": 2568,
        "name": "Leithaprodersdorf",
        "state_id": 2062,
        "state_code": "1",
        "state_name": "Burgenland",
        "country_id": 15,
        "country_code": "AT",
        "country_name": "Austria",
        "latitude": "47.93348000",
        "longitude": "16.47915000",
        "timezone": null,
        "wikiDataId": "Q533521"
    },
    {
        "id": 2606,
        "name": "Litzelsdorf",
        "state_id": 2062,
        "state_code": "1",
        "state_name": "Burgenland",
        "country_id": 15,
        "country_code": "AT",
        "country_name": "Austria",
        "latitude": "47.20826000",
        "longitude": "16.17170000",
        "timezone": null,
        "wikiDataId": "Q369644"
    },
    {
        "id": 2608,
        "name": "Lockenhaus",
        "state_id": 2062,
        "state_code": "1",
        "state_name": "Burgenland",
        "country_id": 15,
        "country_code": "AT",
        "country_name": "Austria",
        "latitude": "47.40753000",
        "longitude": "16.41623000",
        "timezone": null,
        "wikiDataId": "Q580045"
    },
    {
        "id": 2611,
        "name": "Loipersbach im Burgenland",
        "state_id": 2062,
        "state_code": "1",
        "state_name": "Burgenland",
        "country_id": 15,
        "country_code": "AT",
        "country_name": "Austria",
        "latitude": "47.69656000",
        "longitude": "16.47919000",
        "timezone": null,
        "wikiDataId": "Q580762"
    },
    {
        "id": 2614,
        "name": "Loretto",
        "state_id": 2062,
        "state_code": "1",
        "state_name": "Burgenland",
        "country_id": 15,
        "country_code": "AT",
        "country_name": "Austria",
        "latitude": "47.91559000",
        "longitude": "16.51790000",
        "timezone": null,
        "wikiDataId": "Q669680"
    },
    {
        "id": 2622,
        "name": "Lutzmannsburg",
        "state_id": 2062,
        "state_code": "1",
        "state_name": "Burgenland",
        "country_id": 15,
        "country_code": "AT",
        "country_name": "Austria",
        "latitude": "47.46373000",
        "longitude": "16.63665000",
        "timezone": null,
        "wikiDataId": "Q662718"
    },
    {
        "id": 2631,
        "name": "Mannersdorf an der Rabnitz",
        "state_id": 2062,
        "state_code": "1",
        "state_name": "Burgenland",
        "country_id": 15,
        "country_code": "AT",
        "country_name": "Austria",
        "latitude": "47.42815000",
        "longitude": "16.52678000",
        "timezone": null,
        "wikiDataId": "Q432541"
    },
    {
        "id": 2654,
        "name": "Mariasdorf",
        "state_id": 2062,
        "state_code": "1",
        "state_name": "Burgenland",
        "country_id": 15,
        "country_code": "AT",
        "country_name": "Austria",
        "latitude": "47.36580000",
        "longitude": "16.23136000",
        "timezone": null,
        "wikiDataId": "Q670639"
    },
    {
        "id": 2661,
        "name": "Markt Allhau",
        "state_id": 2062,
        "state_code": "1",
        "state_name": "Burgenland",
        "country_id": 15,
        "country_code": "AT",
        "country_name": "Austria",
        "latitude": "47.28333000",
        "longitude": "16.08333000",
        "timezone": null,
        "wikiDataId": "Q549332"
    },
    {
        "id": 2662,
        "name": "Markt Neuhodis",
        "state_id": 2062,
        "state_code": "1",
        "state_name": "Burgenland",
        "country_id": 15,
        "country_code": "AT",
        "country_name": "Austria",
        "latitude": "47.29565000",
        "longitude": "16.39564000",
        "timezone": null,
        "wikiDataId": "Q549332"
    },
    {
        "id": 2664,
        "name": "Markt Sankt Martin",
        "state_id": 2062,
        "state_code": "1",
        "state_name": "Burgenland",
        "country_id": 15,
        "country_code": "AT",
        "country_name": "Austria",
        "latitude": "47.56205000",
        "longitude": "16.42508000",
        "timezone": null,
        "wikiDataId": "Q671773"
    },
    {
        "id": 2666,
        "name": "Marz",
        "state_id": 2062,
        "state_code": "1",
        "state_name": "Burgenland",
        "country_id": 15,
        "country_code": "AT",
        "country_name": "Austria",
        "latitude": "47.71667000",
        "longitude": "16.41667000",
        "timezone": null,
        "wikiDataId": "Q686983"
    },
    {
        "id": 2669,
        "name": "Mattersburg",
        "state_id": 2062,
        "state_code": "1",
        "state_name": "Burgenland",
        "country_id": 15,
        "country_code": "AT",
        "country_name": "Austria",
        "latitude": "47.73333000",
        "longitude": "16.40000000",
        "timezone": null,
        "wikiDataId": "Q261697"
    },
    {
        "id": 2705,
        "name": "Mischendorf",
        "state_id": 2062,
        "state_code": "1",
        "state_name": "Burgenland",
        "country_id": 15,
        "country_code": "AT",
        "country_name": "Austria",
        "latitude": "47.19277000",
        "longitude": "16.31444000",
        "timezone": null,
        "wikiDataId": "Q662549"
    },
    {
        "id": 2718,
        "name": "Mitterpullendorf",
        "state_id": 2062,
        "state_code": "1",
        "state_name": "Burgenland",
        "country_id": 15,
        "country_code": "AT",
        "country_name": "Austria",
        "latitude": "47.49325000",
        "longitude": "16.52129000",
        "timezone": null,
        "wikiDataId": "Q672441"
    },
    {
        "id": 2722,
        "name": "Mogersdorf",
        "state_id": 2062,
        "state_code": "1",
        "state_name": "Burgenland",
        "country_id": 15,
        "country_code": "AT",
        "country_name": "Austria",
        "latitude": "46.94917000",
        "longitude": "16.23222000",
        "timezone": null,
        "wikiDataId": "Q661295"
    },
    {
        "id": 2745,
        "name": "Mönchhof",
        "state_id": 2062,
        "state_code": "1",
        "state_name": "Burgenland",
        "country_id": 15,
        "country_code": "AT",
        "country_name": "Austria",
        "latitude": "47.88020000",
        "longitude": "16.94126000",
        "timezone": null,
        "wikiDataId": "Q791141"
    },
    {
        "id": 2748,
        "name": "Mörbisch am See",
        "state_id": 2062,
        "state_code": "1",
        "state_name": "Burgenland",
        "country_id": 15,
        "country_code": "AT",
        "country_name": "Austria",
        "latitude": "47.75000000",
        "longitude": "16.66667000",
        "timezone": null,
        "wikiDataId": "Q660838"
    },
    {
        "id": 2730,
        "name": "Moschendorf",
        "state_id": 2062,
        "state_code": "1",
        "state_name": "Burgenland",
        "country_id": 15,
        "country_code": "AT",
        "country_name": "Austria",
        "latitude": "47.05843000",
        "longitude": "16.47728000",
        "timezone": null,
        "wikiDataId": "Q695931"
    },
    {
        "id": 2759,
        "name": "Mühlgraben",
        "state_id": 2062,
        "state_code": "1",
        "state_name": "Burgenland",
        "country_id": 15,
        "country_code": "AT",
        "country_name": "Austria",
        "latitude": "46.88972000",
        "longitude": "16.04083000",
        "timezone": null,
        "wikiDataId": "Q696385"
    },
    {
        "id": 2760,
        "name": "Müllendorf",
        "state_id": 2062,
        "state_code": "1",
        "state_name": "Burgenland",
        "country_id": 15,
        "country_code": "AT",
        "country_name": "Austria",
        "latitude": "47.83943000",
        "longitude": "16.46258000",
        "timezone": null,
        "wikiDataId": "Q660992"
    },
    {
        "id": 2776,
        "name": "Neckenmarkt",
        "state_id": 2062,
        "state_code": "1",
        "state_name": "Burgenland",
        "country_id": 15,
        "country_code": "AT",
        "country_name": "Austria",
        "latitude": "47.59964000",
        "longitude": "16.54670000",
        "timezone": null,
        "wikiDataId": "Q671781"
    },
    {
        "id": 2787,
        "name": "Neuberg im Burgenland",
        "state_id": 2062,
        "state_code": "1",
        "state_name": "Burgenland",
        "country_id": 15,
        "country_code": "AT",
        "country_name": "Austria",
        "latitude": "47.16894000",
        "longitude": "16.26054000",
        "timezone": null,
        "wikiDataId": "Q695342"
    },
    {
        "id": 2790,
        "name": "Neudörfl",
        "state_id": 2062,
        "state_code": "1",
        "state_name": "Burgenland",
        "country_id": 15,
        "country_code": "AT",
        "country_name": "Austria",
        "latitude": "47.79655000",
        "longitude": "16.29770000",
        "timezone": null,
        "wikiDataId": "Q644301"
    },
    {
        "id": 2792,
        "name": "Neufeld an der Leitha",
        "state_id": 2062,
        "state_code": "1",
        "state_name": "Burgenland",
        "country_id": 15,
        "country_code": "AT",
        "country_name": "Austria",
        "latitude": "47.86558000",
        "longitude": "16.37856000",
        "timezone": null,
        "wikiDataId": "Q259859"
    },
    {
        "id": 2795,
        "name": "Neuhaus am Klausenbach",
        "state_id": 2062,
        "state_code": "1",
        "state_name": "Burgenland",
        "country_id": 15,
        "country_code": "AT",
        "country_name": "Austria",
        "latitude": "46.86667000",
        "longitude": "16.03333000",
        "timezone": null,
        "wikiDataId": "Q662495"
    },
    {
        "id": 2811,
        "name": "Neusiedl am See",
        "state_id": 2062,
        "state_code": "1",
        "state_name": "Burgenland",
        "country_id": 15,
        "country_code": "AT",
        "country_name": "Austria",
        "latitude": "47.94901000",
        "longitude": "16.84170000",
        "timezone": null,
        "wikiDataId": "Q253760"
    },
    {
        "id": 2813,
        "name": "Neustift an der Lafnitz",
        "state_id": 2062,
        "state_code": "1",
        "state_name": "Burgenland",
        "country_id": 15,
        "country_code": "AT",
        "country_name": "Austria",
        "latitude": "47.36667000",
        "longitude": "16.03333000",
        "timezone": null,
        "wikiDataId": "Q673636"
    },
    {
        "id": 2814,
        "name": "Neustift bei Güssing",
        "state_id": 2062,
        "state_code": "1",
        "state_name": "Burgenland",
        "country_id": 15,
        "country_code": "AT",
        "country_name": "Austria",
        "latitude": "47.02474000",
        "longitude": "16.26041000",
        "timezone": null,
        "wikiDataId": "Q673636"
    },
    {
        "id": 2816,
        "name": "Neutal",
        "state_id": 2062,
        "state_code": "1",
        "state_name": "Burgenland",
        "country_id": 15,
        "country_code": "AT",
        "country_name": "Austria",
        "latitude": "47.54548000",
        "longitude": "16.44619000",
        "timezone": null,
        "wikiDataId": "Q252101"
    },
    {
        "id": 2819,
        "name": "Nickelsdorf",
        "state_id": 2062,
        "state_code": "1",
        "state_name": "Burgenland",
        "country_id": 15,
        "country_code": "AT",
        "country_name": "Austria",
        "latitude": "47.94056000",
        "longitude": "17.06944000",
        "timezone": null,
        "wikiDataId": "Q660749"
    },
    {
        "id": 2834,
        "name": "Nikitsch",
        "state_id": 2062,
        "state_code": "1",
        "state_name": "Burgenland",
        "country_id": 15,
        "country_code": "AT",
        "country_name": "Austria",
        "latitude": "47.53615000",
        "longitude": "16.66017000",
        "timezone": null,
        "wikiDataId": "Q871518"
    },
    {
        "id": 2848,
        "name": "Oberdorf im Burgenland",
        "state_id": 2062,
        "state_code": "1",
        "state_name": "Burgenland",
        "country_id": 15,
        "country_code": "AT",
        "country_name": "Austria",
        "latitude": "47.21667000",
        "longitude": "16.21667000",
        "timezone": null,
        "wikiDataId": "Q661009"
    },
    {
        "id": 2859,
        "name": "Oberloisdorf",
        "state_id": 2062,
        "state_code": "1",
        "state_name": "Burgenland",
        "country_id": 15,
        "country_code": "AT",
        "country_name": "Austria",
        "latitude": "47.44736000",
        "longitude": "16.50764000",
        "timezone": null,
        "wikiDataId": "Q663429"
    },
    {
        "id": 2871,
        "name": "Oberpullendorf",
        "state_id": 2062,
        "state_code": "1",
        "state_name": "Burgenland",
        "country_id": 15,
        "country_code": "AT",
        "country_name": "Austria",
        "latitude": "47.50352000",
        "longitude": "16.50447000",
        "timezone": null,
        "wikiDataId": "Q252982"
    },
    {
        "id": 2873,
        "name": "Oberschützen",
        "state_id": 2062,
        "state_code": "1",
        "state_name": "Burgenland",
        "country_id": 15,
        "country_code": "AT",
        "country_name": "Austria",
        "latitude": "47.35138000",
        "longitude": "16.20732000",
        "timezone": null,
        "wikiDataId": "Q765086"
    },
    {
        "id": 2884,
        "name": "Oberwart",
        "state_id": 2062,
        "state_code": "1",
        "state_name": "Burgenland",
        "country_id": 15,
        "country_code": "AT",
        "country_name": "Austria",
        "latitude": "47.28971000",
        "longitude": "16.20595000",
        "timezone": null,
        "wikiDataId": "Q671259"
    },
    {
        "id": 2896,
        "name": "Oggau",
        "state_id": 2062,
        "state_code": "1",
        "state_name": "Burgenland",
        "country_id": 15,
        "country_code": "AT",
        "country_name": "Austria",
        "latitude": "47.83333000",
        "longitude": "16.66667000",
        "timezone": null,
        "wikiDataId": "Q673624"
    },
    {
        "id": 2898,
        "name": "Olbendorf",
        "state_id": 2062,
        "state_code": "1",
        "state_name": "Burgenland",
        "country_id": 15,
        "country_code": "AT",
        "country_name": "Austria",
        "latitude": "47.18333000",
        "longitude": "16.20000000",
        "timezone": null,
        "wikiDataId": "Q670736"
    },
    {
        "id": 2899,
        "name": "Ollersdorf im Burgenland",
        "state_id": 2062,
        "state_code": "1",
        "state_name": "Burgenland",
        "country_id": 15,
        "country_code": "AT",
        "country_name": "Austria",
        "latitude": "47.18333000",
        "longitude": "16.16667000",
        "timezone": null,
        "wikiDataId": "Q523169"
    },
    {
        "id": 2905,
        "name": "Oslip",
        "state_id": 2062,
        "state_code": "1",
        "state_name": "Burgenland",
        "country_id": 15,
        "country_code": "AT",
        "country_name": "Austria",
        "latitude": "47.82906000",
        "longitude": "16.61957000",
        "timezone": null,
        "wikiDataId": "Q662682"
    },
    {
        "id": 2921,
        "name": "Pama",
        "state_id": 2062,
        "state_code": "1",
        "state_name": "Burgenland",
        "country_id": 15,
        "country_code": "AT",
        "country_name": "Austria",
        "latitude": "48.05000000",
        "longitude": "17.03333000",
        "timezone": null,
        "wikiDataId": "Q686214"
    },
    {
        "id": 2922,
        "name": "Pamhagen",
        "state_id": 2062,
        "state_code": "1",
        "state_name": "Burgenland",
        "country_id": 15,
        "country_code": "AT",
        "country_name": "Austria",
        "latitude": "47.70092000",
        "longitude": "16.90779000",
        "timezone": null,
        "wikiDataId": "Q662320"
    },
    {
        "id": 2924,
        "name": "Parndorf",
        "state_id": 2062,
        "state_code": "1",
        "state_name": "Burgenland",
        "country_id": 15,
        "country_code": "AT",
        "country_name": "Austria",
        "latitude": "47.99963000",
        "longitude": "16.86049000",
        "timezone": null,
        "wikiDataId": "Q660886"
    },
    {
        "id": 2968,
        "name": "Pilgersdorf",
        "state_id": 2062,
        "state_code": "1",
        "state_name": "Burgenland",
        "country_id": 15,
        "country_code": "AT",
        "country_name": "Austria",
        "latitude": "47.44106000",
        "longitude": "16.34920000",
        "timezone": null,
        "wikiDataId": "Q663460"
    },
    {
        "id": 2972,
        "name": "Pinkafeld",
        "state_id": 2062,
        "state_code": "1",
        "state_name": "Burgenland",
        "country_id": 15,
        "country_code": "AT",
        "country_name": "Austria",
        "latitude": "47.36667000",
        "longitude": "16.11667000",
        "timezone": null,
        "wikiDataId": "Q257428"
    },
    {
        "id": 2975,
        "name": "Piringsdorf",
        "state_id": 2062,
        "state_code": "1",
        "state_name": "Burgenland",
        "country_id": 15,
        "country_code": "AT",
        "country_name": "Austria",
        "latitude": "47.44826000",
        "longitude": "16.41516000",
        "timezone": null,
        "wikiDataId": "Q693405"
    },
    {
        "id": 2985,
        "name": "Podersdorf am See",
        "state_id": 2062,
        "state_code": "1",
        "state_name": "Burgenland",
        "country_id": 15,
        "country_code": "AT",
        "country_name": "Austria",
        "latitude": "47.85412000",
        "longitude": "16.83706000",
        "timezone": null,
        "wikiDataId": "Q661040"
    },
    {
        "id": 3005,
        "name": "Politischer Bezirk Güssing",
        "state_id": 2062,
        "state_code": "1",
        "state_name": "Burgenland",
        "country_id": 15,
        "country_code": "AT",
        "country_name": "Austria",
        "latitude": "47.10164000",
        "longitude": "16.30363000",
        "timezone": null,
        "wikiDataId": "Q660312"
    },
    {
        "id": 3013,
        "name": "Politischer Bezirk Jennersdorf",
        "state_id": 2062,
        "state_code": "1",
        "state_name": "Burgenland",
        "country_id": 15,
        "country_code": "AT",
        "country_name": "Austria",
        "latitude": "46.96667000",
        "longitude": "16.15000000",
        "timezone": null,
        "wikiDataId": "Q756277"
    },
    {
        "id": 3027,
        "name": "Politischer Bezirk Mattersburg",
        "state_id": 2062,
        "state_code": "1",
        "state_name": "Burgenland",
        "country_id": 15,
        "country_code": "AT",
        "country_name": "Austria",
        "latitude": "47.73823000",
        "longitude": "16.39486000",
        "timezone": null,
        "wikiDataId": "Q748570"
    },
    {
        "id": 3034,
        "name": "Politischer Bezirk Neusiedl am See",
        "state_id": 2062,
        "state_code": "1",
        "state_name": "Burgenland",
        "country_id": 15,
        "country_code": "AT",
        "country_name": "Austria",
        "latitude": "47.88853000",
        "longitude": "16.92465000",
        "timezone": null,
        "wikiDataId": "Q660325"
    },
    {
        "id": 3035,
        "name": "Politischer Bezirk Oberpullendorf",
        "state_id": 2062,
        "state_code": "1",
        "state_name": "Burgenland",
        "country_id": 15,
        "country_code": "AT",
        "country_name": "Austria",
        "latitude": "47.50184000",
        "longitude": "16.50593000",
        "timezone": null,
        "wikiDataId": "Q748891"
    },
    {
        "id": 3036,
        "name": "Politischer Bezirk Oberwart",
        "state_id": 2062,
        "state_code": "1",
        "state_name": "Burgenland",
        "country_id": 15,
        "country_code": "AT",
        "country_name": "Austria",
        "latitude": "47.28854000",
        "longitude": "16.20861000",
        "timezone": null,
        "wikiDataId": "Q660230"
    },
    {
        "id": 3109,
        "name": "Pöttelsdorf",
        "state_id": 2062,
        "state_code": "1",
        "state_name": "Burgenland",
        "country_id": 15,
        "country_code": "AT",
        "country_name": "Austria",
        "latitude": "47.75369000",
        "longitude": "16.43864000",
        "timezone": null,
        "wikiDataId": "Q385131"
    },
    {
        "id": 3111,
        "name": "Pöttsching",
        "state_id": 2062,
        "state_code": "1",
        "state_name": "Burgenland",
        "country_id": 15,
        "country_code": "AT",
        "country_name": "Austria",
        "latitude": "47.80445000",
        "longitude": "16.37109000",
        "timezone": null,
        "wikiDataId": "Q670602"
    },
    {
        "id": 3070,
        "name": "Potzneusiedl",
        "state_id": 2062,
        "state_code": "1",
        "state_name": "Burgenland",
        "country_id": 15,
        "country_code": "AT",
        "country_name": "Austria",
        "latitude": "48.04504000",
        "longitude": "16.94770000",
        "timezone": null,
        "wikiDataId": "Q661052"
    },
    {
        "id": 3098,
        "name": "Purbach am Neusiedler See",
        "state_id": 2062,
        "state_code": "1",
        "state_name": "Burgenland",
        "country_id": 15,
        "country_code": "AT",
        "country_name": "Austria",
        "latitude": "47.91289000",
        "longitude": "16.69561000",
        "timezone": null,
        "wikiDataId": "Q267457"
    },
    {
        "id": 3129,
        "name": "Raiding",
        "state_id": 2062,
        "state_code": "1",
        "state_name": "Burgenland",
        "country_id": 15,
        "country_code": "AT",
        "country_name": "Austria",
        "latitude": "47.56581000",
        "longitude": "16.53056000",
        "timezone": null,
        "wikiDataId": "Q689430"
    },
    {
        "id": 3156,
        "name": "Rechnitz",
        "state_id": 2062,
        "state_code": "1",
        "state_name": "Burgenland",
        "country_id": 15,
        "country_code": "AT",
        "country_name": "Austria",
        "latitude": "47.30467000",
        "longitude": "16.44095000",
        "timezone": null,
        "wikiDataId": "Q255604"
    },
    {
        "id": 3190,
        "name": "Riedlingsdorf",
        "state_id": 2062,
        "state_code": "1",
        "state_name": "Burgenland",
        "country_id": 15,
        "country_code": "AT",
        "country_name": "Austria",
        "latitude": "47.35000000",
        "longitude": "16.13333000",
        "timezone": null,
        "wikiDataId": "Q650587"
    },
    {
        "id": 3197,
        "name": "Ritzing",
        "state_id": 2062,
        "state_code": "1",
        "state_name": "Burgenland",
        "country_id": 15,
        "country_code": "AT",
        "country_name": "Austria",
        "latitude": "47.61316000",
        "longitude": "16.49546000",
        "timezone": null,
        "wikiDataId": "Q684365"
    },
    {
        "id": 3198,
        "name": "Rohr im Burgenland",
        "state_id": 2062,
        "state_code": "1",
        "state_name": "Burgenland",
        "country_id": 15,
        "country_code": "AT",
        "country_name": "Austria",
        "latitude": "47.11667000",
        "longitude": "16.16667000",
        "timezone": null,
        "wikiDataId": "Q684365"
    },
    {
        "id": 3204,
        "name": "Rohrbach bei Mattersburg",
        "state_id": 2062,
        "state_code": "1",
        "state_name": "Burgenland",
        "country_id": 15,
        "country_code": "AT",
        "country_name": "Austria",
        "latitude": "47.70520000",
        "longitude": "16.43005000",
        "timezone": null,
        "wikiDataId": "Q670828"
    },
    {
        "id": 3213,
        "name": "Rotenturm an der Pinka",
        "state_id": 2062,
        "state_code": "1",
        "state_name": "Burgenland",
        "country_id": 15,
        "country_code": "AT",
        "country_name": "Austria",
        "latitude": "47.25000000",
        "longitude": "16.25000000",
        "timezone": null,
        "wikiDataId": "Q663379"
    },
    {
        "id": 3216,
        "name": "Rudersdorf",
        "state_id": 2062,
        "state_code": "1",
        "state_name": "Burgenland",
        "country_id": 15,
        "country_code": "AT",
        "country_name": "Austria",
        "latitude": "47.05000000",
        "longitude": "16.11667000",
        "timezone": null,
        "wikiDataId": "Q675678"
    },
    {
        "id": 3220,
        "name": "Rust",
        "state_id": 2062,
        "state_code": "1",
        "state_name": "Burgenland",
        "country_id": 15,
        "country_code": "AT",
        "country_name": "Austria",
        "latitude": "47.80122000",
        "longitude": "16.67158000",
        "timezone": null,
        "wikiDataId": "Q676208"
    },
    {
        "id": 3221,
        "name": "Rust Stadt",
        "state_id": 2062,
        "state_code": "1",
        "state_name": "Burgenland",
        "country_id": 15,
        "country_code": "AT",
        "country_name": "Austria",
        "latitude": "47.80174000",
        "longitude": "16.67210000",
        "timezone": null,
        "wikiDataId": "Q259214"
    },
    {
        "id": 3240,
        "name": "Sankt Andrä am Zicksee",
        "state_id": 2062,
        "state_code": "1",
        "state_name": "Burgenland",
        "country_id": 15,
        "country_code": "AT",
        "country_name": "Austria",
        "latitude": "47.78410000",
        "longitude": "16.94195000",
        "timezone": null,
        "wikiDataId": "Q661403"
    },
    {
        "id": 3253,
        "name": "Sankt Georgen am Leithagebirge",
        "state_id": 2062,
        "state_code": "1",
        "state_name": "Burgenland",
        "country_id": 15,
        "country_code": "AT",
        "country_name": "Austria",
        "latitude": "47.85000000",
        "longitude": "16.55000000",
        "timezone": null,
        "wikiDataId": "Q636880"
    },
    {
        "id": 3297,
        "name": "Sankt Margarethen im Burgenland",
        "state_id": 2062,
        "state_code": "1",
        "state_name": "Burgenland",
        "country_id": 15,
        "country_code": "AT",
        "country_name": "Austria",
        "latitude": "47.80335000",
        "longitude": "16.60875000",
        "timezone": null,
        "wikiDataId": "Q661531"
    },
    {
        "id": 3305,
        "name": "Sankt Martin an der Raab",
        "state_id": 2062,
        "state_code": "1",
        "state_name": "Burgenland",
        "country_id": 15,
        "country_code": "AT",
        "country_name": "Austria",
        "latitude": "46.92250000",
        "longitude": "16.13611000",
        "timezone": null,
        "wikiDataId": "Q661373"
    },
    {
        "id": 3309,
        "name": "Sankt Michael im Burgenland",
        "state_id": 2062,
        "state_code": "1",
        "state_name": "Burgenland",
        "country_id": 15,
        "country_code": "AT",
        "country_name": "Austria",
        "latitude": "47.12852000",
        "longitude": "16.27148000",
        "timezone": null,
        "wikiDataId": "Q691181"
    },
    {
        "id": 3353,
        "name": "Schachendorf",
        "state_id": 2062,
        "state_code": "1",
        "state_name": "Burgenland",
        "country_id": 15,
        "country_code": "AT",
        "country_name": "Austria",
        "latitude": "47.26667000",
        "longitude": "16.43333000",
        "timezone": null,
        "wikiDataId": "Q281215"
    },
    {
        "id": 3357,
        "name": "Schandorf",
        "state_id": 2062,
        "state_code": "1",
        "state_name": "Burgenland",
        "country_id": 15,
        "country_code": "AT",
        "country_name": "Austria",
        "latitude": "47.24183000",
        "longitude": "16.42267000",
        "timezone": null,
        "wikiDataId": "Q370131"
    },
    {
        "id": 3362,
        "name": "Schattendorf",
        "state_id": 2062,
        "state_code": "1",
        "state_name": "Burgenland",
        "country_id": 15,
        "country_code": "AT",
        "country_name": "Austria",
        "latitude": "47.70973000",
        "longitude": "16.50979000",
        "timezone": null,
        "wikiDataId": "Q670800"
    },
    {
        "id": 3424,
        "name": "Schützen am Gebirge",
        "state_id": 2062,
        "state_code": "1",
        "state_name": "Burgenland",
        "country_id": 15,
        "country_code": "AT",
        "country_name": "Austria",
        "latitude": "47.85233000",
        "longitude": "16.62334000",
        "timezone": null,
        "wikiDataId": "Q662532"
    },
    {
        "id": 3449,
        "name": "Siegendorf im Burgenland",
        "state_id": 2062,
        "state_code": "1",
        "state_name": "Burgenland",
        "country_id": 15,
        "country_code": "AT",
        "country_name": "Austria",
        "latitude": "47.78098000",
        "longitude": "16.54232000",
        "timezone": null,
        "wikiDataId": "Q699623"
    },
    {
        "id": 3451,
        "name": "Sieggraben",
        "state_id": 2062,
        "state_code": "1",
        "state_name": "Burgenland",
        "country_id": 15,
        "country_code": "AT",
        "country_name": "Austria",
        "latitude": "47.65128000",
        "longitude": "16.37993000",
        "timezone": null,
        "wikiDataId": "Q635805"
    },
    {
        "id": 3456,
        "name": "Sigless",
        "state_id": 2062,
        "state_code": "1",
        "state_name": "Burgenland",
        "country_id": 15,
        "country_code": "AT",
        "country_name": "Austria",
        "latitude": "47.77533000",
        "longitude": "16.39503000",
        "timezone": null,
        "wikiDataId": "Q604080"
    },
    {
        "id": 3492,
        "name": "Stadtschlaining",
        "state_id": 2062,
        "state_code": "1",
        "state_name": "Burgenland",
        "country_id": 15,
        "country_code": "AT",
        "country_name": "Austria",
        "latitude": "47.31667000",
        "longitude": "16.28333000",
        "timezone": null,
        "wikiDataId": "Q256307"
    },
    {
        "id": 3509,
        "name": "Stegersbach",
        "state_id": 2062,
        "state_code": "1",
        "state_name": "Burgenland",
        "country_id": 15,
        "country_code": "AT",
        "country_name": "Austria",
        "latitude": "47.16667000",
        "longitude": "16.16667000",
        "timezone": null,
        "wikiDataId": "Q646843"
    },
    {
        "id": 3516,
        "name": "Steinbrunn",
        "state_id": 2062,
        "state_code": "1",
        "state_name": "Burgenland",
        "country_id": 15,
        "country_code": "AT",
        "country_name": "Austria",
        "latitude": "47.83333000",
        "longitude": "16.41667000",
        "timezone": null,
        "wikiDataId": "Q662618"
    },
    {
        "id": 3530,
        "name": "Stinatz",
        "state_id": 2062,
        "state_code": "1",
        "state_name": "Burgenland",
        "country_id": 15,
        "country_code": "AT",
        "country_name": "Austria",
        "latitude": "47.20266000",
        "longitude": "16.13312000",
        "timezone": null,
        "wikiDataId": "Q301284"
    },
    {
        "id": 3535,
        "name": "Stoob",
        "state_id": 2062,
        "state_code": "1",
        "state_name": "Burgenland",
        "country_id": 15,
        "country_code": "AT",
        "country_name": "Austria",
        "latitude": "47.52845000",
        "longitude": "16.47760000",
        "timezone": null,
        "wikiDataId": "Q663326"
    },
    {
        "id": 3536,
        "name": "Stotzing",
        "state_id": 2062,
        "state_code": "1",
        "state_name": "Burgenland",
        "country_id": 15,
        "country_code": "AT",
        "country_name": "Austria",
        "latitude": "47.90688000",
        "longitude": "16.54580000",
        "timezone": null,
        "wikiDataId": "Q592578"
    },
    {
        "id": 3550,
        "name": "Strem",
        "state_id": 2062,
        "state_code": "1",
        "state_name": "Burgenland",
        "country_id": 15,
        "country_code": "AT",
        "country_name": "Austria",
        "latitude": "47.04498000",
        "longitude": "16.41426000",
        "timezone": null,
        "wikiDataId": "Q537140"
    },
    {
        "id": 3568,
        "name": "Tadten",
        "state_id": 2062,
        "state_code": "1",
        "state_name": "Burgenland",
        "country_id": 15,
        "country_code": "AT",
        "country_name": "Austria",
        "latitude": "47.76667000",
        "longitude": "16.98333000",
        "timezone": null,
        "wikiDataId": "Q661072"
    },
    {
        "id": 3605,
        "name": "Tobaj",
        "state_id": 2062,
        "state_code": "1",
        "state_name": "Burgenland",
        "country_id": 15,
        "country_code": "AT",
        "country_name": "Austria",
        "latitude": "47.08333000",
        "longitude": "16.30000000",
        "timezone": null,
        "wikiDataId": "Q542087"
    },
    {
        "id": 3615,
        "name": "Trausdorf an der Wulka",
        "state_id": 2062,
        "state_code": "1",
        "state_name": "Burgenland",
        "country_id": 15,
        "country_code": "AT",
        "country_name": "Austria",
        "latitude": "47.81350000",
        "longitude": "16.55760000",
        "timezone": null,
        "wikiDataId": "Q259710"
    },
    {
        "id": 3630,
        "name": "Tschanigraben",
        "state_id": 2062,
        "state_code": "1",
        "state_name": "Burgenland",
        "country_id": 15,
        "country_code": "AT",
        "country_name": "Austria",
        "latitude": "47.01667000",
        "longitude": "16.30000000",
        "timezone": null,
        "wikiDataId": "Q675834"
    },
    {
        "id": 3652,
        "name": "Unterfrauenhaid",
        "state_id": 2062,
        "state_code": "1",
        "state_name": "Burgenland",
        "country_id": 15,
        "country_code": "AT",
        "country_name": "Austria",
        "latitude": "47.57116000",
        "longitude": "16.49885000",
        "timezone": null,
        "wikiDataId": "Q377780"
    },
    {
        "id": 3654,
        "name": "Unterkohlstätten",
        "state_id": 2062,
        "state_code": "1",
        "state_name": "Burgenland",
        "country_id": 15,
        "country_code": "AT",
        "country_name": "Austria",
        "latitude": "47.38333000",
        "longitude": "16.31667000",
        "timezone": null,
        "wikiDataId": "Q377780"
    },
    {
        "id": 3666,
        "name": "Unterwart",
        "state_id": 2062,
        "state_code": "1",
        "state_name": "Burgenland",
        "country_id": 15,
        "country_code": "AT",
        "country_name": "Austria",
        "latitude": "47.25000000",
        "longitude": "16.23333000",
        "timezone": null,
        "wikiDataId": "Q261028"
    },
    {
        "id": 3737,
        "name": "Wallern im Burgenland",
        "state_id": 2062,
        "state_code": "1",
        "state_name": "Burgenland",
        "country_id": 15,
        "country_code": "AT",
        "country_name": "Austria",
        "latitude": "47.72847000",
        "longitude": "16.93706000",
        "timezone": null,
        "wikiDataId": "Q661084"
    },
    {
        "id": 3756,
        "name": "Weichselbaum",
        "state_id": 2062,
        "state_code": "1",
        "state_name": "Burgenland",
        "country_id": 15,
        "country_code": "AT",
        "country_name": "Austria",
        "latitude": "46.94250000",
        "longitude": "16.18750000",
        "timezone": null,
        "wikiDataId": "Q660935"
    },
    {
        "id": 3757,
        "name": "Weiden am See",
        "state_id": 2062,
        "state_code": "1",
        "state_name": "Burgenland",
        "country_id": 15,
        "country_code": "AT",
        "country_name": "Austria",
        "latitude": "47.92532000",
        "longitude": "16.86899000",
        "timezone": null,
        "wikiDataId": "Q592370"
    },
    {
        "id": 3758,
        "name": "Weiden bei Rechnitz",
        "state_id": 2062,
        "state_code": "1",
        "state_name": "Burgenland",
        "country_id": 15,
        "country_code": "AT",
        "country_name": "Austria",
        "latitude": "47.30000000",
        "longitude": "16.35000000",
        "timezone": null,
        "wikiDataId": "Q476969"
    },
    {
        "id": 3767,
        "name": "Weingraben",
        "state_id": 2062,
        "state_code": "1",
        "state_name": "Burgenland",
        "country_id": 15,
        "country_code": "AT",
        "country_name": "Austria",
        "latitude": "47.51393000",
        "longitude": "16.36375000",
        "timezone": null,
        "wikiDataId": "Q663414"
    },
    {
        "id": 3791,
        "name": "Weppersdorf",
        "state_id": 2062,
        "state_code": "1",
        "state_name": "Burgenland",
        "country_id": 15,
        "country_code": "AT",
        "country_name": "Austria",
        "latitude": "47.57954000",
        "longitude": "16.42679000",
        "timezone": null,
        "wikiDataId": "Q663238"
    },
    {
        "id": 3809,
        "name": "Wiesen",
        "state_id": 2062,
        "state_code": "1",
        "state_name": "Burgenland",
        "country_id": 15,
        "country_code": "AT",
        "country_name": "Austria",
        "latitude": "47.73776000",
        "longitude": "16.33798000",
        "timezone": null,
        "wikiDataId": "Q661734"
    },
    {
        "id": 3810,
        "name": "Wiesfleck",
        "state_id": 2062,
        "state_code": "1",
        "state_name": "Burgenland",
        "country_id": 15,
        "country_code": "AT",
        "country_name": "Austria",
        "latitude": "47.38458000",
        "longitude": "16.14552000",
        "timezone": null,
        "wikiDataId": "Q661734"
    },
    {
        "id": 3823,
        "name": "Wimpassing an der Leitha",
        "state_id": 2062,
        "state_code": "1",
        "state_name": "Burgenland",
        "country_id": 15,
        "country_code": "AT",
        "country_name": "Austria",
        "latitude": "47.91667000",
        "longitude": "16.43333000",
        "timezone": null,
        "wikiDataId": "Q662709"
    },
    {
        "id": 3826,
        "name": "Winden am See",
        "state_id": 2062,
        "state_code": "1",
        "state_name": "Burgenland",
        "country_id": 15,
        "country_code": "AT",
        "country_name": "Austria",
        "latitude": "47.95000000",
        "longitude": "16.75000000",
        "timezone": null,
        "wikiDataId": "Q247547"
    },
    {
        "id": 3838,
        "name": "Wolfau",
        "state_id": 2062,
        "state_code": "1",
        "state_name": "Burgenland",
        "country_id": 15,
        "country_code": "AT",
        "country_name": "Austria",
        "latitude": "47.25000000",
        "longitude": "16.10000000",
        "timezone": null,
        "wikiDataId": "Q696073"
    },
    {
        "id": 3859,
        "name": "Wörterberg",
        "state_id": 2062,
        "state_code": "1",
        "state_name": "Burgenland",
        "country_id": 15,
        "country_code": "AT",
        "country_name": "Austria",
        "latitude": "47.21667000",
        "longitude": "16.10000000",
        "timezone": null,
        "wikiDataId": "Q662336"
    },
    {
        "id": 3850,
        "name": "Wulkaprodersdorf",
        "state_id": 2062,
        "state_code": "1",
        "state_name": "Burgenland",
        "country_id": 15,
        "country_code": "AT",
        "country_name": "Austria",
        "latitude": "47.79753000",
        "longitude": "16.50447000",
        "timezone": null,
        "wikiDataId": "Q663259"
    },
    {
        "id": 3866,
        "name": "Zagersdorf",
        "state_id": 2062,
        "state_code": "1",
        "state_name": "Burgenland",
        "country_id": 15,
        "country_code": "AT",
        "country_name": "Austria",
        "latitude": "47.76471000",
        "longitude": "16.51382000",
        "timezone": null,
        "wikiDataId": "Q662589"
    },
    {
        "id": 3887,
        "name": "Zillingtal",
        "state_id": 2062,
        "state_code": "1",
        "state_name": "Burgenland",
        "country_id": 15,
        "country_code": "AT",
        "country_name": "Austria",
        "latitude": "47.81442000",
        "longitude": "16.40928000",
        "timezone": null,
        "wikiDataId": "Q203191"
    },
    {
        "id": 3890,
        "name": "Zurndorf",
        "state_id": 2062,
        "state_code": "1",
        "state_name": "Burgenland",
        "country_id": 15,
        "country_code": "AT",
        "country_name": "Austria",
        "latitude": "47.98314000",
        "longitude": "17.00315000",
        "timezone": null,
        "wikiDataId": "Q230459"
    },
    {
        "id": 143783,
        "name": "Albeck",
        "state_id": 2057,
        "state_code": "2",
        "state_name": "Carinthia",
        "country_id": 15,
        "country_code": "AT",
        "country_name": "Austria",
        "latitude": "46.81666667",
        "longitude": "14.10000000",
        "timezone": null,
        "wikiDataId": "Q667265"
    },
    {
        "id": 1646,
        "name": "Althofen",
        "state_id": 2057,
        "state_code": "2",
        "state_name": "Carinthia",
        "country_id": 15,
        "country_code": "AT",
        "country_name": "Austria",
        "latitude": "46.87298000",
        "longitude": "14.47449000",
        "timezone": null,
        "wikiDataId": "Q441016"
    },
    {
        "id": 1668,
        "name": "Annabichl",
        "state_id": 2057,
        "state_code": "2",
        "state_name": "Carinthia",
        "country_id": 15,
        "country_code": "AT",
        "country_name": "Austria",
        "latitude": "46.65000000",
        "longitude": "14.31667000",
        "timezone": null,
        "wikiDataId": "Q252446"
    },
    {
        "id": 1679,
        "name": "Arnoldstein",
        "state_id": 2057,
        "state_code": "2",
        "state_name": "Carinthia",
        "country_id": 15,
        "country_code": "AT",
        "country_name": "Austria",
        "latitude": "46.54611000",
        "longitude": "13.71000000",
        "timezone": null,
        "wikiDataId": "Q693471"
    },
    {
        "id": 1681,
        "name": "Arriach",
        "state_id": 2057,
        "state_code": "2",
        "state_name": "Carinthia",
        "country_id": 15,
        "country_code": "AT",
        "country_name": "Austria",
        "latitude": "46.72921000",
        "longitude": "13.85046000",
        "timezone": null,
        "wikiDataId": "Q664562"
    },
    {
        "id": 1706,
        "name": "Auen",
        "state_id": 2057,
        "state_code": "2",
        "state_name": "Carinthia",
        "country_id": 15,
        "country_code": "AT",
        "country_name": "Austria",
        "latitude": "46.59963000",
        "longitude": "13.84389000",
        "timezone": null,
        "wikiDataId": "Q677138"
    },
    {
        "id": 143785,
        "name": "Bad Bleiberg",
        "state_id": 2057,
        "state_code": "2",
        "state_name": "Carinthia",
        "country_id": 15,
        "country_code": "AT",
        "country_name": "Austria",
        "latitude": "46.62416667",
        "longitude": "13.68777778",
        "timezone": null,
        "wikiDataId": "Q535737"
    },
    {
        "id": 143786,
        "name": "Bad Eisenkappel",
        "state_id": 2057,
        "state_code": "2",
        "state_name": "Carinthia",
        "country_id": 15,
        "country_code": "AT",
        "country_name": "Austria",
        "latitude": "46.48333333",
        "longitude": "14.60000000",
        "timezone": null,
        "wikiDataId": "Q14954747"
    },
    {
        "id": 143787,
        "name": "Bad Kleinkirchheim",
        "state_id": 2057,
        "state_code": "2",
        "state_name": "Carinthia",
        "country_id": 15,
        "country_code": "AT",
        "country_name": "Austria",
        "latitude": "46.81361111",
        "longitude": "13.79277778",
        "timezone": null,
        "wikiDataId": "Q649069"
    },
    {
        "id": 1733,
        "name": "Bad Sankt Leonhard im Lavanttal",
        "state_id": 2057,
        "state_code": "2",
        "state_name": "Carinthia",
        "country_id": 15,
        "country_code": "AT",
        "country_name": "Austria",
        "latitude": "46.96278000",
        "longitude": "14.79167000",
        "timezone": null,
        "wikiDataId": "Q660781"
    },
    {
        "id": 1746,
        "name": "Baldramsdorf",
        "state_id": 2057,
        "state_code": "2",
        "state_name": "Carinthia",
        "country_id": 15,
        "country_code": "AT",
        "country_name": "Austria",
        "latitude": "46.80111000",
        "longitude": "13.45333000",
        "timezone": null,
        "wikiDataId": "Q661983"
    },
    {
        "id": 1755,
        "name": "Berg im Drautal",
        "state_id": 2057,
        "state_code": "2",
        "state_name": "Carinthia",
        "country_id": 15,
        "country_code": "AT",
        "country_name": "Austria",
        "latitude": "46.74915000",
        "longitude": "13.13536000",
        "timezone": null,
        "wikiDataId": "Q819321"
    },
    {
        "id": 1781,
        "name": "Bleiburg",
        "state_id": 2057,
        "state_code": "2",
        "state_name": "Carinthia",
        "country_id": 15,
        "country_code": "AT",
        "country_name": "Austria",
        "latitude": "46.59000000",
        "longitude": "14.79889000",
        "timezone": null,
        "wikiDataId": "Q871356"
    },
    {
        "id": 1788,
        "name": "Bodensdorf",
        "state_id": 2057,
        "state_code": "2",
        "state_name": "Carinthia",
        "country_id": 15,
        "country_code": "AT",
        "country_name": "Austria",
        "latitude": "46.69111000",
        "longitude": "13.97111000",
        "timezone": null,
        "wikiDataId": "Q669550"
    },
    {
        "id": 1816,
        "name": "Brückl",
        "state_id": 2057,
        "state_code": "2",
        "state_name": "Carinthia",
        "country_id": 15,
        "country_code": "AT",
        "country_name": "Austria",
        "latitude": "46.75167000",
        "longitude": "14.53667000",
        "timezone": null,
        "wikiDataId": "Q871405"
    },
    {
        "id": 1833,
        "name": "Dellach",
        "state_id": 2057,
        "state_code": "2",
        "state_name": "Carinthia",
        "country_id": 15,
        "country_code": "AT",
        "country_name": "Austria",
        "latitude": "46.66175000",
        "longitude": "13.07965000",
        "timezone": null,
        "wikiDataId": "Q672114"
    },
    {
        "id": 1834,
        "name": "Dellach im Drautal",
        "state_id": 2057,
        "state_code": "2",
        "state_name": "Carinthia",
        "country_id": 15,
        "country_code": "AT",
        "country_name": "Austria",
        "latitude": "46.73750000",
        "longitude": "13.07833000",
        "timezone": null,
        "wikiDataId": "Q662270"
    },
    {
        "id": 1838,
        "name": "Deutsch Griffen",
        "state_id": 2057,
        "state_code": "2",
        "state_name": "Carinthia",
        "country_id": 15,
        "country_code": "AT",
        "country_name": "Austria",
        "latitude": "46.85606000",
        "longitude": "14.07501000",
        "timezone": null,
        "wikiDataId": "Q687487"
    },
    {
        "id": 1854,
        "name": "Diex",
        "state_id": 2057,
        "state_code": "2",
        "state_name": "Carinthia",
        "country_id": 15,
        "country_code": "AT",
        "country_name": "Austria",
        "latitude": "46.75000000",
        "longitude": "14.60000000",
        "timezone": null,
        "wikiDataId": "Q674672"
    },
    {
        "id": 1871,
        "name": "Döbriach",
        "state_id": 2057,
        "state_code": "2",
        "state_name": "Carinthia",
        "country_id": 15,
        "country_code": "AT",
        "country_name": "Austria",
        "latitude": "46.78049000",
        "longitude": "13.65738000",
        "timezone": null,
        "wikiDataId": "Q677936"
    },
    {
        "id": 1866,
        "name": "Draschen",
        "state_id": 2057,
        "state_code": "2",
        "state_name": "Carinthia",
        "country_id": 15,
        "country_code": "AT",
        "country_name": "Austria",
        "latitude": "46.76909000",
        "longitude": "14.06758000",
        "timezone": null,
        "wikiDataId": "Q171219"
    },
    {
        "id": 1886,
        "name": "Ebenthal",
        "state_id": 2057,
        "state_code": "2",
        "state_name": "Carinthia",
        "country_id": 15,
        "country_code": "AT",
        "country_name": "Austria",
        "latitude": "46.60806000",
        "longitude": "14.36417000",
        "timezone": null,
        "wikiDataId": "Q284179"
    },
    {
        "id": 1890,
        "name": "Eberndorf",
        "state_id": 2057,
        "state_code": "2",
        "state_name": "Carinthia",
        "country_id": 15,
        "country_code": "AT",
        "country_name": "Austria",
        "latitude": "46.59139000",
        "longitude": "14.64361000",
        "timezone": null,
        "wikiDataId": "Q662378"
    },
    {
        "id": 1894,
        "name": "Eberstein",
        "state_id": 2057,
        "state_code": "2",
        "state_name": "Carinthia",
        "country_id": 15,
        "country_code": "AT",
        "country_name": "Austria",
        "latitude": "46.80806000",
        "longitude": "14.56000000",
        "timezone": null,
        "wikiDataId": "Q662203"
    },
    {
        "id": 143792,
        "name": "Ebriach",
        "state_id": 2057,
        "state_code": "2",
        "state_name": "Carinthia",
        "country_id": 15,
        "country_code": "AT",
        "country_name": "Austria",
        "latitude": "46.46667000",
        "longitude": "14.51667000",
        "timezone": null,
        "wikiDataId": "Q61958991"
    },
    {
        "id": 143793,
        "name": "Eisenkappel-Vellach",
        "state_id": 2057,
        "state_code": "2",
        "state_name": "Carinthia",
        "country_id": 15,
        "country_code": "AT",
        "country_name": "Austria",
        "latitude": "46.48638889",
        "longitude": "14.59611111",
        "timezone": null,
        "wikiDataId": "Q702095"
    },
    {
        "id": 1957,
        "name": "Faak am See",
        "state_id": 2057,
        "state_code": "2",
        "state_name": "Carinthia",
        "country_id": 15,
        "country_code": "AT",
        "country_name": "Austria",
        "latitude": "46.56806000",
        "longitude": "13.90972000",
        "timezone": null,
        "wikiDataId": "Q19932786"
    },
    {
        "id": 143794,
        "name": "Feffernitz",
        "state_id": 2057,
        "state_code": "2",
        "state_name": "Carinthia",
        "country_id": 15,
        "country_code": "AT",
        "country_name": "Austria",
        "latitude": "46.68333333",
        "longitude": "13.70000000",
        "timezone": null,
        "wikiDataId": "Q5441483"
    },
    {
        "id": 1966,
        "name": "Feistritz an der Drau",
        "state_id": 2057,
        "state_code": "2",
        "state_name": "Carinthia",
        "country_id": 15,
        "country_code": "AT",
        "country_name": "Austria",
        "latitude": "46.70157000",
        "longitude": "13.66479000",
        "timezone": null,
        "wikiDataId": "Q5441584"
    },
    {
        "id": 1967,
        "name": "Feistritz an der Gail",
        "state_id": 2057,
        "state_code": "2",
        "state_name": "Carinthia",
        "country_id": 15,
        "country_code": "AT",
        "country_name": "Austria",
        "latitude": "46.57750000",
        "longitude": "13.60667000",
        "timezone": null,
        "wikiDataId": "Q690447"
    },
    {
        "id": 1969,
        "name": "Feistritz im Rosental",
        "state_id": 2057,
        "state_code": "2",
        "state_name": "Carinthia",
        "country_id": 15,
        "country_code": "AT",
        "country_name": "Austria",
        "latitude": "46.51667000",
        "longitude": "14.16667000",
        "timezone": null,
        "wikiDataId": "Q691204"
    },
    {
        "id": 1970,
        "name": "Feistritz ob Bleiburg",
        "state_id": 2057,
        "state_code": "2",
        "state_name": "Carinthia",
        "country_id": 15,
        "country_code": "AT",
        "country_name": "Austria",
        "latitude": "46.55000000",
        "longitude": "14.76667000",
        "timezone": null,
        "wikiDataId": "Q664452"
    },
    {
        "id": 1971,
        "name": "Feld am See",
        "state_id": 2057,
        "state_code": "2",
        "state_name": "Carinthia",
        "country_id": 15,
        "country_code": "AT",
        "country_name": "Austria",
        "latitude": "46.77639000",
        "longitude": "13.74778000",
        "timezone": null,
        "wikiDataId": "Q663618"
    },
    {
        "id": 2998,
        "name": "Feldkirchen District",
        "state_id": 2057,
        "state_code": "2",
        "state_name": "Carinthia",
        "country_id": 15,
        "country_code": "AT",
        "country_name": "Austria",
        "latitude": "46.72127000",
        "longitude": "14.09683000",
        "timezone": null,
        "wikiDataId": "Q665735"
    },
    {
        "id": 1976,
        "name": "Feldkirchen in Kärnten",
        "state_id": 2057,
        "state_code": "2",
        "state_name": "Carinthia",
        "country_id": 15,
        "country_code": "AT",
        "country_name": "Austria",
        "latitude": "46.72368000",
        "longitude": "14.09580000",
        "timezone": null,
        "wikiDataId": "Q507533"
    },
    {
        "id": 1980,
        "name": "Ferlach",
        "state_id": 2057,
        "state_code": "2",
        "state_name": "Carinthia",
        "country_id": 15,
        "country_code": "AT",
        "country_name": "Austria",
        "latitude": "46.52694000",
        "longitude": "14.30194000",
        "timezone": null,
        "wikiDataId": "Q610514"
    },
    {
        "id": 1981,
        "name": "Ferndorf",
        "state_id": 2057,
        "state_code": "2",
        "state_name": "Carinthia",
        "country_id": 15,
        "country_code": "AT",
        "country_name": "Austria",
        "latitude": "46.73651000",
        "longitude": "13.62661000",
        "timezone": null,
        "wikiDataId": "Q662037"
    },
    {
        "id": 1988,
        "name": "Finkenstein",
        "state_id": 2057,
        "state_code": "2",
        "state_name": "Carinthia",
        "country_id": 15,
        "country_code": "AT",
        "country_name": "Austria",
        "latitude": "46.56155000",
        "longitude": "13.87086000",
        "timezone": null,
        "wikiDataId": "Q679897"
    },
    {
        "id": 1989,
        "name": "Finkenstein am Faaker See",
        "state_id": 2057,
        "state_code": "2",
        "state_name": "Carinthia",
        "country_id": 15,
        "country_code": "AT",
        "country_name": "Austria",
        "latitude": "46.57904000",
        "longitude": "13.93496000",
        "timezone": null,
        "wikiDataId": "Q662080"
    },
    {
        "id": 1997,
        "name": "Flattach",
        "state_id": 2057,
        "state_code": "2",
        "state_name": "Carinthia",
        "country_id": 15,
        "country_code": "AT",
        "country_name": "Austria",
        "latitude": "46.93861000",
        "longitude": "13.13444000",
        "timezone": null,
        "wikiDataId": "Q667440"
    },
    {
        "id": 2033,
        "name": "Föderlach I",
        "state_id": 2057,
        "state_code": "2",
        "state_name": "Carinthia",
        "country_id": 15,
        "country_code": "AT",
        "country_name": "Austria",
        "latitude": "46.59998000",
        "longitude": "13.96128000",
        "timezone": null,
        "wikiDataId": "Q701030"
    },
    {
        "id": 143797,
        "name": "Frantschach-Sankt Gertraud",
        "state_id": 2057,
        "state_code": "2",
        "state_name": "Carinthia",
        "country_id": 15,
        "country_code": "AT",
        "country_name": "Austria",
        "latitude": "46.86111111",
        "longitude": "14.86027778",
        "timezone": null,
        "wikiDataId": "Q664570"
    },
    {
        "id": 2015,
        "name": "Frauenstein",
        "state_id": 2057,
        "state_code": "2",
        "state_name": "Carinthia",
        "country_id": 15,
        "country_code": "AT",
        "country_name": "Austria",
        "latitude": "46.81417000",
        "longitude": "14.29417000",
        "timezone": null,
        "wikiDataId": "Q698577"
    },
    {
        "id": 2021,
        "name": "Fresach",
        "state_id": 2057,
        "state_code": "2",
        "state_name": "Carinthia",
        "country_id": 15,
        "country_code": "AT",
        "country_name": "Austria",
        "latitude": "46.71556000",
        "longitude": "13.69083000",
        "timezone": null,
        "wikiDataId": "Q662026"
    },
    {
        "id": 2022,
        "name": "Fresen",
        "state_id": 2057,
        "state_code": "2",
        "state_name": "Carinthia",
        "country_id": 15,
        "country_code": "AT",
        "country_name": "Austria",
        "latitude": "46.70516000",
        "longitude": "14.04513000",
        "timezone": null,
        "wikiDataId": "Q21513117"
    },
    {
        "id": 2024,
        "name": "Friesach",
        "state_id": 2057,
        "state_code": "2",
        "state_name": "Carinthia",
        "country_id": 15,
        "country_code": "AT",
        "country_name": "Austria",
        "latitude": "46.95528000",
        "longitude": "14.40583000",
        "timezone": null,
        "wikiDataId": "Q871601"
    },
    {
        "id": 2036,
        "name": "Fürnitz",
        "state_id": 2057,
        "state_code": "2",
        "state_name": "Carinthia",
        "country_id": 15,
        "country_code": "AT",
        "country_name": "Austria",
        "latitude": "46.56188000",
        "longitude": "13.81732000",
        "timezone": null,
        "wikiDataId": "Q693955"
    },
    {
        "id": 2043,
        "name": "Gailitz",
        "state_id": 2057,
        "state_code": "2",
        "state_name": "Carinthia",
        "country_id": 15,
        "country_code": "AT",
        "country_name": "Austria",
        "latitude": "46.56083000",
        "longitude": "13.70444000",
        "timezone": null,
        "wikiDataId": "Q165892"
    },
    {
        "id": 2046,
        "name": "Gallizien",
        "state_id": 2057,
        "state_code": "2",
        "state_name": "Carinthia",
        "country_id": 15,
        "country_code": "AT",
        "country_name": "Austria",
        "latitude": "46.55000000",
        "longitude": "14.51667000",
        "timezone": null,
        "wikiDataId": "Q875799"
    },
    {
        "id": 143800,
        "name": "Gemmersdorf",
        "state_id": 2057,
        "state_code": "2",
        "state_name": "Carinthia",
        "country_id": 15,
        "country_code": "AT",
        "country_name": "Austria",
        "latitude": "46.75740000",
        "longitude": "14.90220000",
        "timezone": null,
        "wikiDataId": "Q997665"
    },
    {
        "id": 143801,
        "name": "Gerlamoos",
        "state_id": 2057,
        "state_code": "2",
        "state_name": "Carinthia",
        "country_id": 15,
        "country_code": "AT",
        "country_name": "Austria",
        "latitude": "46.76391000",
        "longitude": "13.27200000",
        "timezone": null,
        "wikiDataId": "Q63560776"
    },
    {
        "id": 143802,
        "name": "Gitschtal",
        "state_id": 2057,
        "state_code": "2",
        "state_name": "Carinthia",
        "country_id": 15,
        "country_code": "AT",
        "country_name": "Austria",
        "latitude": "46.67972222",
        "longitude": "13.26055556",
        "timezone": null,
        "wikiDataId": "Q692815"
    },
    {
        "id": 2083,
        "name": "Glanegg",
        "state_id": 2057,
        "state_code": "2",
        "state_name": "Carinthia",
        "country_id": 15,
        "country_code": "AT",
        "country_name": "Austria",
        "latitude": "46.72259000",
        "longitude": "14.19893000",
        "timezone": null,
        "wikiDataId": "Q665112"
    },
    {
        "id": 2088,
        "name": "Globasnitz",
        "state_id": 2057,
        "state_code": "2",
        "state_name": "Carinthia",
        "country_id": 15,
        "country_code": "AT",
        "country_name": "Austria",
        "latitude": "46.55694000",
        "longitude": "14.70278000",
        "timezone": null,
        "wikiDataId": "Q671487"
    },
    {
        "id": 2091,
        "name": "Glödnitz",
        "state_id": 2057,
        "state_code": "2",
        "state_name": "Carinthia",
        "country_id": 15,
        "country_code": "AT",
        "country_name": "Austria",
        "latitude": "46.87398000",
        "longitude": "14.11915000",
        "timezone": null,
        "wikiDataId": "Q696958"
    },
    {
        "id": 2093,
        "name": "Gmünd",
        "state_id": 2057,
        "state_code": "2",
        "state_name": "Carinthia",
        "country_id": 15,
        "country_code": "AT",
        "country_name": "Austria",
        "latitude": "46.90722000",
        "longitude": "13.52944000",
        "timezone": null,
        "wikiDataId": "Q660580"
    },
    {
        "id": 143803,
        "name": "Gmünd in Kärnten",
        "state_id": 2057,
        "state_code": "2",
        "state_name": "Carinthia",
        "country_id": 15,
        "country_code": "AT",
        "country_name": "Austria",
        "latitude": "46.91472000",
        "longitude": "13.54670000",
        "timezone": null,
        "wikiDataId": "Q21879753"
    },
    {
        "id": 2099,
        "name": "Gnesau",
        "state_id": 2057,
        "state_code": "2",
        "state_name": "Carinthia",
        "country_id": 15,
        "country_code": "AT",
        "country_name": "Austria",
        "latitude": "46.77544000",
        "longitude": "13.96251000",
        "timezone": null,
        "wikiDataId": "Q155113"
    },
    {
        "id": 143806,
        "name": "Görtschach",
        "state_id": 2057,
        "state_code": "2",
        "state_name": "Carinthia",
        "country_id": 15,
        "country_code": "AT",
        "country_name": "Austria",
        "latitude": "46.61278000",
        "longitude": "13.46500000",
        "timezone": null,
        "wikiDataId": "Q61474469"
    },
    {
        "id": 2113,
        "name": "Grafenstein",
        "state_id": 2057,
        "state_code": "2",
        "state_name": "Carinthia",
        "country_id": 15,
        "country_code": "AT",
        "country_name": "Austria",
        "latitude": "46.61393000",
        "longitude": "14.46719000",
        "timezone": null,
        "wikiDataId": "Q595241"
    },
    {
        "id": 2124,
        "name": "Greifenburg",
        "state_id": 2057,
        "state_code": "2",
        "state_name": "Carinthia",
        "country_id": 15,
        "country_code": "AT",
        "country_name": "Austria",
        "latitude": "46.75027000",
        "longitude": "13.17982000",
        "timezone": null,
        "wikiDataId": "Q692935"
    },
    {
        "id": 2130,
        "name": "Gries",
        "state_id": 2057,
        "state_code": "2",
        "state_name": "Carinthia",
        "country_id": 15,
        "country_code": "AT",
        "country_name": "Austria",
        "latitude": "46.83160000",
        "longitude": "14.85103000",
        "timezone": null,
        "wikiDataId": "Q689455"
    },
    {
        "id": 2135,
        "name": "Griffen",
        "state_id": 2057,
        "state_code": "2",
        "state_name": "Carinthia",
        "country_id": 15,
        "country_code": "AT",
        "country_name": "Austria",
        "latitude": "46.70444000",
        "longitude": "14.73278000",
        "timezone": null,
        "wikiDataId": "Q696964"
    },
    {
        "id": 2155,
        "name": "Großkirchheim",
        "state_id": 2057,
        "state_code": "2",
        "state_name": "Carinthia",
        "country_id": 15,
        "country_code": "AT",
        "country_name": "Austria",
        "latitude": "46.97270000",
        "longitude": "12.89589000",
        "timezone": null,
        "wikiDataId": "Q664412"
    },
    {
        "id": 2178,
        "name": "Gurk",
        "state_id": 2057,
        "state_code": "2",
        "state_name": "Carinthia",
        "country_id": 15,
        "country_code": "AT",
        "country_name": "Austria",
        "latitude": "46.87389000",
        "longitude": "14.29167000",
        "timezone": null,
        "wikiDataId": "Q661877"
    },
    {
        "id": 2182,
        "name": "Guttaring",
        "state_id": 2057,
        "state_code": "2",
        "state_name": "Carinthia",
        "country_id": 15,
        "country_code": "AT",
        "country_name": "Austria",
        "latitude": "46.88536000",
        "longitude": "14.51071000",
        "timezone": null,
        "wikiDataId": "Q669323"
    },
    {
        "id": 2258,
        "name": "Heiligenblut",
        "state_id": 2057,
        "state_code": "2",
        "state_name": "Carinthia",
        "country_id": 15,
        "country_code": "AT",
        "country_name": "Austria",
        "latitude": "47.03979000",
        "longitude": "12.84345000",
        "timezone": null,
        "wikiDataId": "Q875812"
    },
    {
        "id": 2271,
        "name": "Hermagor",
        "state_id": 2057,
        "state_code": "2",
        "state_name": "Carinthia",
        "country_id": 15,
        "country_code": "AT",
        "country_name": "Austria",
        "latitude": "46.62722000",
        "longitude": "13.36722000",
        "timezone": null,
        "wikiDataId": "Q264311"
    },
    {
        "id": 3008,
        "name": "Hermagor District",
        "state_id": 2057,
        "state_code": "2",
        "state_name": "Carinthia",
        "country_id": 15,
        "country_code": "AT",
        "country_name": "Austria",
        "latitude": "46.63137000",
        "longitude": "13.13246000",
        "timezone": null,
        "wikiDataId": "Q613991"
    },
    {
        "id": 143807,
        "name": "Hermagor-Pressegger See",
        "state_id": 2057,
        "state_code": "2",
        "state_name": "Carinthia",
        "country_id": 15,
        "country_code": "AT",
        "country_name": "Austria",
        "latitude": "46.62722222",
        "longitude": "13.36722222",
        "timezone": null,
        "wikiDataId": "Q672649"
    },
    {
        "id": 2282,
        "name": "Himmelberg",
        "state_id": 2057,
        "state_code": "2",
        "state_name": "Carinthia",
        "country_id": 15,
        "country_code": "AT",
        "country_name": "Austria",
        "latitude": "46.75667000",
        "longitude": "14.03056000",
        "timezone": null,
        "wikiDataId": "Q693010"
    },
    {
        "id": 2319,
        "name": "Hohenthurn",
        "state_id": 2057,
        "state_code": "2",
        "state_name": "Carinthia",
        "country_id": 15,
        "country_code": "AT",
        "country_name": "Austria",
        "latitude": "46.55774000",
        "longitude": "13.66038000",
        "timezone": null,
        "wikiDataId": "Q660601"
    },
    {
        "id": 2344,
        "name": "Hörtendorf",
        "state_id": 2057,
        "state_code": "2",
        "state_name": "Carinthia",
        "country_id": 15,
        "country_code": "AT",
        "country_name": "Austria",
        "latitude": "46.63333000",
        "longitude": "14.40000000",
        "timezone": null,
        "wikiDataId": "Q675816"
    },
    {
        "id": 2348,
        "name": "Hüttenberg",
        "state_id": 2057,
        "state_code": "2",
        "state_name": "Carinthia",
        "country_id": 15,
        "country_code": "AT",
        "country_name": "Austria",
        "latitude": "46.94139000",
        "longitude": "14.55000000",
        "timezone": null,
        "wikiDataId": "Q675816"
    },
    {
        "id": 2367,
        "name": "Irschen",
        "state_id": 2057,
        "state_code": "2",
        "state_name": "Carinthia",
        "country_id": 15,
        "country_code": "AT",
        "country_name": "Austria",
        "latitude": "46.75694000",
        "longitude": "13.02528000",
        "timezone": null,
        "wikiDataId": "Q692681"
    },
    {
        "id": 2402,
        "name": "Kappel am Krappfeld",
        "state_id": 2057,
        "state_code": "2",
        "state_name": "Carinthia",
        "country_id": 15,
        "country_code": "AT",
        "country_name": "Austria",
        "latitude": "46.83861000",
        "longitude": "14.48639000",
        "timezone": null,
        "wikiDataId": "Q664615"
    },
    {
        "id": 2420,
        "name": "Keutschach am See",
        "state_id": 2057,
        "state_code": "2",
        "state_name": "Carinthia",
        "country_id": 15,
        "country_code": "AT",
        "country_name": "Austria",
        "latitude": "46.59306000",
        "longitude": "14.18889000",
        "timezone": null,
        "wikiDataId": "Q662784"
    },
    {
        "id": 2424,
        "name": "Kirchbach",
        "state_id": 2057,
        "state_code": "2",
        "state_name": "Carinthia",
        "country_id": 15,
        "country_code": "AT",
        "country_name": "Austria",
        "latitude": "46.64160000",
        "longitude": "13.18454000",
        "timezone": null,
        "wikiDataId": "Q695227"
    },
    {
        "id": 143810,
        "name": "Klagenfurt",
        "state_id": 2057,
        "state_code": "2",
        "state_name": "Carinthia",
        "country_id": 15,
        "country_code": "AT",
        "country_name": "Austria",
        "latitude": "46.63873000",
        "longitude": "14.29730000",
        "timezone": null,
        "wikiDataId": "Q21880504"
    },
    {
        "id": 2446,
        "name": "Klagenfurt am Wörthersee",
        "state_id": 2057,
        "state_code": "2",
        "state_name": "Carinthia",
        "country_id": 15,
        "country_code": "AT",
        "country_name": "Austria",
        "latitude": "46.63333000",
        "longitude": "14.30000000",
        "timezone": null,
        "wikiDataId": "Q41753"
    },
    {
        "id": 3016,
        "name": "Klagenfurt-Land District",
        "state_id": 2057,
        "state_code": "2",
        "state_name": "Carinthia",
        "country_id": 15,
        "country_code": "AT",
        "country_name": "Austria",
        "latitude": "46.56722000",
        "longitude": "14.29295000",
        "timezone": null,
        "wikiDataId": "Q660701"
    },
    {
        "id": 143811,
        "name": "Kleblach-Lind",
        "state_id": 2057,
        "state_code": "2",
        "state_name": "Carinthia",
        "country_id": 15,
        "country_code": "AT",
        "country_name": "Austria",
        "latitude": "46.76722222",
        "longitude": "13.35805556",
        "timezone": null,
        "wikiDataId": "Q433696"
    },
    {
        "id": 2449,
        "name": "Klein Sankt Paul",
        "state_id": 2057,
        "state_code": "2",
        "state_name": "Carinthia",
        "country_id": 15,
        "country_code": "AT",
        "country_name": "Austria",
        "latitude": "46.83611000",
        "longitude": "14.54139000",
        "timezone": null,
        "wikiDataId": "Q664696"
    },
    {
        "id": 2453,
        "name": "Kleinedling",
        "state_id": 2057,
        "state_code": "2",
        "state_name": "Carinthia",
        "country_id": 15,
        "country_code": "AT",
        "country_name": "Austria",
        "latitude": "46.81417000",
        "longitude": "14.82778000",
        "timezone": null,
        "wikiDataId": "Q675036"
    },
    {
        "id": 2514,
        "name": "Kötschach",
        "state_id": 2057,
        "state_code": "2",
        "state_name": "Carinthia",
        "country_id": 15,
        "country_code": "AT",
        "country_name": "Austria",
        "latitude": "46.68167000",
        "longitude": "13.00694000",
        "timezone": null,
        "wikiDataId": "Q701179"
    },
    {
        "id": 143813,
        "name": "Kötschach-Mauthen",
        "state_id": 2057,
        "state_code": "2",
        "state_name": "Carinthia",
        "country_id": 15,
        "country_code": "AT",
        "country_name": "Austria",
        "latitude": "46.66666667",
        "longitude": "13.00000000",
        "timezone": null,
        "wikiDataId": "Q667212"
    },
    {
        "id": 2515,
        "name": "Köttmannsdorf",
        "state_id": 2057,
        "state_code": "2",
        "state_name": "Carinthia",
        "country_id": 15,
        "country_code": "AT",
        "country_name": "Austria",
        "latitude": "46.56139000",
        "longitude": "14.23389000",
        "timezone": null,
        "wikiDataId": "Q664542"
    },
    {
        "id": 143812,
        "name": "Krems",
        "state_id": 2057,
        "state_code": "2",
        "state_name": "Carinthia",
        "country_id": 15,
        "country_code": "AT",
        "country_name": "Austria",
        "latitude": "46.92250000",
        "longitude": "13.56750000",
        "timezone": null,
        "wikiDataId": "Q667328"
    },
    {
        "id": 2500,
        "name": "Krumpendorf",
        "state_id": 2057,
        "state_code": "2",
        "state_name": "Carinthia",
        "country_id": 15,
        "country_code": "AT",
        "country_name": "Austria",
        "latitude": "46.63333000",
        "longitude": "14.21667000",
        "timezone": null,
        "wikiDataId": "Q662440"
    },
    {
        "id": 2516,
        "name": "Kühnsdorf",
        "state_id": 2057,
        "state_code": "2",
        "state_name": "Carinthia",
        "country_id": 15,
        "country_code": "AT",
        "country_name": "Austria",
        "latitude": "46.62194000",
        "longitude": "14.63639000",
        "timezone": null,
        "wikiDataId": ""
    },
    {
        "id": 143814,
        "name": "Lamnitz",
        "state_id": 2057,
        "state_code": "2",
        "state_name": "Carinthia",
        "country_id": 15,
        "country_code": "AT",
        "country_name": "Austria",
        "latitude": "46.86666667",
        "longitude": "12.98333333",
        "timezone": null,
        "wikiDataId": "Q21868827"
    },
    {
        "id": 2533,
        "name": "Landskron",
        "state_id": 2057,
        "state_code": "2",
        "state_name": "Carinthia",
        "country_id": 15,
        "country_code": "AT",
        "country_name": "Austria",
        "latitude": "46.63363710",
        "longitude": "13.88727220",
        "timezone": null,
        "wikiDataId": "Q696281"
    },
    {
        "id": 2553,
        "name": "Launsdorf",
        "state_id": 2057,
        "state_code": "2",
        "state_name": "Carinthia",
        "country_id": 15,
        "country_code": "AT",
        "country_name": "Austria",
        "latitude": "46.77056000",
        "longitude": "14.45194000",
        "timezone": null,
        "wikiDataId": "Q699625"
    },
    {
        "id": 2556,
        "name": "Lavamünd",
        "state_id": 2057,
        "state_code": "2",
        "state_name": "Carinthia",
        "country_id": 15,
        "country_code": "AT",
        "country_name": "Austria",
        "latitude": "46.64019000",
        "longitude": "14.94733000",
        "timezone": null,
        "wikiDataId": "Q875816"
    },
    {
        "id": 2561,
        "name": "Ledenitzen",
        "state_id": 2057,
        "state_code": "2",
        "state_name": "Carinthia",
        "country_id": 15,
        "country_code": "AT",
        "country_name": "Austria",
        "latitude": "46.56639000",
        "longitude": "13.96139000",
        "timezone": null,
        "wikiDataId": "Q699437"
    },
    {
        "id": 2574,
        "name": "Lendorf",
        "state_id": 2057,
        "state_code": "2",
        "state_name": "Carinthia",
        "country_id": 15,
        "country_code": "AT",
        "country_name": "Austria",
        "latitude": "46.83528000",
        "longitude": "13.43028000",
        "timezone": null,
        "wikiDataId": "Q681202"
    },
    {
        "id": 143816,
        "name": "Leppen",
        "state_id": 2057,
        "state_code": "2",
        "state_name": "Carinthia",
        "country_id": 15,
        "country_code": "AT",
        "country_name": "Austria",
        "latitude": "46.48333000",
        "longitude": "14.63333000",
        "timezone": null,
        "wikiDataId": "Q60226792"
    },
    {
        "id": 143817,
        "name": "Lesachtal",
        "state_id": 2057,
        "state_code": "2",
        "state_name": "Carinthia",
        "country_id": 15,
        "country_code": "AT",
        "country_name": "Austria",
        "latitude": "46.69388889",
        "longitude": "12.81583333",
        "timezone": null,
        "wikiDataId": "Q677851"
    },
    {
        "id": 2594,
        "name": "Liebenfels",
        "state_id": 2057,
        "state_code": "2",
        "state_name": "Carinthia",
        "country_id": 15,
        "country_code": "AT",
        "country_name": "Austria",
        "latitude": "46.73778000",
        "longitude": "14.28667000",
        "timezone": null,
        "wikiDataId": "Q664662"
    },
    {
        "id": 2601,
        "name": "Lind",
        "state_id": 2057,
        "state_code": "2",
        "state_name": "Carinthia",
        "country_id": 15,
        "country_code": "AT",
        "country_name": "Austria",
        "latitude": "46.62244000",
        "longitude": "13.84715000",
        "timezone": null,
        "wikiDataId": "Q871536"
    },
    {
        "id": 143818,
        "name": "Lobersberg",
        "state_id": 2057,
        "state_code": "2",
        "state_name": "Carinthia",
        "country_id": 15,
        "country_code": "AT",
        "country_name": "Austria",
        "latitude": "46.86500000",
        "longitude": "12.91111111",
        "timezone": null,
        "wikiDataId": "Q21869040"
    },