[
    {
        "id": 18861,
        "name": "Abobo",
        "state_id": 2634,
        "state_code": "AB",
        "state_name": "Abidjan",
        "country_id": 54,
        "country_code": "CI",
        "country_name": "Cote D'Ivoire (Ivory Coast)",
        "latitude": "5.41613000",
        "longitude": "-4.01590000",
        "timezone": null,
        "wikiDataId": "Q322624"
    },
    {
        "id": 18870,
        "name": "Anyama",
        "state_id": 2634,
        "state_code": "AB",
        "state_name": "Abidjan",
        "country_id": 54,
        "country_code": "CI",
        "country_name": "Cote D'Ivoire (Ivory Coast)",
        "latitude": "5.49462000",
        "longitude": "-4.05183000",
        "timezone": null,
        "wikiDataId": "Q2080938"
    },
    {
        "id": 18876,
        "name": "Bingerville",
        "state_id": 2634,
        "state_code": "AB",
        "state_name": "Abidjan",
        "country_id": 54,
        "country_code": "CI",
        "country_name": "Cote D'Ivoire (Ivory Coast)",
        "latitude": "5.35581000",
        "longitude": "-3.88537000",
        "timezone": null,
        "wikiDataId": "Q863795"
    },
    {
        "id": 18901,
        "name": "Gbôklé",
        "state_id": 2643,
        "state_code": "BS",
        "state_name": "Bas-Sassandra",
        "country_id": 54,
        "country_code": "CI",
        "country_name": "Cote D'Ivoire (Ivory Coast)",
        "latitude": "4.95712000",
        "longitude": "-6.09372000",
        "timezone": null,
        "wikiDataId": "Q1268139"
    },
    {
        "id": 18924,
        "name": "Nawa",
        "state_id": 2643,
        "state_code": "BS",
        "state_name": "Bas-Sassandra",
        "country_id": 54,
        "country_code": "CI",
        "country_name": "Cote D'Ivoire (Ivory Coast)",
        "latitude": "5.80112000",
        "longitude": "-6.60313000",
        "timezone": null,
        "wikiDataId": "Q1191011"
    },
    {
        "id": 18928,
        "name": "San-Pédro",
        "state_id": 2643,
        "state_code": "BS",
        "state_name": "Bas-Sassandra",
        "country_id": 54,
        "country_code": "CI",
        "country_name": "Cote D'Ivoire (Ivory Coast)",
        "latitude": "4.76768000",
        "longitude": "-6.65033000",
        "timezone": null,
        "wikiDataId": "Q1102546"
    },
    {
        "id": 18929,
        "name": "Sassandra",
        "state_id": 2643,
        "state_code": "BS",
        "state_name": "Bas-Sassandra",
        "country_id": 54,
        "country_code": "CI",
        "country_name": "Cote D'Ivoire (Ivory Coast)",
        "latitude": "4.95384000",
        "longitude": "-6.08531000",
        "timezone": null,
        "wikiDataId": "Q1102546"
    },
    {
        "id": 18933,
        "name": "Tabou",
        "state_id": 2643,
        "state_code": "BS",
        "state_name": "Bas-Sassandra",
        "country_id": 54,
        "country_code": "CI",
        "country_name": "Cote D'Ivoire (Ivory Coast)",
        "latitude": "4.42295000",
        "longitude": "-7.35280000",
        "timezone": null,
        "wikiDataId": "Q952665"
    },
    {
        "id": 18859,
        "name": "Abengourou",
        "state_id": 2654,
        "state_code": "CM",
        "state_name": "Comoé",
        "country_id": 54,
        "country_code": "CI",
        "country_name": "Cote D'Ivoire (Ivory Coast)",
        "latitude": "6.72972000",
        "longitude": "-3.49639000",
        "timezone": null,
        "wikiDataId": "Q1044225"
    },
    {
        "id": 18862,
        "name": "Aboisso",
        "state_id": 2654,
        "state_code": "CM",
        "state_name": "Comoé",
        "country_id": 54,
        "country_code": "CI",
        "country_name": "Cote D'Ivoire (Ivory Coast)",
        "latitude": "5.46779000",
        "longitude": "-3.20711000",
        "timezone": null,
        "wikiDataId": "Q521322"
    },
    {
        "id": 18863,
        "name": "Adiaké",
        "state_id": 2654,
        "state_code": "CM",
        "state_name": "Comoé",
        "country_id": 54,
        "country_code": "CI",
        "country_name": "Cote D'Ivoire (Ivory Coast)",
        "latitude": "5.28634000",
        "longitude": "-3.30403000",
        "timezone": null,
        "wikiDataId": "Q521322"
    },
    {
        "id": 18867,
        "name": "Agnibilékrou",
        "state_id": 2654,
        "state_code": "CM",
        "state_name": "Comoé",
        "country_id": 54,
        "country_code": "CI",
        "country_name": "Cote D'Ivoire (Ivory Coast)",
        "latitude": "7.13113000",
        "longitude": "-3.20415000",
        "timezone": null,
        "wikiDataId": "Q2080938"
    },
    {
        "id": 18872,
        "name": "Ayamé",
        "state_id": 2654,
        "state_code": "CM",
        "state_name": "Comoé",
        "country_id": 54,
        "country_code": "CI",
        "country_name": "Cote D'Ivoire (Ivory Coast)",
        "latitude": "5.60520000",
        "longitude": "-3.15709000",
        "timezone": null,
        "wikiDataId": "Q4795810"
    },
    {
        "id": 18880,
        "name": "Bonoua",
        "state_id": 2654,
        "state_code": "CM",
        "state_name": "Comoé",
        "country_id": 54,
        "country_code": "CI",
        "country_name": "Cote D'Ivoire (Ivory Coast)",
        "latitude": "5.27247000",
        "longitude": "-3.59625000",
        "timezone": null,
        "wikiDataId": "Q892276"
    },
    {
        "id": 18903,
        "name": "Grand-Bassam",
        "state_id": 2654,
        "state_code": "CM",
        "state_name": "Comoé",
        "country_id": 54,
        "country_code": "CI",
        "country_name": "Cote D'Ivoire (Ivory Coast)",
        "latitude": "5.21180000",
        "longitude": "-3.73884000",
        "timezone": null,
        "wikiDataId": "Q582922"
    },
    {
        "id": 18913,
        "name": "Indénié-Djuablin",
        "state_id": 2654,
        "state_code": "CM",
        "state_name": "Comoé",
        "country_id": 54,
        "country_code": "CI",
        "country_name": "Cote D'Ivoire (Ivory Coast)",
        "latitude": "6.74434000",
        "longitude": "-3.49400000",
        "timezone": null,
        "wikiDataId": "Q1553776"
    },
    {
        "id": 18931,
        "name": "Sud-Comoé",
        "state_id": 2654,
        "state_code": "CM",
        "state_name": "Comoé",
        "country_id": 54,
        "country_code": "CI",
        "country_name": "Cote D'Ivoire (Ivory Coast)",
        "latitude": "5.49961000",
        "longitude": "-3.24080000",
        "timezone": null,
        "wikiDataId": "Q1102546"
    },
    {
        "id": 18898,
        "name": "Folon",
        "state_id": 2644,
        "state_code": "DN",
        "state_name": "Denguélé",
        "country_id": 54,
        "country_code": "CI",
        "country_name": "Cote D'Ivoire (Ivory Coast)",
        "latitude": "9.81241000",
        "longitude": "-7.51894000",
        "timezone": null,
        "wikiDataId": "Q1268139"
    },
    {
        "id": 18915,
        "name": "Kabadougou",
        "state_id": 2644,
        "state_code": "DN",
        "state_name": "Denguélé",
        "country_id": 54,
        "country_code": "CI",
        "country_name": "Cote D'Ivoire (Ivory Coast)",
        "latitude": "9.60571000",
        "longitude": "-7.43774000",
        "timezone": null,
        "wikiDataId": "Q1553776"
    },
    {
        "id": 18925,
        "name": "Odienné",
        "state_id": 2644,
        "state_code": "DN",
        "state_name": "Denguélé",
        "country_id": 54,
        "country_code": "CI",
        "country_name": "Cote D'Ivoire (Ivory Coast)",
        "latitude": "9.50511000",
        "longitude": "-7.56433000",
        "timezone": null,
        "wikiDataId": "Q506811"
    },
    {
        "id": 18874,
        "name": "Bangolo",
        "state_id": 2645,
        "state_code": "06",
        "state_name": "Dix-Huit Montagnes",
        "country_id": 54,
        "country_code": "CI",
        "country_name": "Cote D'Ivoire (Ivory Coast)",
        "latitude": "7.01232000",
        "longitude": "-7.48639000",
        "timezone": null,
        "wikiDataId": "Q2882487"
    },
    {
        "id": 18875,
        "name": "Biankouma",
        "state_id": 2645,
        "state_code": "06",
        "state_name": "Dix-Huit Montagnes",
        "country_id": 54,
        "country_code": "CI",
        "country_name": "Cote D'Ivoire (Ivory Coast)",
        "latitude": "7.73909000",
        "longitude": "-7.61377000",
        "timezone": null,
        "wikiDataId": "Q1102796"
    },
    {
        "id": 18889,
        "name": "Cavally",
        "state_id": 2645,
        "state_code": "06",
        "state_name": "Dix-Huit Montagnes",
        "country_id": 54,
        "country_code": "CI",
        "country_name": "Cote D'Ivoire (Ivory Coast)",
        "latitude": "6.56343000",
        "longitude": "-7.92526000",
        "timezone": null,
        "wikiDataId": "Q2922170"
    },
    {
        "id": 18893,
        "name": "Danané",
        "state_id": 2645,
        "state_code": "06",
        "state_name": "Dix-Huit Montagnes",
        "country_id": 54,
        "country_code": "CI",
        "country_name": "Cote D'Ivoire (Ivory Coast)",
        "latitude": "7.25957000",
        "longitude": "-8.15498000",
        "timezone": null,
        "wikiDataId": "Q860304"
    },
    {
        "id": 18897,
        "name": "Duekoué",
        "state_id": 2645,
        "state_code": "06",
        "state_name": "Dix-Huit Montagnes",
        "country_id": 54,
        "country_code": "CI",
        "country_name": "Cote D'Ivoire (Ivory Coast)",
        "latitude": "6.74202000",
        "longitude": "-7.34918000",
        "timezone": null,
        "wikiDataId": "Q1268139"
    },
    {
        "id": 18908,
        "name": "Guémon",
        "state_id": 2645,
        "state_code": "06",
        "state_name": "Dix-Huit Montagnes",
        "country_id": 54,
        "country_code": "CI",
        "country_name": "Cote D'Ivoire (Ivory Coast)",
        "latitude": "7.09300000",
        "longitude": "-7.17785000",
        "timezone": null,
        "wikiDataId": "Q1553776"
    },
    {
        "id": 18907,
        "name": "Guiglo",
        "state_id": 2645,
        "state_code": "06",
        "state_name": "Dix-Huit Montagnes",
        "country_id": 54,
        "country_code": "CI",
        "country_name": "Cote D'Ivoire (Ivory Coast)",
        "latitude": "6.54368000",
        "longitude": "-7.49350000",
        "timezone": null,
        "wikiDataId": "Q1553776"
    },
    {
        "id": 18919,
        "name": "Man",
        "state_id": 2645,
        "state_code": "06",
        "state_name": "Dix-Huit Montagnes",
        "country_id": 54,
        "country_code": "CI",
        "country_name": "Cote D'Ivoire (Ivory Coast)",
        "latitude": "7.41251000",
        "longitude": "-7.55383000",
        "timezone": null,
        "wikiDataId": "Q1191011"
    },
    {
        "id": 18936,
        "name": "Tonkpi",
        "state_id": 2645,
        "state_code": "06",
        "state_name": "Dix-Huit Montagnes",
        "country_id": 54,
        "country_code": "CI",
        "country_name": "Cote D'Ivoire (Ivory Coast)",
        "latitude": "7.56785000",
        "longitude": "-7.60941000",
        "timezone": null,
        "wikiDataId": "Q952665"
    },
    {
        "id": 18938,
        "name": "Toulépleu Gueré",
        "state_id": 2645,
        "state_code": "06",
        "state_name": "Dix-Huit Montagnes",
        "country_id": 54,
        "country_code": "CI",
        "country_name": "Cote D'Ivoire (Ivory Coast)",
        "latitude": "6.57395000",
        "longitude": "-8.42592000",
        "timezone": null,
        "wikiDataId": "Q2308752"
    },
    {
        "id": 18896,
        "name": "Divo",
        "state_id": 2651,
        "state_code": "GD",
        "state_name": "Gôh-Djiboua",
        "country_id": 54,
        "country_code": "CI",
        "country_name": "Cote D'Ivoire (Ivory Coast)",
        "latitude": "5.83739000",
        "longitude": "-5.35723000",
        "timezone": null,
        "wikiDataId": "Q1530295"
    },
    {
        "id": 18899,
        "name": "Gagnoa",
        "state_id": 2651,
        "state_code": "GD",
        "state_name": "Gôh-Djiboua",
        "country_id": 54,
        "country_code": "CI",
        "country_name": "Cote D'Ivoire (Ivory Coast)",
        "latitude": "6.13193000",
        "longitude": "-5.95060000",
        "timezone": null,
        "wikiDataId": "Q1268139"
    },
    {
        "id": 18909,
        "name": "Gôh",
        "state_id": 2651,
        "state_code": "GD",
        "state_name": "Gôh-Djiboua",
        "country_id": 54,
        "country_code": "CI",
        "country_name": "Cote D'Ivoire (Ivory Coast)",
        "latitude": "6.14459000",
        "longitude": "-5.92644000",
        "timezone": null,
        "wikiDataId": "Q1553776"
    },
    {
        "id": 18906,
        "name": "Guibéroua",
        "state_id": 2651,
        "state_code": "GD",
        "state_name": "Gôh-Djiboua",
        "country_id": 54,
        "country_code": "CI",
        "country_name": "Cote D'Ivoire (Ivory Coast)",
        "latitude": "6.23869000",
        "longitude": "-6.17147000",
        "timezone": null,
        "wikiDataId": "Q1102140"
    },
    {
        "id": 18917,
        "name": "Lakota",
        "state_id": 2651,
        "state_code": "GD",
        "state_name": "Gôh-Djiboua",
        "country_id": 54,
        "country_code": "CI",
        "country_name": "Cote D'Ivoire (Ivory Coast)",
        "latitude": "5.84752000",
        "longitude": "-5.68200000",
        "timezone": null,
        "wikiDataId": "Q2409805"
    },
    {
        "id": 18918,
        "name": "Lôh-Djiboua",
        "state_id": 2651,
        "state_code": "GD",
        "state_name": "Gôh-Djiboua",
        "country_id": 54,
        "country_code": "CI",
        "country_name": "Cote D'Ivoire (Ivory Coast)",
        "latitude": "5.82483000",
        "longitude": "-5.47668000",
        "timezone": null,
        "wikiDataId": "Q2409805"
    },
    {
        "id": 18926,
        "name": "Oumé",
        "state_id": 2651,
        "state_code": "GD",
        "state_name": "Gôh-Djiboua",
        "country_id": 54,
        "country_code": "CI",
        "country_name": "Cote D'Ivoire (Ivory Coast)",
        "latitude": "6.38309000",
        "longitude": "-5.41759000",
        "timezone": null,
        "wikiDataId": "Q1102546"
    },
    {
        "id": 18871,
        "name": "Arrah",
        "state_id": 2632,
        "state_code": "LC",
        "state_name": "Lacs",
        "country_id": 54,
        "country_code": "CI",
        "country_name": "Cote D'Ivoire (Ivory Coast)",
        "latitude": "6.67342000",
        "longitude": "-3.96938000",
        "timezone": null,
        "wikiDataId": "Q4795810"
    },
    {
        "id": 18886,
        "name": "Bélier",
        "state_id": 2632,
        "state_code": "LC",
        "state_name": "Lacs",
        "country_id": 54,
        "country_code": "CI",
        "country_name": "Cote D'Ivoire (Ivory Coast)",
        "latitude": "7.02582000",
        "longitude": "-5.06744000",
        "timezone": null,
        "wikiDataId": "Q2922170"
    },
    {
        "id": 18877,
        "name": "Bocanda",
        "state_id": 2632,
        "state_code": "LC",
        "state_name": "Lacs",
        "country_id": 54,
        "country_code": "CI",
        "country_name": "Cote D'Ivoire (Ivory Coast)",
        "latitude": "7.06264000",
        "longitude": "-4.49948000",
        "timezone": null,
        "wikiDataId": "Q863795"
    },
    {
        "id": 18879,
        "name": "Bongouanou",
        "state_id": 2632,
        "state_code": "LC",
        "state_name": "Lacs",
        "country_id": 54,
        "country_code": "CI",
        "country_name": "Cote D'Ivoire (Ivory Coast)",
        "latitude": "6.65175000",
        "longitude": "-4.20406000",
        "timezone": null,
        "wikiDataId": "Q892276"
    },
    {
        "id": 18894,
        "name": "Daoukro",
        "state_id": 2632,
        "state_code": "LC",
        "state_name": "Lacs",
        "country_id": 54,
        "country_code": "CI",
        "country_name": "Cote D'Ivoire (Ivory Coast)",
        "latitude": "7.05910000",
        "longitude": "-3.96310000",
        "timezone": null,
        "wikiDataId": "Q3015844"
    },
    {
        "id": 18895,
        "name": "Dimbokro",
        "state_id": 2632,
        "state_code": "LC",
        "state_name": "Lacs",
        "country_id": 54,
        "country_code": "CI",
        "country_name": "Cote D'Ivoire (Ivory Coast)",
        "latitude": "6.64678000",
        "longitude": "-4.70519000",
        "timezone": null,
        "wikiDataId": "Q3015844"
    },
    {
        "id": 18912,
        "name": "Iffou",
        "state_id": 2632,
        "state_code": "LC",
        "state_name": "Lacs",
        "country_id": 54,
        "country_code": "CI",
        "country_name": "Cote D'Ivoire (Ivory Coast)",
        "latitude": "7.11509000",
        "longitude": "-3.95027000",
        "timezone": null,
        "wikiDataId": "Q1553776"
    },
    {
        "id": 18922,
        "name": "Moronou",
        "state_id": 2632,
        "state_code": "LC",
        "state_name": "Lacs",
        "country_id": 54,
        "country_code": "CI",
        "country_name": "Cote D'Ivoire (Ivory Coast)",
        "latitude": "6.66830000",
        "longitude": "-4.13155000",
        "timezone": null,
        "wikiDataId": "Q1191011"
    },
    {
        "id": 18923,
        "name": "N'Zi",
        "state_id": 2632,
        "state_code": "LC",
        "state_name": "Lacs",
        "country_id": 54,
        "country_code": "CI",
        "country_name": "Cote D'Ivoire (Ivory Coast)",
        "latitude": "6.82803000",
        "longitude": "-4.58130000",
        "timezone": null,
        "wikiDataId": "Q1191011"
    },
    {
        "id": 18939,
        "name": "Toumodi",
        "state_id": 2632,
        "state_code": "LC",
        "state_name": "Lacs",
        "country_id": 54,
        "country_code": "CI",
        "country_name": "Cote D'Ivoire (Ivory Coast)",
        "latitude": "6.55799000",
        "longitude": "-5.01769000",
        "timezone": null,
        "wikiDataId": "Q2308752"
    },
    {
        "id": 18942,
        "name": "Yamoussoukro",
        "state_id": 2632,
        "state_code": "LC",
        "state_name": "Lacs",
        "country_id": 54,
        "country_code": "CI",
        "country_name": "Cote D'Ivoire (Ivory Coast)",
        "latitude": "6.82055000",
        "longitude": "-5.27674000",
        "timezone": null,
        "wikiDataId": "Q3768"
    },
    {
        "id": 18864,
        "name": "Adzopé",
        "state_id": 2627,
        "state_code": "LG",
        "state_name": "Lagunes",
        "country_id": 54,
        "country_code": "CI",
        "country_name": "Cote D'Ivoire (Ivory Coast)",
        "latitude": "6.10694000",
        "longitude": "-3.86194000",
        "timezone": null,
        "wikiDataId": "Q1270691"
    },
    {
        "id": 18865,
        "name": "Affery",
        "state_id": 2627,
        "state_code": "LG",
        "state_name": "Lagunes",
        "country_id": 54,
        "country_code": "CI",
        "country_name": "Cote D'Ivoire (Ivory Coast)",
        "latitude": "6.32035000",
        "longitude": "-3.95235000",
        "timezone": null,
        "wikiDataId": "Q1270691"
    },
    {
        "id": 18866,
        "name": "Agboville",
        "state_id": 2627,
        "state_code": "LG",
        "state_name": "Lagunes",
        "country_id": 54,
        "country_code": "CI",
        "country_name": "Cote D'Ivoire (Ivory Coast)",
        "latitude": "5.92801000",
        "longitude": "-4.21319000",
        "timezone": null,
        "wikiDataId": "Q2080938"
    },
    {
        "id": 18868,
        "name": "Agnéby-Tiassa",
        "state_id": 2627,
        "state_code": "LG",
        "state_name": "Lagunes",
        "country_id": 54,
        "country_code": "CI",
        "country_name": "Cote D'Ivoire (Ivory Coast)",
        "latitude": "5.79488000",
        "longitude": "-4.37187000",
        "timezone": null,
        "wikiDataId": "Q2080938"
    },
    {
        "id": 18869,
        "name": "Akoupé",
        "state_id": 2627,
        "state_code": "LG",
        "state_name": "Lagunes",
        "country_id": 54,
        "country_code": "CI",
        "country_name": "Cote D'Ivoire (Ivory Coast)",
        "latitude": "6.38423000",
        "longitude": "-3.88759000",
        "timezone": null,
        "wikiDataId": "Q2080938"
    },
    {
        "id": 18891,
        "name": "Dabou",
        "state_id": 2627,
        "state_code": "LG",
        "state_name": "Lagunes",
        "country_id": 54,
        "country_code": "CI",
        "country_name": "Cote D'Ivoire (Ivory Coast)",
        "latitude": "5.32556000",
        "longitude": "-4.37685000",
        "timezone": null,
        "wikiDataId": "Q1588249"
    },
    {
        "id": 18904,
        "name": "Grand-Lahou",
        "state_id": 2627,
        "state_code": "LG",
        "state_name": "Lagunes",
        "country_id": 54,
        "country_code": "CI",
        "country_name": "Cote D'Ivoire (Ivory Coast)",
        "latitude": "5.25068000",
        "longitude": "-5.00333000",
        "timezone": null,
        "wikiDataId": "Q1102140"
    },
    {
        "id": 18905,
        "name": "Grands-Ponts",
        "state_id": 2627,
        "state_code": "LG",
        "state_name": "Lagunes",
        "country_id": 54,
        "country_code": "CI",
        "country_name": "Cote D'Ivoire (Ivory Coast)",
        "latitude": "5.30487000",
        "longitude": "-4.39247000",
        "timezone": null,
        "wikiDataId": "Q1102140"
    },
    {
        "id": 18935,
        "name": "Tiassalé",
        "state_id": 2627,
        "state_code": "LG",
        "state_name": "Lagunes",
        "country_id": 54,
        "country_code": "CI",
        "country_name": "Cote D'Ivoire (Ivory Coast)",
        "latitude": "5.89839000",
        "longitude": "-4.82293000",
        "timezone": null,
        "wikiDataId": "Q952665"
    },
    {
        "id": 18882,
        "name": "Bouaflé",
        "state_id": 2648,
        "state_code": "SM",
        "state_name": "Sassandra-Marahoué",
        "country_id": 54,
        "country_code": "CI",
        "country_name": "Cote D'Ivoire (Ivory Coast)",
        "latitude": "6.99041000",
        "longitude": "-5.74420000",
        "timezone": null,
        "wikiDataId": "Q1588797"
    },
    {
        "id": 18892,
        "name": "Daloa",
        "state_id": 2648,
        "state_code": "SM",
        "state_name": "Sassandra-Marahoué",
        "country_id": 54,
        "country_code": "CI",
        "country_name": "Cote D'Ivoire (Ivory Coast)",
        "latitude": "6.87735000",
        "longitude": "-6.45022000",
        "timezone": null,
        "wikiDataId": "Q860304"
    },
    {
        "id": 18911,
        "name": "Haut-Sassandra",
        "state_id": 2648,
        "state_code": "SM",
        "state_name": "Sassandra-Marahoué",
        "country_id": 54,
        "country_code": "CI",
        "country_name": "Cote D'Ivoire (Ivory Coast)",
        "latitude": "6.66961000",
        "longitude": "-6.50116000",
        "timezone": null,
        "wikiDataId": "Q1553776"
    },
    {
        "id": 18914,
        "name": "Issia",
        "state_id": 2648,
        "state_code": "SM",
        "state_name": "Sassandra-Marahoué",
        "country_id": 54,
        "country_code": "CI",
        "country_name": "Cote D'Ivoire (Ivory Coast)",
        "latitude": "6.49224000",
        "longitude": "-6.58558000",
        "timezone": null,
        "wikiDataId": "Q1553776"
    },
    {
        "id": 18921,
        "name": "Marahoué",
        "state_id": 2648,
        "state_code": "SM",
        "state_name": "Sassandra-Marahoué",
        "country_id": 54,
        "country_code": "CI",
        "country_name": "Cote D'Ivoire (Ivory Coast)",
        "latitude": "7.03252000",
        "longitude": "-5.80215000",
        "timezone": null,
        "wikiDataId": "Q1191011"
    },
    {
        "id": 18940,
        "name": "Vavoua",
        "state_id": 2648,
        "state_code": "SM",
        "state_name": "Sassandra-Marahoué",
        "country_id": 54,
        "country_code": "CI",
        "country_name": "Cote D'Ivoire (Ivory Coast)",
        "latitude": "7.38194000",
        "longitude": "-6.47778000",
        "timezone": null,
        "wikiDataId": "Q2308752"
    },
    {
        "id": 18943,
        "name": "Zuénoula",
        "state_id": 2648,
        "state_code": "SM",
        "state_name": "Sassandra-Marahoué",
        "country_id": 54,
        "country_code": "CI",
        "country_name": "Cote D'Ivoire (Ivory Coast)",
        "latitude": "7.43027000",
        "longitude": "-6.05054000",
        "timezone": null,
        "wikiDataId": "Q3768"
    },
    {
        "id": 18887,
        "name": "Béoumi",
        "state_id": 2637,
        "state_code": "VB",
        "state_name": "Vallée du Bandama",
        "country_id": 54,
        "country_code": "CI",
        "country_name": "Cote D'Ivoire (Ivory Coast)",
        "latitude": "7.67395000",
        "longitude": "-5.58085000",
        "timezone": null,
        "wikiDataId": "Q2922170"
    },
    {
        "id": 18881,
        "name": "Botro",
        "state_id": 2637,
        "state_code": "VB",
        "state_name": "Vallée du Bandama",
        "country_id": 54,
        "country_code": "CI",
        "country_name": "Cote D'Ivoire (Ivory Coast)",
        "latitude": "7.85249000",
        "longitude": "-5.31063000",
        "timezone": null,
        "wikiDataId": "Q892276"
    },
    {
        "id": 18883,
        "name": "Bouaké",
        "state_id": 2637,
        "state_code": "VB",
        "state_name": "Vallée du Bandama",
        "country_id": 54,
        "country_code": "CI",
        "country_name": "Cote D'Ivoire (Ivory Coast)",
        "latitude": "7.69385000",
        "longitude": "-5.03031000",
        "timezone": null,
        "wikiDataId": "Q271000"
    },
    {
        "id": 18890,
        "name": "Dabakala",
        "state_id": 2637,
        "state_code": "VB",
        "state_name": "Vallée du Bandama",
        "country_id": 54,
        "country_code": "CI",
        "country_name": "Cote D'Ivoire (Ivory Coast)",
        "latitude": "8.36321000",
        "longitude": "-4.42863000",
        "timezone": null,
        "wikiDataId": "Q6571316"
    },
    {
        "id": 18900,
        "name": "Gbêkê",
        "state_id": 2637,
        "state_code": "VB",
        "state_name": "Vallée du Bandama",
        "country_id": 54,
        "country_code": "CI",
        "country_name": "Cote D'Ivoire (Ivory Coast)",
        "latitude": "7.70271000",
        "longitude": "-5.28511000",
        "timezone": null,
        "wikiDataId": "Q1268139"
    },
    {
        "id": 18910,
        "name": "Hambol",
        "state_id": 2637,
        "state_code": "VB",
        "state_name": "Vallée du Bandama",
        "country_id": 54,
        "country_code": "CI",
        "country_name": "Cote D'Ivoire (Ivory Coast)",
        "latitude": "8.30368000",
        "longitude": "-5.15396000",
        "timezone": null,
        "wikiDataId": "Q1553776"
    },
    {
        "id": 18916,
        "name": "Katiola",
        "state_id": 2637,
        "state_code": "VB",
        "state_name": "Vallée du Bandama",
        "country_id": 54,
        "country_code": "CI",
        "country_name": "Cote D'Ivoire (Ivory Coast)",
        "latitude": "8.13728000",
        "longitude": "-5.10095000",
        "timezone": null,
        "wikiDataId": "Q2409805"
    },
    {
        "id": 18927,
        "name": "Sakassou",
        "state_id": 2637,
        "state_code": "VB",
        "state_name": "Vallée du Bandama",
        "country_id": 54,
        "country_code": "CI",
        "country_name": "Cote D'Ivoire (Ivory Coast)",
        "latitude": "7.45462000",
        "longitude": "-5.29263000",
        "timezone": null,
        "wikiDataId": "Q1102546"
    },
    {
        "id": 18873,
        "name": "Bafing",
        "state_id": 2650,
        "state_code": "WR",
        "state_name": "Woroba",
        "country_id": 54,
        "country_code": "CI",
        "country_name": "Cote D'Ivoire (Ivory Coast)",
        "latitude": "8.40611000",
        "longitude": "-7.58048000",
        "timezone": null,
        "wikiDataId": "Q799800"
    },
    {
        "id": 18888,
        "name": "Béré",
        "state_id": 2650,
        "state_code": "WR",
        "state_name": "Woroba",
        "country_id": 54,
        "country_code": "CI",
        "country_name": "Cote D'Ivoire (Ivory Coast)",
        "latitude": "8.18952000",
        "longitude": "-6.17157000",
        "timezone": null,
        "wikiDataId": "Q2922170"
    },
    {
        "id": 18920,
        "name": "Mankono",
        "state_id": 2650,
        "state_code": "WR",
        "state_name": "Woroba",
        "country_id": 54,
        "country_code": "CI",
        "country_name": "Cote D'Ivoire (Ivory Coast)",
        "latitude": "8.05861000",
        "longitude": "-6.18972000",
        "timezone": null,
        "wikiDataId": "Q1191011"
    },
    {
        "id": 18932,
        "name": "Séguéla",
        "state_id": 2650,
        "state_code": "WR",
        "state_name": "Woroba",
        "country_id": 54,
        "country_code": "CI",
        "country_name": "Cote D'Ivoire (Ivory Coast)",
        "latitude": "7.96111000",
        "longitude": "-6.67306000",
        "timezone": null,
        "wikiDataId": "Q952665"
    },
    {
        "id": 18937,
        "name": "Touba",
        "state_id": 2650,
        "state_code": "WR",
        "state_name": "Woroba",
        "country_id": 54,
        "country_code": "CI",
        "country_name": "Cote D'Ivoire (Ivory Coast)",
        "latitude": "8.28333000",
        "longitude": "-7.68333000",
        "timezone": null,
        "wikiDataId": "Q2308752"
    },
    {
        "id": 18941,
        "name": "Worodougou",
        "state_id": 2650,
        "state_code": "WR",
        "state_name": "Woroba",
        "country_id": 54,
        "country_code": "CI",
        "country_name": "Cote D'Ivoire (Ivory Coast)",
        "latitude": "8.16482000",
        "longitude": "-6.66595000",
        "timezone": null,
        "wikiDataId": "Q2308752"
    },
    {
        "id": 18878,
        "name": "Bondoukou",
        "state_id": 2641,
        "state_code": "ZZ",
        "state_name": "Zanzan",
        "country_id": 54,
        "country_code": "CI",
        "country_name": "Cote D'Ivoire (Ivory Coast)",
        "latitude": "8.04020000",
        "longitude": "-2.80003000",
        "timezone": null,
        "wikiDataId": "Q892276"
    },
    {
        "id": 18884,
        "name": "Bouna",
        "state_id": 2641,
        "state_code": "ZZ",
        "state_name": "Zanzan",
        "country_id": 54,
        "country_code": "CI",
        "country_name": "Cote D'Ivoire (Ivory Coast)",
        "latitude": "9.26927000",
        "longitude": "-2.99510000",
        "timezone": null,
        "wikiDataId": "Q2922170"
    },
    {
        "id": 18885,
        "name": "Bounkani",
        "state_id": 2641,
        "state_code": "ZZ",
        "state_name": "Zanzan",
        "country_id": 54,
        "country_code": "CI",
        "country_name": "Cote D'Ivoire (Ivory Coast)",
        "latitude": "9.47841000",
        "longitude": "-3.31238000",
        "timezone": null,
        "wikiDataId": "Q2922170"
    },
    {
        "id": 18902,
        "name": "Gontougo",
        "state_id": 2641,
        "state_code": "ZZ",
        "state_name": "Zanzan",
        "country_id": 54,
        "country_code": "CI",
        "country_name": "Cote D'Ivoire (Ivory Coast)",
        "latitude": "7.87132000",
        "longitude": "-3.07068000",
        "timezone": null,
        "wikiDataId": "Q1268139"
    },
    {
        "id": 18930,
        "name": "Sinfra",
        "state_id": 2641,
        "state_code": "ZZ",
        "state_name": "Zanzan",
        "country_id": 54,
        "country_code": "CI",
        "country_name": "Cote D'Ivoire (Ivory Coast)",
        "latitude": "6.62103000",
        "longitude": "-5.91144000",
        "timezone": null,
        "wikiDataId": "Q1102546"
    },
    {
        "id": 18934,
        "name": "Tanda",
        "state_id": 2641,
        "state_code": "ZZ",
        "state_name": "Zanzan",
        "country_id": 54,
        "country_code": "CI",
        "country_name": "Cote D'Ivoire (Ivory Coast)",
        "latitude": "7.80335000",
        "longitude": "-3.16832000",
        "timezone": null,
        "wikiDataId": "Q952665"
    }
]