[
    {
        "id": 19338,
        "name": "Bengbu",
        "state_id": 2251,
        "state_code": "AH",
        "state_name": "Anhui",
        "country_id": 45,
        "country_code": "CN",
        "country_name": "China",
        "latitude": "32.94083000",
        "longitude": "117.36083000",
        "timezone": null,
        "wikiDataId": "Q360069"
    },
    {
        "id": 19351,
        "name": "Bozhou",
        "state_id": 2251,
        "state_code": "AH",
        "state_name": "Anhui",
        "country_id": 45,
        "country_code": "CN",
        "country_name": "China",
        "latitude": "33.87722000",
        "longitude": "115.77028000",
        "timezone": null,
        "wikiDataId": "Q360769"
    },
    {
        "id": 19401,
        "name": "Chizhou",
        "state_id": 2251,
        "state_code": "AH",
        "state_name": "Anhui",
        "country_id": 45,
        "country_code": "CN",
        "country_name": "China",
        "latitude": "30.66134000",
        "longitude": "117.47783000",
        "timezone": null,
        "wikiDataId": "Q360870"
    },
    {
        "id": 19410,
        "name": "Chuzhou",
        "state_id": 2251,
        "state_code": "AH",
        "state_name": "Anhui",
        "country_id": 45,
        "country_code": "CN",
        "country_name": "China",
        "latitude": "32.32194000",
        "longitude": "118.29778000",
        "timezone": null,
        "wikiDataId": "Q114045"
    },
    {
        "id": 19525,
        "name": "Fuyang",
        "state_id": 2251,
        "state_code": "AH",
        "state_name": "Anhui",
        "country_id": 45,
        "country_code": "CN",
        "country_name": "China",
        "latitude": "32.90000000",
        "longitude": "115.81667000",
        "timezone": null,
        "wikiDataId": "Q360584"
    },
    {
        "id": 19607,
        "name": "Hefei",
        "state_id": 2251,
        "state_code": "AH",
        "state_name": "Anhui",
        "country_id": 45,
        "country_code": "CN",
        "country_name": "China",
        "latitude": "31.86389000",
        "longitude": "117.28083000",
        "timezone": null,
        "wikiDataId": "Q185684"
    },
    {
        "id": 19636,
        "name": "Huaibei",
        "state_id": 2251,
        "state_code": "AH",
        "state_name": "Anhui",
        "country_id": 45,
        "country_code": "CN",
        "country_name": "China",
        "latitude": "33.97444000",
        "longitude": "116.79167000",
        "timezone": null,
        "wikiDataId": "Q360268"
    },
    {
        "id": 19640,
        "name": "Huainan",
        "state_id": 2251,
        "state_code": "AH",
        "state_name": "Anhui",
        "country_id": 45,
        "country_code": "CN",
        "country_name": "China",
        "latitude": "32.62639000",
        "longitude": "116.99694000",
        "timezone": null,
        "wikiDataId": "Q416922"
    },
    {
        "id": 19656,
        "name": "Huangshan",
        "state_id": 2251,
        "state_code": "AH",
        "state_name": "Anhui",
        "country_id": 45,
        "country_code": "CN",
        "country_name": "China",
        "latitude": "29.71139000",
        "longitude": "118.31250000",
        "timezone": null,
        "wikiDataId": "Q180470"
    },
    {
        "id": 19895,
        "name": "Lu’an",
        "state_id": 2251,
        "state_code": "AH",
        "state_name": "Anhui",
        "country_id": 45,
        "country_code": "CN",
        "country_name": "China",
        "latitude": "31.73561000",
        "longitude": "116.51688000",
        "timezone": null,
        "wikiDataId": "Q360702"
    },
    {
        "id": 157019,
        "name": "Ma'anshan",
        "state_id": 2251,
        "state_code": "AH",
        "state_name": "Anhui",
        "country_id": 45,
        "country_code": "CN",
        "country_name": "China",
        "latitude": "31.67035230",
        "longitude": "118.34265480",
        "timezone": null,
        "wikiDataId": "Q360235"
    },
    {
        "id": 19919,
        "name": "Mingguang",
        "state_id": 2251,
        "state_code": "AH",
        "state_name": "Anhui",
        "country_id": 45,
        "country_code": "CN",
        "country_name": "China",
        "latitude": "32.78017000",
        "longitude": "117.96378000",
        "timezone": null,
        "wikiDataId": "Q1334907"
    },
    {
        "id": 157020,
        "name": "Tongling",
        "state_id": 2251,
        "state_code": "AH",
        "state_name": "Anhui",
        "country_id": 45,
        "country_code": "CN",
        "country_name": "China",
        "latitude": "30.93788970",
        "longitude": "117.65806910",
        "timezone": null,
        "wikiDataId": "Q360326"
    },
    {
        "id": 20234,
        "name": "Wuhu",
        "state_id": 2251,
        "state_code": "AH",
        "state_name": "Anhui",
        "country_id": 45,
        "country_code": "CN",
        "country_name": "China",
        "latitude": "31.33728000",
        "longitude": "118.37351000",
        "timezone": null,
        "wikiDataId": "Q359990"
    },
    {
        "id": 157021,
        "name": "Xuancheng",
        "state_id": 2251,
        "state_code": "AH",
        "state_name": "Anhui",
        "country_id": 45,
        "country_code": "CN",
        "country_name": "China",
        "latitude": "30.93919000",
        "longitude": "118.59654190",
        "timezone": null,
        "wikiDataId": "Q360942"
    },
    {
        "id": 19332,
        "name": "Beijing",
        "state_id": 2257,
        "state_code": "BJ",
        "state_name": "Beijing",
        "country_id": 45,
        "country_code": "CN",
        "country_name": "China",
        "latitude": "39.90750000",
        "longitude": "116.39723000",
        "timezone": null,
        "wikiDataId": "Q956"
    },
    {
        "id": 19370,
        "name": "Changping",
        "state_id": 2257,
        "state_code": "BJ",
        "state_name": "Beijing",
        "country_id": 45,
        "country_code": "CN",
        "country_name": "China",
        "latitude": "40.21612000",
        "longitude": "116.23471000",
        "timezone": null,
        "wikiDataId": "Q989898"
    },
    {
        "id": 19439,
        "name": "Daxing",
        "state_id": 2257,
        "state_code": "BJ",
        "state_name": "Beijing",
        "country_id": 45,
        "country_code": "CN",
        "country_name": "China",
        "latitude": "39.74025000",
        "longitude": "116.32693000",
        "timezone": null,
        "wikiDataId": "Q72877"
    },
    {
        "id": 19499,
        "name": "Fangshan",
        "state_id": 2257,
        "state_code": "BJ",
        "state_name": "Beijing",
        "country_id": 45,
        "country_code": "CN",
        "country_name": "China",
        "latitude": "39.68699000",
        "longitude": "115.99658000",
        "timezone": null,
        "wikiDataId": "Q571712"
    },
    {
        "id": 19817,
        "name": "Liangxiang",
        "state_id": 2257,
        "state_code": "BJ",
        "state_name": "Beijing",
        "country_id": 45,
        "country_code": "CN",
        "country_name": "China",
        "latitude": "39.73598000",
        "longitude": "116.13295000",
        "timezone": null,
        "wikiDataId": "Q666884"
    },
    {
        "id": 19916,
        "name": "Mentougou",
        "state_id": 2257,
        "state_code": "BJ",
        "state_name": "Beijing",
        "country_id": 45,
        "country_code": "CN",
        "country_name": "China",
        "latitude": "39.93819000",
        "longitude": "116.09307000",
        "timezone": null,
        "wikiDataId": "Q59184"
    },
    {
        "id": 20126,
        "name": "Shunyi",
        "state_id": 2257,
        "state_code": "BJ",
        "state_name": "Beijing",
        "country_id": 45,
        "country_code": "CN",
        "country_name": "China",
        "latitude": "40.12175000",
        "longitude": "116.64783000",
        "timezone": null,
        "wikiDataId": "Q1205127"
    },
    {
        "id": 20197,
        "name": "Tongzhou",
        "state_id": 2257,
        "state_code": "BJ",
        "state_name": "Beijing",
        "country_id": 45,
        "country_code": "CN",
        "country_name": "China",
        "latitude": "39.90395000",
        "longitude": "116.66183000",
        "timezone": null,
        "wikiDataId": "Q57719"
    },
    {
        "id": 19327,
        "name": "Beibei",
        "state_id": 2271,
        "state_code": "CQ",
        "state_name": "Chongqing",
        "country_id": 45,
        "country_code": "CN",
        "country_name": "China",
        "latitude": "29.82739000",
        "longitude": "106.43645000",
        "timezone": null,
        "wikiDataId": "Q178945"
    },
    {
        "id": 19356,
        "name": "Caijia",
        "state_id": 2271,
        "state_code": "CQ",
        "state_name": "Chongqing",
        "country_id": 45,
        "country_code": "CN",
        "country_name": "China",
        "latitude": "28.90889000",
        "longitude": "106.34040000",
        "timezone": null,
        "wikiDataId": "Q360769"
    },
    {
        "id": 19404,
        "name": "Chongqing",
        "state_id": 2271,
        "state_code": "CQ",
        "state_name": "Chongqing",
        "country_id": 45,
        "country_code": "CN",
        "country_name": "China",
        "latitude": "29.56278000",
        "longitude": "106.55278000",
        "timezone": null,
        "wikiDataId": "Q360870"
    },
    {
        "id": 19479,
        "name": "Dongxi",
        "state_id": 2271,
        "state_code": "CQ",
        "state_name": "Chongqing",
        "country_id": 45,
        "country_code": "CN",
        "country_name": "China",
        "latitude": "28.76139000",
        "longitude": "106.66111000",
        "timezone": null,
        "wikiDataId": "Q609421"
    },
    {
        "id": 19521,
        "name": "Fuling",
        "state_id": 2271,
        "state_code": "CQ",
        "state_name": "Chongqing",
        "country_id": 45,
        "country_code": "CN",
        "country_name": "China",
        "latitude": "29.70600000",
        "longitude": "107.39575000",
        "timezone": null,
        "wikiDataId": "Q240239"
    },
    {
        "id": 19536,
        "name": "Ganshui",
        "state_id": 2271,
        "state_code": "CQ",
        "state_name": "Chongqing",
        "country_id": 45,
        "country_code": "CN",
        "country_name": "China",
        "latitude": "28.74222000",
        "longitude": "106.71111000",
        "timezone": null,
        "wikiDataId": "Q1331447"
    },
    {
        "id": 19577,
        "name": "Guofuchang",
        "state_id": 2271,
        "state_code": "CQ",
        "state_name": "Chongqing",
        "country_id": 45,
        "country_code": "CN",
        "country_name": "China",
        "latitude": "28.85000000",
        "longitude": "106.60139000",
        "timezone": null,
        "wikiDataId": "Q1285102"
    },
    {
        "id": 19604,
        "name": "Hechuan",
        "state_id": 2271,
        "state_code": "CQ",
        "state_name": "Chongqing",
        "country_id": 45,
        "country_code": "CN",
        "country_name": "China",
        "latitude": "29.99228000",
        "longitude": "106.26461000",
        "timezone": null,
        "wikiDataId": "Q572089"
    },
    {
        "id": 19724,
        "name": "Jijiang",
        "state_id": 2271,
        "state_code": "CQ",
        "state_name": "Chongqing",
        "country_id": 45,
        "country_code": "CN",
        "country_name": "China",
        "latitude": "29.28993000",
        "longitude": "106.25001000",
        "timezone": null,
        "wikiDataId": "Q26323"
    },
    {
        "id": 19815,
        "name": "Liangping District",
        "state_id": 2271,
        "state_code": "CQ",
        "state_name": "Chongqing",
        "country_id": 45,
        "country_code": "CN",
        "country_name": "China",
        "latitude": "30.67409000",
        "longitude": "107.79380000",
        "timezone": null,
        "wikiDataId": "Q1362558"
    },
    {
        "id": 19991,
        "name": "Puhechang",
        "state_id": 2271,
        "state_code": "CQ",
        "state_name": "Chongqing",
        "country_id": 45,
        "country_code": "CN",
        "country_name": "China",
        "latitude": "28.95250000",
        "longitude": "106.83111000",
        "timezone": null,
        "wikiDataId": "Q416748"
    },
    {
        "id": 20084,
        "name": "Shapingba District",
        "state_id": 2271,
        "state_code": "CQ",
        "state_name": "Chongqing",
        "country_id": 45,
        "country_code": "CN",
        "country_name": "China",
        "latitude": "29.54166000",
        "longitude": "106.45547000",
        "timezone": null,
        "wikiDataId": "Q777171"
    },
    {
        "id": 20095,
        "name": "Shijiaochang",
        "state_id": 2271,
        "state_code": "CQ",
        "state_name": "Chongqing",
        "country_id": 45,
        "country_code": "CN",
        "country_name": "China",
        "latitude": "28.92444000",
        "longitude": "106.75611000",
        "timezone": null,
        "wikiDataId": "Q15174"
    },
    {
        "id": 20211,
        "name": "Wanxian",
        "state_id": 2271,
        "state_code": "CQ",
        "state_name": "Chongqing",
        "country_id": 45,
        "country_code": "CN",
        "country_name": "China",
        "latitude": "30.81544000",
        "longitude": "108.37089000",
        "timezone": null,
        "wikiDataId": "Q997593"
    },
    {
        "id": 20212,
        "name": "Wanzhou District",
        "state_id": 2271,
        "state_code": "CQ",
        "state_name": "Chongqing",
        "country_id": 45,
        "country_code": "CN",
        "country_name": "China",
        "latitude": "30.70576000",
        "longitude": "108.40202000",
        "timezone": null,
        "wikiDataId": "Q713825"
    },
    {
        "id": 20385,
        "name": "Yongchuan",
        "state_id": 2271,
        "state_code": "CQ",
        "state_name": "Chongqing",
        "country_id": 45,
        "country_code": "CN",
        "country_name": "China",
        "latitude": "29.35376000",
        "longitude": "105.89392000",
        "timezone": null,
        "wikiDataId": "Q1011138"
    },
    {
        "id": 20395,
        "name": "Yudong",
        "state_id": 2271,
        "state_code": "CQ",
        "state_name": "Chongqing",
        "country_id": 45,
        "country_code": "CN",
        "country_name": "China",
        "latitude": "29.38500000",
        "longitude": "106.51944000",
        "timezone": null,
        "wikiDataId": "Q427557"
    },
    {
        "id": 20412,
        "name": "Yuzhong District",
        "state_id": 2271,
        "state_code": "CQ",
        "state_name": "Chongqing",
        "country_id": 45,
        "country_code": "CN",
        "country_name": "China",
        "latitude": "29.55208000",
        "longitude": "106.53814000",
        "timezone": null,
        "wikiDataId": "Q713343"
    },
    {
        "id": 19296,
        "name": "Badu",
        "state_id": 2248,
        "state_code": "FJ",
        "state_name": "Fujian",
        "country_id": 45,
        "country_code": "CN",
        "country_name": "China",
        "latitude": "26.81028000",
        "longitude": "119.56417000",
        "timezone": null,
        "wikiDataId": "Q625554"
    },
    {
        "id": 19301,
        "name": "Baiqi",
        "state_id": 2248,
        "state_code": "FJ",
        "state_name": "Fujian",
        "country_id": 45,
        "country_code": "CN",
        "country_name": "China",
        "latitude": "24.88244000",
        "longitude": "118.70869000",
        "timezone": null,
        "wikiDataId": "Q56062054"
    },
    {
        "id": 19310,
        "name": "Baiyun",
        "state_id": 2248,
        "state_code": "FJ",
        "state_name": "Fujian",
        "country_id": 45,
        "country_code": "CN",
        "country_name": "China",
        "latitude": "26.03648000",
        "longitude": "118.90622000",
        "timezone": null,
        "wikiDataId": "Q532981"
    },
    {
        "id": 19334,
        "name": "Beishancun",
        "state_id": 2248,
        "state_code": "FJ",
        "state_name": "Fujian",
        "country_id": 45,
        "country_code": "CN",
        "country_name": "China",
        "latitude": "26.43732000",
        "longitude": "119.63372000",
        "timezone": null,
        "wikiDataId": "Q814826"
    },
    {
        "id": 19371,
        "name": "Changqiao",
        "state_id": 2248,
        "state_code": "FJ",
        "state_name": "Fujian",
        "country_id": 45,
        "country_code": "CN",
        "country_name": "China",
        "latitude": "26.82139000",
        "longitude": "118.84361000",
        "timezone": null,
        "wikiDataId": "Q989898"
    },
    {
        "id": 19391,
        "name": "Chengmen",
        "state_id": 2248,
        "state_code": "FJ",
        "state_name": "Fujian",
        "country_id": 45,
        "country_code": "CN",
        "country_name": "China",
        "latitude": "25.99339000",
        "longitude": "119.36136000",
        "timezone": null,
        "wikiDataId": "Q1344805"
    },
    {
        "id": 19400,
        "name": "Chixi",
        "state_id": 2248,
        "state_code": "FJ",
        "state_name": "Fujian",
        "country_id": 45,
        "country_code": "CN",
        "country_name": "China",
        "latitude": "26.91111000",
        "longitude": "119.48306000",
        "timezone": null,
        "wikiDataId": "Q570829"
    },
    {
        "id": 19405,
        "name": "Chongru",
        "state_id": 2248,
        "state_code": "FJ",
        "state_name": "Fujian",
        "country_id": 45,
        "country_code": "CN",
        "country_name": "China",
        "latitude": "26.95111000",
        "longitude": "119.92528000",
        "timezone": null,
        "wikiDataId": "Q360870"
    },
    {
        "id": 19414,
        "name": "Dadeng",
        "state_id": 2248,
        "state_code": "FJ",
        "state_name": "Fujian",
        "country_id": 45,
        "country_code": "CN",
        "country_name": "China",
        "latitude": "24.54386000",
        "longitude": "118.32753000",
        "timezone": null,
        "wikiDataId": "Q114045"
    },
    {
        "id": 19417,
        "name": "Daixi",
        "state_id": 2248,
        "state_code": "FJ",
        "state_name": "Fujian",
        "country_id": 45,
        "country_code": "CN",
        "country_name": "China",
        "latitude": "26.81250000",
        "longitude": "119.11417000",
        "timezone": null,
        "wikiDataId": "Q114045"
    },
    {
        "id": 19427,
        "name": "Danyang",
        "state_id": 2248,
        "state_code": "FJ",
        "state_name": "Fujian",
        "country_id": 45,
        "country_code": "CN",
        "country_name": "China",
        "latitude": "26.35102000",
        "longitude": "119.48030000",
        "timezone": null,
        "wikiDataId": "Q75110"
    },
    {
        "id": 19429,
        "name": "Daqiao",
        "state_id": 2248,
        "state_code": "FJ",
        "state_name": "Fujian",
        "country_id": 45,
        "country_code": "CN",
        "country_name": "China",
        "latitude": "26.61500000",
        "longitude": "118.90639000",
        "timezone": null,
        "wikiDataId": "Q75110"
    },
    {
        "id": 19444,
        "name": "Dazuo",
        "state_id": 2248,
        "state_code": "FJ",
        "state_name": "Fujian",
        "country_id": 45,
        "country_code": "CN",
        "country_name": "China",
        "latitude": "24.88616000",
        "longitude": "118.96433000",
        "timezone": null,
        "wikiDataId": "Q427488"
    },
    {
        "id": 19457,
        "name": "Dinghaicun",
        "state_id": 2248,
        "state_code": "FJ",
        "state_name": "Fujian",
        "country_id": 45,
        "country_code": "CN",
        "country_name": "China",
        "latitude": "26.28022000",
        "longitude": "119.78964000",
        "timezone": null,
        "wikiDataId": "Q162880"
    },
    {
        "id": 19459,
        "name": "Dingtoucun",
        "state_id": 2248,
        "state_code": "FJ",
        "state_name": "Fujian",
        "country_id": 45,
        "country_code": "CN",
        "country_name": "China",
        "latitude": "26.83977000",
        "longitude": "119.66111000",
        "timezone": null,
        "wikiDataId": "Q162880"
    },
    {
        "id": 19462,
        "name": "Dongchongcun",
        "state_id": 2248,
        "state_code": "FJ",
        "state_name": "Fujian",
        "country_id": 45,
        "country_code": "CN",
        "country_name": "China",
        "latitude": "26.54001000",
        "longitude": "119.83257000",
        "timezone": null,
        "wikiDataId": "Q645183"
    },
    {
        "id": 19464,
        "name": "Dongdai",
        "state_id": 2248,
        "state_code": "FJ",
        "state_name": "Fujian",
        "country_id": 45,
        "country_code": "CN",
        "country_name": "China",
        "latitude": "26.24366000",
        "longitude": "119.61566000",
        "timezone": null,
        "wikiDataId": "Q1337641"
    },
    {
        "id": 19469,
        "name": "Donghu",
        "state_id": 2248,
        "state_code": "FJ",
        "state_name": "Fujian",
        "country_id": 45,
        "country_code": "CN",
        "country_name": "China",
        "latitude": "26.23453000",
        "longitude": "119.51430000",
        "timezone": null,
        "wikiDataId": "Q1025345"
    },
    {
        "id": 19471,
        "name": "Dongling",
        "state_id": 2248,
        "state_code": "FJ",
        "state_name": "Fujian",
        "country_id": 45,
        "country_code": "CN",
        "country_name": "China",
        "latitude": "24.98271000",
        "longitude": "118.89790000",
        "timezone": null,
        "wikiDataId": "Q1025345"
    },
    {
        "id": 19482,
        "name": "Dongyuan",
        "state_id": 2248,
        "state_code": "FJ",
        "state_name": "Fujian",
        "country_id": 45,
        "country_code": "CN",
        "country_name": "China",
        "latitude": "24.91738000",
        "longitude": "118.75236000",
        "timezone": null,
        "wikiDataId": "Q1023774"
    },
    {
        "id": 19502,
        "name": "Feiluan",
        "state_id": 2248,
        "state_code": "FJ",
        "state_name": "Fujian",
        "country_id": 45,
        "country_code": "CN",
        "country_name": "China",
        "latitude": "26.56250000",
        "longitude": "119.59750000",
        "timezone": null,
        "wikiDataId": "Q1198379"
    },
    {
        "id": 19508,
        "name": "Fengpu",
        "state_id": 2248,
        "state_code": "FJ",
        "state_name": "Fujian",
        "country_id": 45,
        "country_code": "CN",
        "country_name": "China",
        "latitude": "26.68276000",
        "longitude": "118.76006000",
        "timezone": null,
        "wikiDataId": "Q1362431"
    },
    {
        "id": 19512,
        "name": "Fengzhou",
        "state_id": 2248,
        "state_code": "FJ",
        "state_name": "Fujian",
        "country_id": 45,
        "country_code": "CN",
        "country_name": "China",
        "latitude": "24.95762000",
        "longitude": "118.53365000",
        "timezone": null,
        "wikiDataId": "Q1362431"
    },
    {
        "id": 19532,
        "name": "Fu’an",
        "state_id": 2248,
        "state_code": "FJ",
        "state_name": "Fujian",
        "country_id": 45,
        "country_code": "CN",
        "country_name": "China",
        "latitude": "27.06372000",
        "longitude": "119.65280000",
        "timezone": null,
        "wikiDataId": "Q1374581"
    },
    {
        "id": 19517,
        "name": "Fuding",
        "state_id": 2248,
        "state_code": "FJ",
        "state_name": "Fujian",
        "country_id": 45,
        "country_code": "CN",
        "country_name": "China",
        "latitude": "27.32734000",
        "longitude": "120.21399000",
        "timezone": null,
        "wikiDataId": "Q34412"
    },
    {
        "id": 19522,
        "name": "Fuqing",
        "state_id": 2248,
        "state_code": "FJ",
        "state_name": "Fujian",
        "country_id": 45,
        "country_code": "CN",
        "country_name": "China",
        "latitude": "25.72500000",
        "longitude": "119.37944000",
        "timezone": null,
        "wikiDataId": "Q262208"
    },
    {
        "id": 19531,
        "name": "Fuzhou",
        "state_id": 2248,
        "state_code": "FJ",
        "state_name": "Fujian",
        "country_id": 45,
        "country_code": "CN",
        "country_name": "China",
        "latitude": "26.06139000",
        "longitude": "119.30611000",
        "timezone": null,
        "wikiDataId": "Q68481"
    },
    {
        "id": 19537,
        "name": "Gantang",
        "state_id": 2248,
        "state_code": "FJ",
        "state_name": "Fujian",
        "country_id": 45,
        "country_code": "CN",
        "country_name": "China",
        "latitude": "26.92000000",
        "longitude": "119.63333000",
        "timezone": null,
        "wikiDataId": "Q1331447"
    },
    {
        "id": 19566,
        "name": "Guantou",
        "state_id": 2248,
        "state_code": "FJ",
        "state_name": "Fujian",
        "country_id": 45,
        "country_code": "CN",
        "country_name": "China",
        "latitude": "26.13593000",
        "longitude": "119.56162000",
        "timezone": null,
        "wikiDataId": "Q1025444"
    },
    {
        "id": 19568,
        "name": "Gufeng",
        "state_id": 2248,
        "state_code": "FJ",
        "state_name": "Fujian",
        "country_id": 45,
        "country_code": "CN",
        "country_name": "China",
        "latitude": "26.90833000",
        "longitude": "118.98194000",
        "timezone": null,
        "wikiDataId": "Q1025444"
    },
    {
        "id": 19618,
        "name": "Hetang",
        "state_id": 2248,
        "state_code": "FJ",
        "state_name": "Fujian",
        "country_id": 45,
        "country_code": "CN",
        "country_name": "China",
        "latitude": "26.66276000",
        "longitude": "119.11062000",
        "timezone": null,
        "wikiDataId": "Q144663"
    },
    {
        "id": 19628,
        "name": "Hongtang",
        "state_id": 2248,
        "state_code": "FJ",
        "state_name": "Fujian",
        "country_id": 45,
        "country_code": "CN",
        "country_name": "China",
        "latitude": "26.07056000",
        "longitude": "119.23083000",
        "timezone": null,
        "wikiDataId": "Q762724"
    },
    {
        "id": 19629,
        "name": "Hongyang",
        "state_id": 2248,
        "state_code": "FJ",
        "state_name": "Fujian",
        "country_id": 45,
        "country_code": "CN",
        "country_name": "China",
        "latitude": "26.52861000",
        "longitude": "119.46250000",
        "timezone": null,
        "wikiDataId": "Q762724"
    },
    {
        "id": 19632,
        "name": "Houyu",
        "state_id": 2248,
        "state_code": "FJ",
        "state_name": "Fujian",
        "country_id": 45,
        "country_code": "CN",
        "country_name": "China",
        "latitude": "26.05958000",
        "longitude": "119.53502000",
        "timezone": null,
        "wikiDataId": "Q235389"
    },
    {
        "id": 19643,
        "name": "Huai’an",
        "state_id": 2248,
        "state_code": "FJ",
        "state_name": "Fujian",
        "country_id": 45,
        "country_code": "CN",
        "country_name": "China",
        "latitude": "26.09899000",
        "longitude": "119.22171000",
        "timezone": null,
        "wikiDataId": "Q360178"
    },
    {
        "id": 19659,
        "name": "Huangtian",
        "state_id": 2248,
        "state_code": "FJ",
        "state_name": "Fujian",
        "country_id": 45,
        "country_code": "CN",
        "country_name": "China",
        "latitude": "26.43851000",
        "longitude": "118.62398000",
        "timezone": null,
        "wikiDataId": "Q71204"
    },
    {
        "id": 19686,
        "name": "Huotong",
        "state_id": 2248,
        "state_code": "FJ",
        "state_name": "Fujian",
        "country_id": 45,
        "country_code": "CN",
        "country_name": "China",
        "latitude": "26.84972000",
        "longitude": "119.41806000",
        "timezone": null,
        "wikiDataId": "Q128674"
    },
    {
        "id": 19709,
        "name": "Jian’ou",
        "state_id": 2248,
        "state_code": "FJ",
        "state_name": "Fujian",
        "country_id": 45,
        "country_code": "CN",
        "country_name": "China",
        "latitude": "27.04694000",
        "longitude": "118.32528000",
        "timezone": null,
        "wikiDataId": "Q1374860"
    },
    {
        "id": 19697,
        "name": "Jiangkou",
        "state_id": 2248,
        "state_code": "FJ",
        "state_name": "Fujian",
        "country_id": 45,
        "country_code": "CN",
        "country_name": "China",
        "latitude": "25.48694000",
        "longitude": "119.19834000",
        "timezone": null,
        "wikiDataId": "Q774508"
    },
    {
        "id": 19706,
        "name": "Jianjiang",
        "state_id": 2248,
        "state_code": "FJ",
        "state_name": "Fujian",
        "country_id": 45,
        "country_code": "CN",
        "country_name": "China",
        "latitude": "26.54972000",
        "longitude": "119.75500000",
        "timezone": null,
        "wikiDataId": "Q1015823"
    },
    {
        "id": 19732,
        "name": "Jingfeng",
        "state_id": 2248,
        "state_code": "FJ",
        "state_name": "Fujian",
        "country_id": 45,
        "country_code": "CN",
        "country_name": "China",
        "latitude": "24.97441000",
        "longitude": "118.96486000",
        "timezone": null,
        "wikiDataId": "Q34405"
    },
    {
        "id": 19744,
        "name": "Jinjiang",
        "state_id": 2248,
        "state_code": "FJ",
        "state_name": "Fujian",
        "country_id": 45,
        "country_code": "CN",
        "country_name": "China",
        "latitude": "24.81978000",
        "longitude": "118.57415000",
        "timezone": null,
        "wikiDataId": "Q128883"
    },
    {
        "id": 19746,
        "name": "Jinjing",
        "state_id": 2248,
        "state_code": "FJ",
        "state_name": "Fujian",
        "country_id": 45,
        "country_code": "CN",
        "country_name": "China",
        "latitude": "24.57500000",
        "longitude": "118.59722000",
        "timezone": null,
        "wikiDataId": "Q128883"
    },
    {
        "id": 19755,
        "name": "Jitoucun",
        "state_id": 2248,
        "state_code": "FJ",
        "state_name": "Fujian",
        "country_id": 45,
        "country_code": "CN",
        "country_name": "China",
        "latitude": "26.47681000",
        "longitude": "119.60517000",
        "timezone": null,
        "wikiDataId": "Q28996"
    },
    {
        "id": 19777,
        "name": "Kengyuan",
        "state_id": 2248,
        "state_code": "FJ",
        "state_name": "Fujian",
        "country_id": 45,
        "country_code": "CN",
        "country_name": "China",
        "latitude": "26.33964000",
        "longitude": "119.76476000",
        "timezone": null,
        "wikiDataId": "Q739890"
    },
    {
        "id": 19778,
        "name": "Kerencun",
        "state_id": 2248,
        "state_code": "FJ",
        "state_name": "Fujian",
        "country_id": 45,
        "country_code": "CN",
        "country_name": "China",
        "latitude": "24.58213000",
        "longitude": "118.66046000",
        "timezone": null,
        "wikiDataId": "Q739890"
    },
    {
        "id": 19780,
        "name": "Kuai’an",
        "state_id": 2248,
        "state_code": "FJ",
        "state_name": "Fujian",
        "country_id": 45,
        "country_code": "CN",
        "country_name": "China",
        "latitude": "26.03417000",
        "longitude": "119.41639000",
        "timezone": null,
        "wikiDataId": "Q837425"
    },
    {
        "id": 19820,
        "name": "Lianhecun",
        "state_id": 2248,
        "state_code": "FJ",
        "state_name": "Fujian",
        "country_id": 45,
        "country_code": "CN",
        "country_name": "China",
        "latitude": "24.58932000",
        "longitude": "118.33903000",
        "timezone": null,
        "wikiDataId": "Q666884"
    },
    {
        "id": 19862,
        "name": "Liuwudiancun",
        "state_id": 2248,
        "state_code": "FJ",
        "state_name": "Fujian",
        "country_id": 45,
        "country_code": "CN",
        "country_name": "China",
        "latitude": "24.56923000",
        "longitude": "118.19064000",
        "timezone": null,
        "wikiDataId": "Q485918"
    },
    {
        "id": 19870,
        "name": "Longmen",
        "state_id": 2248,
        "state_code": "FJ",
        "state_name": "Fujian",
        "country_id": 45,
        "country_code": "CN",
        "country_name": "China",
        "latitude": "24.95972000",
        "longitude": "118.08889000",
        "timezone": null,
        "wikiDataId": "Q713327"
    },
    {
        "id": 19875,
        "name": "Longyan",
        "state_id": 2248,
        "state_code": "FJ",
        "state_name": "Fujian",
        "country_id": 45,
        "country_code": "CN",
        "country_name": "China",
        "latitude": "25.10722000",
        "longitude": "117.02250000",
        "timezone": null,
        "wikiDataId": "Q68862"
    },
    {
        "id": 19886,
        "name": "Luoqiao",
        "state_id": 2248,
        "state_code": "FJ",
        "state_name": "Fujian",
        "country_id": 45,
        "country_code": "CN",
        "country_name": "China",
        "latitude": "26.47265000",
        "longitude": "119.00392000",
        "timezone": null,
        "wikiDataId": "Q404599"
    },
    {
        "id": 19890,
        "name": "Luoyang",
        "state_id": 2248,
        "state_code": "FJ",
        "state_name": "Fujian",
        "country_id": 45,
        "country_code": "CN",
        "country_name": "China",
        "latitude": "24.95938000",
        "longitude": "118.68300000",
        "timezone": null,
        "wikiDataId": "Q187136"
    },
    {
        "id": 19892,
        "name": "Luxia",
        "state_id": 2248,
        "state_code": "FJ",
        "state_name": "Fujian",
        "country_id": 45,
        "country_code": "CN",
        "country_name": "China",
        "latitude": "26.93000000",
        "longitude": "118.80722000",
        "timezone": null,
        "wikiDataId": "Q187136"
    },
    {
        "id": 19907,
        "name": "Maping",
        "state_id": 2248,
        "state_code": "FJ",
        "state_name": "Fujian",
        "country_id": 45,
        "country_code": "CN",
        "country_name": "China",
        "latitude": "24.68722000",
        "longitude": "118.55278000",
        "timezone": null,
        "wikiDataId": "Q38927"
    },
    {
        "id": 19911,
        "name": "Meipu",
        "state_id": 2248,
        "state_code": "FJ",
        "state_name": "Fujian",
        "country_id": 45,
        "country_code": "CN",
        "country_name": "China",
        "latitude": "26.21120000",
        "longitude": "118.89561000",
        "timezone": null,
        "wikiDataId": "Q971498"
    },
    {
        "id": 19924,
        "name": "Min’an",
        "state_id": 2248,
        "state_code": "FJ",
        "state_name": "Fujian",
        "country_id": 45,
        "country_code": "CN",
        "country_name": "China",
        "latitude": "26.04962000",
        "longitude": "119.49964000",
        "timezone": null,
        "wikiDataId": "Q1014635"
    },
    {
        "id": 19947,
        "name": "Nanping",
        "state_id": 2248,
        "state_code": "FJ",
        "state_name": "Fujian",
        "country_id": 45,
        "country_code": "CN",
        "country_name": "China",
        "latitude": "26.64500000",
        "longitude": "118.17361000",
        "timezone": null,
        "wikiDataId": "Q68534"
    },
    {
        "id": 19955,
        "name": "Neikeng",
        "state_id": 2248,
        "state_code": "FJ",
        "state_name": "Fujian",
        "country_id": 45,
        "country_code": "CN",
        "country_name": "China",
        "latitude": "24.78544000",
        "longitude": "118.46037000",
        "timezone": null,
        "wikiDataId": "Q426756"
    },
    {
        "id": 19960,
        "name": "Ningde",
        "state_id": 2248,
        "state_code": "FJ",
        "state_name": "Fujian",
        "country_id": 45,
        "country_code": "CN",
        "country_name": "China",
        "latitude": "26.66167000",
        "longitude": "119.52278000",
        "timezone": null,
        "wikiDataId": "Q42780"
    },
    {
        "id": 19971,
        "name": "Pandu",
        "state_id": 2248,
        "state_code": "FJ",
        "state_name": "Fujian",
        "country_id": 45,
        "country_code": "CN",
        "country_name": "China",
        "latitude": "26.23639000",
        "longitude": "119.45026000",
        "timezone": null,
        "wikiDataId": "Q570937"
    },
    {
        "id": 19990,
        "name": "Pucheng",
        "state_id": 2248,
        "state_code": "FJ",
        "state_name": "Fujian",
        "country_id": 45,
        "country_code": "CN",
        "country_name": "China",
        "latitude": "27.92333000",
        "longitude": "118.53333000",
        "timezone": null,
        "wikiDataId": "Q416748"
    },
    {
        "id": 19998,
        "name": "Putian",
        "state_id": 2248,
        "state_code": "FJ",
        "state_name": "Fujian",
        "country_id": 45,
        "country_code": "CN",
        "country_name": "China",
        "latitude": "25.43944000",
        "longitude": "119.01028000",
        "timezone": null,
        "wikiDataId": "Q68579"
    },
    {
        "id": 20012,
        "name": "Qibu",
        "state_id": 2248,
        "state_code": "FJ",
        "state_name": "Fujian",
        "country_id": 45,
        "country_code": "CN",
        "country_name": "China",
        "latitude": "26.50750000",
        "longitude": "119.54500000",
        "timezone": null,
        "wikiDataId": "Q1344702"
    },
    {
        "id": 20013,
        "name": "Qidu",
        "state_id": 2248,
        "state_code": "FJ",
        "state_name": "Fujian",
        "country_id": 45,
        "country_code": "CN",
        "country_name": "China",
        "latitude": "26.76528000",
        "longitude": "119.54722000",
        "timezone": null,
        "wikiDataId": "Q1344702"
    },
    {
        "id": 20036,
        "name": "Quanzhou",
        "state_id": 2248,
        "state_code": "FJ",
        "state_name": "Fujian",
        "country_id": 45,
        "country_code": "CN",
        "country_name": "China",
        "latitude": "24.91389000",
        "longitude": "118.58583000",
        "timezone": null,
        "wikiDataId": "Q68695"
    },
    {
        "id": 20043,
        "name": "Rong’an",
        "state_id": 2248,
        "state_code": "FJ",
        "state_name": "Fujian",
        "country_id": 45,
        "country_code": "CN",
        "country_name": "China",
        "latitude": "26.12472000",
        "longitude": "119.12139000",
        "timezone": null,
        "wikiDataId": "Q425804"
    },
    {
        "id": 20055,
        "name": "Sanming",
        "state_id": 2248,
        "state_code": "FJ",
        "state_name": "Fujian",
        "country_id": 45,
        "country_code": "CN",
        "country_name": "China",
        "latitude": "26.24861000",
        "longitude": "117.61861000",
        "timezone": null,
        "wikiDataId": "Q68614"
    },
    {
        "id": 20061,
        "name": "Shajiang",
        "state_id": 2248,
        "state_code": "FJ",
        "state_name": "Fujian",
        "country_id": 45,
        "country_code": "CN",
        "country_name": "China",
        "latitude": "26.78250000",
        "longitude": "119.96694000",
        "timezone": null,
        "wikiDataId": "Q319804"
    },
    {
        "id": 20064,
        "name": "Shangjie",
        "state_id": 2248,
        "state_code": "FJ",
        "state_name": "Fujian",
        "country_id": 45,
        "country_code": "CN",
        "country_name": "China",
        "latitude": "26.08679000",
        "longitude": "119.18494000",
        "timezone": null,
        "wikiDataId": "Q8686"
    },
    {
        "id": 20078,
        "name": "Shanxia",
        "state_id": 2248,
        "state_code": "FJ",
        "state_name": "Fujian",
        "country_id": 45,
        "country_code": "CN",
        "country_name": "China",
        "latitude": "24.93802000",
        "longitude": "118.88170000",
        "timezone": null,
        "wikiDataId": "Q777171"
    },
    {
        "id": 20079,
        "name": "Shanyang",
        "state_id": 2248,
        "state_code": "FJ",
        "state_name": "Fujian",
        "country_id": 45,
        "country_code": "CN",
        "country_name": "China",
        "latitude": "26.67019000",
        "longitude": "119.20509000",
        "timezone": null,
        "wikiDataId": "Q777171"
    },
    {
        "id": 20081,
        "name": "Shaowu",
        "state_id": 2248,
        "state_code": "FJ",
        "state_name": "Fujian",
        "country_id": 45,
        "country_code": "CN",
        "country_name": "China",
        "latitude": "27.34089000",
        "longitude": "117.48310000",
        "timezone": null,
        "wikiDataId": "Q777171"
    },
    {
        "id": 20098,
        "name": "Shijing",
        "state_id": 2248,
        "state_code": "FJ",
        "state_name": "Fujian",
        "country_id": 45,
        "country_code": "CN",
        "country_name": "China",
        "latitude": "24.61956000",
        "longitude": "118.42437000",
        "timezone": null,
        "wikiDataId": "Q58401"
    },
    {
        "id": 20102,
        "name": "Shima",
        "state_id": 2248,
        "state_code": "FJ",
        "state_name": "Fujian",
        "country_id": 45,
        "country_code": "CN",
        "country_name": "China",
        "latitude": "24.44647000",
        "longitude": "117.81216000",
        "timezone": null,
        "wikiDataId": "Q1025428"
    },
    {
        "id": 20113,
        "name": "Shoushan",
        "state_id": 2248,
        "state_code": "FJ",
        "state_name": "Fujian",
        "country_id": 45,
        "country_code": "CN",
        "country_name": "China",
        "latitude": "26.96444000",
        "longitude": "119.16167000",
        "timezone": null,
        "wikiDataId": "Q1357984"
    },
    {
        "id": 20118,
        "name": "Shuangxi",
        "state_id": 2248,
        "state_code": "FJ",
        "state_name": "Fujian",
        "country_id": 45,
        "country_code": "CN",
        "country_name": "China",
        "latitude": "27.02248000",
        "longitude": "119.04140000",
        "timezone": null,
        "wikiDataId": "Q1359879"
    },
    {
        "id": 20121,
        "name": "Shuangzhu",
        "state_id": 2248,
        "state_code": "FJ",
        "state_name": "Fujian",
        "country_id": 45,
        "country_code": "CN",
        "country_name": "China",
        "latitude": "26.63114000",
        "longitude": "118.64570000",
        "timezone": null,
        "wikiDataId": "Q349973"
    },
    {
        "id": 20124,
        "name": "Shuikou",
        "state_id": 2248,
        "state_code": "FJ",
        "state_name": "Fujian",
        "country_id": 45,
        "country_code": "CN",
        "country_name": "China",
        "latitude": "26.38360000",
        "longitude": "118.73027000",
        "timezone": null,
        "wikiDataId": "Q349973"
    },
    {
        "id": 20169,
        "name": "Tangkou",
        "state_id": 2248,
        "state_code": "FJ",
        "state_name": "Fujian",
        "country_id": 45,
        "country_code": "CN",
        "country_name": "China",
        "latitude": "26.95417000",
        "longitude": "119.01278000",
        "timezone": null,
        "wikiDataId": "Q1359226"
    },
    {
        "id": 20174,
        "name": "Tantou",
        "state_id": 2248,
        "state_code": "FJ",
        "state_name": "Fujian",
        "country_id": 45,
        "country_code": "CN",
        "country_name": "China",
        "latitude": "26.03033000",
        "longitude": "119.59739000",
        "timezone": null,
        "wikiDataId": "Q58422"
    },
    {
        "id": 20177,
        "name": "Tatou",
        "state_id": 2248,
        "state_code": "FJ",
        "state_name": "Fujian",
        "country_id": 45,
        "country_code": "CN",
        "country_name": "China",
        "latitude": "24.61732000",
        "longitude": "118.52672000",
        "timezone": null,
        "wikiDataId": "Q58422"
    },
    {
        "id": 20186,
        "name": "Tingjiang",
        "state_id": 2248,
        "state_code": "FJ",
        "state_name": "Fujian",
        "country_id": 45,
        "country_code": "CN",
        "country_name": "China",
        "latitude": "26.07401000",
        "longitude": "119.50574000",
        "timezone": null,
        "wikiDataId": "Q75268"
    },
    {
        "id": 20202,
        "name": "Tuzhai",
        "state_id": 2248,
        "state_code": "FJ",
        "state_name": "Fujian",
        "country_id": 45,
        "country_code": "CN",
        "country_name": "China",
        "latitude": "24.98301000",
        "longitude": "118.83194000",
        "timezone": null,
        "wikiDataId": "Q868527"
    },
    {
        "id": 20227,
        "name": "Wubao",
        "state_id": 2248,
        "state_code": "FJ",
        "state_name": "Fujian",
        "country_id": 45,
        "country_code": "CN",
        "country_name": "China",
        "latitude": "24.59589000",
        "longitude": "118.55359000",
        "timezone": null,
        "wikiDataId": "Q42635"
    },
    {
        "id": 20243,
        "name": "Wuyishan",
        "state_id": 2248,
        "state_code": "FJ",
        "state_name": "Fujian",
        "country_id": 45,
        "country_code": "CN",
        "country_name": "China",
        "latitude": "27.75995000",
        "longitude": "118.03066000",
        "timezone": null,
        "wikiDataId": "Q94945"
    },
    {
        "id": 20244,
        "name": "Wuyucun",
        "state_id": 2248,
        "state_code": "FJ",
        "state_name": "Fujian",
        "country_id": 45,
        "country_code": "CN",
        "country_name": "China",
        "latitude": "24.33551000",
        "longitude": "118.14489000",
        "timezone": null,
        "wikiDataId": "Q94945"
    },
    {
        "id": 20248,
        "name": "Xiabaishi",
        "state_id": 2248,
        "state_code": "FJ",
        "state_name": "Fujian",
        "country_id": 45,
        "country_code": "CN",
        "country_name": "China",
        "latitude": "26.81528000",
        "longitude": "119.67917000",
        "timezone": null,
        "wikiDataId": "Q571652"
    },
    {
        "id": 20249,
        "name": "Xiahu",
        "state_id": 2248,
        "state_code": "FJ",
        "state_name": "Fujian",
        "country_id": 45,
        "country_code": "CN",
        "country_name": "China",
        "latitude": "26.61056000",
        "longitude": "119.94833000",
        "timezone": null,
        "wikiDataId": "Q571652"
    },
    {
        "id": 20252,
        "name": "Xiamen",
        "state_id": 2248,
        "state_code": "FJ",
        "state_name": "Fujian",
        "country_id": 45,
        "country_code": "CN",
        "country_name": "China",
        "latitude": "24.47979000",
        "longitude": "118.08187000",
        "timezone": null,
        "wikiDataId": "Q68744"
    },
    {
        "id": 20253,
        "name": "Xiancun",
        "state_id": 2248,
        "state_code": "FJ",
        "state_name": "Fujian",
        "country_id": 45,
        "country_code": "CN",
        "country_name": "China",
        "latitude": "26.93861000",
        "longitude": "119.36028000",
        "timezone": null,
        "wikiDataId": "Q68744"
    },
    {
        "id": 20259,
        "name": "Xiangyun",
        "state_id": 2248,
        "state_code": "FJ",
        "state_name": "Fujian",
        "country_id": 45,
        "country_code": "CN",
        "country_name": "China",
        "latitude": "24.97111000",
        "longitude": "118.16028000",
        "timezone": null,
        "wikiDataId": "Q71284"
    },
    {
        "id": 20279,
        "name": "Xibing",
        "state_id": 2248,
        "state_code": "FJ",
        "state_name": "Fujian",
        "country_id": 45,
        "country_code": "CN",
        "country_name": "China",
        "latitude": "26.98139000",
        "longitude": "119.72472000",
        "timezone": null,
        "wikiDataId": "Q71339"
    },
    {
        "id": 20286,
        "name": "Xiling",
        "state_id": 2248,
        "state_code": "FJ",
        "state_name": "Fujian",
        "country_id": 45,
        "country_code": "CN",
        "country_name": "China",
        "latitude": "26.81444000",
        "longitude": "119.04722000",
        "timezone": null,
        "wikiDataId": "Q1009416"
    },
    {
        "id": 20287,
        "name": "Ximei",
        "state_id": 2248,
        "state_code": "FJ",
        "state_name": "Fujian",
        "country_id": 45,
        "country_code": "CN",
        "country_name": "China",
        "latitude": "24.98773000",
        "longitude": "118.38580000",
        "timezone": null,
        "wikiDataId": "Q1209464"
    },
    {
        "id": 20288,
        "name": "Xinan",
        "state_id": 2248,
        "state_code": "FJ",
        "state_name": "Fujian",
        "country_id": 45,
        "country_code": "CN",
        "country_name": "China",
        "latitude": "26.72000000",
        "longitude": "119.85556000",
        "timezone": null,
        "wikiDataId": "Q1209464"
    },
    {
        "id": 20292,
        "name": "Xindian",
        "state_id": 2248,
        "state_code": "FJ",
        "state_name": "Fujian",
        "country_id": 45,
        "country_code": "CN",
        "country_name": "China",
        "latitude": "24.61006000",
        "longitude": "118.24068000",
        "timezone": null,
        "wikiDataId": "Q1209464"
    },
    {
        "id": 20337,
        "name": "Yakou",
        "state_id": 2248,
        "state_code": "FJ",
        "state_name": "Fujian",
        "country_id": 45,
        "country_code": "CN",
        "country_name": "China",
        "latitude": "24.67194000",
        "longitude": "118.63722000",
        "timezone": null,
        "wikiDataId": "Q1010264"
    },
    {
        "id": 20343,
        "name": "Yanghou",
        "state_id": 2248,
        "state_code": "FJ",
        "state_name": "Fujian",
        "country_id": 45,
        "country_code": "CN",
        "country_name": "China",
        "latitude": "26.64083000",
        "longitude": "118.50806000",
        "timezone": null,
        "wikiDataId": "Q1023923"
    },
    {
        "id": 20348,
        "name": "Yangzhong",
        "state_id": 2248,
        "state_code": "FJ",
        "state_name": "Fujian",
        "country_id": 45,
        "country_code": "CN",
        "country_name": "China",
        "latitude": "26.70556000",
        "longitude": "119.37444000",
        "timezone": null,
        "wikiDataId": "Q72907"
    },
    {
        "id": 20357,
        "name": "Yantian",
        "state_id": 2248,
        "state_code": "FJ",
        "state_name": "Fujian",
        "country_id": 45,
        "country_code": "CN",
        "country_name": "China",
        "latitude": "26.85333000",
        "longitude": "119.85750000",
        "timezone": null,
        "wikiDataId": "Q210493"
    },
    {
        "id": 20377,
        "name": "Yingdu",
        "state_id": 2248,
        "state_code": "FJ",
        "state_name": "Fujian",
        "country_id": 45,
        "country_code": "CN",
        "country_name": "China",
        "latitude": "24.97167000",
        "longitude": "118.24417000",
        "timezone": null,
        "wikiDataId": "Q1344848"
    },
    {
        "id": 20379,
        "name": "Yinglin",
        "state_id": 2248,
        "state_code": "FJ",
        "state_name": "Fujian",
        "country_id": 45,
        "country_code": "CN",
        "country_name": "China",
        "latitude": "24.63222000",
        "longitude": "118.58056000",
        "timezone": null,
        "wikiDataId": "Q75150"
    },
    {
        "id": 20387,
        "name": "Yongning",
        "state_id": 2248,
        "state_code": "FJ",
        "state_name": "Fujian",
        "country_id": 45,
        "country_code": "CN",
        "country_name": "China",
        "latitude": "24.68000000",
        "longitude": "118.69000000",
        "timezone": null,
        "wikiDataId": "Q1011138"
    },
    {
        "id": 20404,
        "name": "Yushan",
        "state_id": 2248,
        "state_code": "FJ",
        "state_name": "Fujian",
        "country_id": 45,
        "country_code": "CN",
        "country_name": "China",
        "latitude": "26.90863000",
        "longitude": "118.56713000",
        "timezone": null,
        "wikiDataId": "Q59233"
    },
    {
        "id": 20425,
        "name": "Zhangwan",
        "state_id": 2248,
        "state_code": "FJ",
        "state_name": "Fujian",
        "country_id": 45,
        "country_code": "CN",
        "country_name": "China",
        "latitude": "26.71139000",
        "longitude": "119.59194000",
        "timezone": null,
        "wikiDataId": "Q58650"
    },
    {
        "id": 20428,
        "name": "Zhangzhou",
        "state_id": 2248,
        "state_code": "FJ",
        "state_name": "Fujian",
        "country_id": 45,
        "country_code": "CN",
        "country_name": "China",
        "latitude": "24.51333000",
        "longitude": "117.65556000",
        "timezone": null,
        "wikiDataId": "Q68814"
    },
    {
        "id": 20440,
        "name": "Zhenhaicun",
        "state_id": 2248,
        "state_code": "FJ",
        "state_name": "Fujian",
        "country_id": 45,
        "country_code": "CN",
        "country_name": "China",
        "latitude": "24.25894000",
        "longitude": "118.09186000",
        "timezone": null,
        "wikiDataId": "Q30340"
    },
    {
        "id": 20450,
        "name": "Zhongfang",
        "state_id": 2248,
        "state_code": "FJ",
        "state_name": "Fujian",
        "country_id": 45,
        "country_code": "CN",
        "country_name": "China",
        "latitude": "26.60083000",
        "longitude": "119.42583000",
        "timezone": null,
        "wikiDataId": "Q1359300"
    },
    {
        "id": 20472,
        "name": "Zhuoyang",
        "state_id": 2248,
        "state_code": "FJ",
        "state_name": "Fujian",
        "country_id": 45,
        "country_code": "CN",
        "country_name": "China",
        "latitude": "26.63003000",
        "longitude": "119.02150000",
        "timezone": null,
        "wikiDataId": "Q198240"
    },
    {
        "id": 20473,
        "name": "Zhuqi",
        "state_id": 2248,
        "state_code": "FJ",
        "state_name": "Fujian",
        "country_id": 45,
        "country_code": "CN",
        "country_name": "China",
        "latitude": "26.14860000",
        "longitude": "119.10216000",
        "timezone": null,
        "wikiDataId": "Q198240"
    },
    {
        "id": 19309,
        "name": "Baiyin",
        "state_id": 2275,
        "state_code": "GS",
        "state_name": "Gansu",
        "country_id": 45,
        "country_code": "CN",
        "country_name": "China",
        "latitude": "36.54696000",
        "longitude": "104.17023000",
        "timezone": null,
        "wikiDataId": "Q532981"
    },
    {
        "id": 19330,
        "name": "Beidao",
        "state_id": 2275,
        "state_code": "GS",
        "state_name": "Gansu",
        "country_id": 45,
        "country_code": "CN",
        "country_name": "China",
        "latitude": "34.56861000",
        "longitude": "105.89333000",
        "timezone": null,
        "wikiDataId": "Q1341574"
    },
    {
        "id": 19460,
        "name": "Dingxi Shi",
        "state_id": 2275,
        "state_code": "GS",
        "state_name": "Gansu",
        "country_id": 45,
        "country_code": "CN",
        "country_name": "China",
        "latitude": "35.03710000",
        "longitude": "104.38623000",
        "timezone": null,
        "wikiDataId": "Q186006"
    },
    {
        "id": 19622,
        "name": "Hezuo",
        "state_id": 2275,
        "state_code": "GS",
        "state_name": "Gansu",
        "country_id": 45,
        "country_code": "CN",
        "country_name": "China",
        "latitude": "34.98556000",
        "longitude": "102.90944000",
        "timezone": null,
        "wikiDataId": "Q1364651"
    },
    {
        "id": 19716,
        "name": "Jiayuguan",
        "state_id": 2275,
        "state_code": "GS",
        "state_name": "Gansu",
        "country_id": 45,
        "country_code": "CN",
        "country_name": "China",
        "latitude": "39.81121000",
        "longitude": "98.28618000",
        "timezone": null,
        "wikiDataId": "Q532560"
    },
    {
        "id": 19728,
        "name": "Jinchang",
        "state_id": 2275,
        "state_code": "GS",
        "state_name": "Gansu",
        "country_id": 45,
        "country_code": "CN",
        "country_name": "China",
        "latitude": "38.50062000",
        "longitude": "102.19379000",
        "timezone": null,
        "wikiDataId": "Q532776"
    },
    {
        "id": 19758,
        "name": "Jiuquan",
        "state_id": 2275,
        "state_code": "GS",
        "state_name": "Gansu",
        "country_id": 45,
        "country_code": "CN",
        "country_name": "China",
        "latitude": "39.74318000",
        "longitude": "98.51736000",
        "timezone": null,
        "wikiDataId": "Q533432"
    },
    {
        "id": 19803,
        "name": "Lanzhou",
        "state_id": 2275,
        "state_code": "GS",
        "state_name": "Gansu",
        "country_id": 45,
        "country_code": "CN",
        "country_name": "China",
        "latitude": "36.05701000",
        "longitude": "103.83987000",
        "timezone": null,
        "wikiDataId": "Q183584"
    },
    {
        "id": 19806,
        "name": "Laojunmiao",
        "state_id": 2275,
        "state_code": "GS",
        "state_name": "Gansu",
        "country_id": 45,
        "country_code": "CN",
        "country_name": "China",
        "latitude": "39.83333000",
        "longitude": "97.73333000",
        "timezone": null,
        "wikiDataId": "Q1359204"
    },
    {
        "id": 19854,
        "name": "Linxia Chengguanzhen",
        "state_id": 2275,
        "state_code": "GS",
        "state_name": "Gansu",
        "country_id": 45,
        "country_code": "CN",
        "country_name": "China",
        "latitude": "35.60028000",
        "longitude": "103.20639000",
        "timezone": null,
        "wikiDataId": "Q653608"
    },
    {
        "id": 19855,
        "name": "Linxia Huizu Zizhizhou",
        "state_id": 2275,
        "state_code": "GS",
        "state_name": "Gansu",
        "country_id": 45,
        "country_code": "CN",
        "country_name": "China",
        "latitude": "35.66597000",
        "longitude": "103.24080000",
        "timezone": null,
        "wikiDataId": "Q1001396"
    },
    {
        "id": 19871,
        "name": "Longnan Shi",
        "state_id": 2275,
        "state_code": "GS",
        "state_name": "Gansu",
        "country_id": 45,
        "country_code": "CN",
        "country_name": "China",
        "latitude": "33.53451000",
        "longitude": "105.34947000",
        "timezone": null,
        "wikiDataId": "Q519810"
    },
    {
        "id": 19908,
        "name": "Mawu",
        "state_id": 2275,
        "state_code": "GS",
        "state_name": "Gansu",
        "country_id": 45,
        "country_code": "CN",
        "country_name": "China",
        "latitude": "34.42639000",
        "longitude": "104.91472000",
        "timezone": null,
        "wikiDataId": "Q38927"
    },
    {
        "id": 19980,
        "name": "Pingliang",
        "state_id": 2275,
        "state_code": "GS",
        "state_name": "Gansu",
        "country_id": 45,
        "country_code": "CN",
        "country_name": "China",
        "latitude": "35.53917000",
        "longitude": "106.68611000",
        "timezone": null,
        "wikiDataId": "Q533985"
    },
    {
        "id": 20015,
        "name": "Qincheng",
        "state_id": 2275,
        "state_code": "GS",
        "state_name": "Gansu",
        "country_id": 45,
        "country_code": "CN",
        "country_name": "China",
        "latitude": "34.58028000",
        "longitude": "105.72722000",
        "timezone": null,
        "wikiDataId": "Q533157"
    },
    {
        "id": 20026,
        "name": "Qingyang Shi",
        "state_id": 2275,
        "state_code": "GS",
        "state_name": "Gansu",
        "country_id": 45,
        "country_code": "CN",
        "country_name": "China",
        "latitude": "36.23598000",
        "longitude": "107.58113000",
        "timezone": null,
        "wikiDataId": "Q533764"
    },
    {
        "id": 20181,
        "name": "Tianshui",
        "state_id": 2275,
        "state_code": "GS",
        "state_name": "Gansu",
        "country_id": 45,
        "country_code": "CN",
        "country_name": "China",
        "latitude": "34.57952000",
        "longitude": "105.74238000",
        "timezone": null,
        "wikiDataId": "Q58422"
    },
    {
        "id": 20237,
        "name": "Wuwei",
        "state_id": 2275,
        "state_code": "GS",
        "state_name": "Gansu",
        "country_id": 45,
        "country_code": "CN",
        "country_name": "China",
        "latitude": "37.92672000",
        "longitude": "102.63202000",
        "timezone": null,
        "wikiDataId": "Q249007"
    },
    {
        "id": 20426,
        "name": "Zhangye",
        "state_id": 2275,
        "state_code": "GS",
        "state_name": "Gansu",
        "country_id": 45,
        "country_code": "CN",
        "country_name": "China",
        "latitude": "38.93417000",
        "longitude": "100.45167000",
        "timezone": null,
        "wikiDataId": "Q197402"
    },
    {
        "id": 20427,
        "name": "Zhangye Shi",
        "state_id": 2275,
        "state_code": "GS",
        "state_name": "Gansu",
        "country_id": 45,
        "country_code": "CN",
        "country_name": "China",
        "latitude": "39.12183000",
        "longitude": "99.92495000",
        "timezone": null,
        "wikiDataId": "Q197402"
    },
    {
        "id": 19278,
        "name": "Anbu",
        "state_id": 2279,
        "state_code": "GD",
        "state_name": "Guangdong",
        "country_id": 45,
        "country_code": "CN",
        "country_name": "China",
        "latitude": "23.44895000",
        "longitude": "116.68092000",
        "timezone": null,
        "wikiDataId": "Q776550"
    },
    {
        "id": 19383,
        "name": "Chaozhou",
        "state_id": 2279,
        "state_code": "GD",
        "state_name": "Guangdong",
        "country_id": 45,
        "country_code": "CN",
        "country_name": "China",
        "latitude": "23.65396000",
        "longitude": "116.62262000",
        "timezone": null,
        "wikiDataId": "Q59227"
    },
    {
        "id": 19389,
        "name": "Chenghua",
        "state_id": 2279,
        "state_code": "GD",
        "state_name": "Guangdong",
        "country_id": 45,
        "country_code": "CN",
        "country_name": "China",
        "latitude": "23.46132000",
        "longitude": "116.77007000",
        "timezone": null,
        "wikiDataId": "Q1207058"
    },
    {
        "id": 19422,
        "name": "Daliang",
        "state_id": 2279,
        "state_code": "GD",
        "state_name": "Guangdong",
        "country_id": 45,
        "country_code": "CN",
        "country_name": "China",
        "latitude": "22.84067000",
        "longitude": "113.25030000",
        "timezone": null,
        "wikiDataId": "Q74881"
    },
    {
        "id": 19426,
        "name": "Danshui",
        "state_id": 2279,
        "state_code": "GD",
        "state_name": "Guangdong",
        "country_id": 45,
        "country_code": "CN",
        "country_name": "China",
        "latitude": "22.79840000",
        "longitude": "114.46716000",
        "timezone": null,
        "wikiDataId": "Q75110"
    },
    {
        "id": 19432,
        "name": "Dasha",
        "state_id": 2279,
        "state_code": "GD",
        "state_name": "Guangdong",
        "country_id": 45,
        "country_code": "CN",
        "country_name": "China",
        "latitude": "23.11037000",
        "longitude": "113.44180000",
        "timezone": null,
        "wikiDataId": "Q304848"
    },
    {
        "id": 19467,
        "name": "Dongguan",
        "state_id": 2279,
        "state_code": "GD",
        "state_name": "Guangdong",
        "country_id": 45,
        "country_code": "CN",
        "country_name": "China",
        "latitude": "23.01797000",
        "longitude": "113.74866000",
        "timezone": null,
        "wikiDataId": "Q59218"
    },
    {
        "id": 19468,
        "name": "Donghai",
        "state_id": 2279,
        "state_code": "GD",
        "state_name": "Guangdong",
        "country_id": 45,
        "country_code": "CN",
        "country_name": "China",
        "latitude": "22.94593000",
        "longitude": "115.64204000",
        "timezone": null,
        "wikiDataId": "Q1025345"
    },
    {
        "id": 19483,
        "name": "Ducheng",
        "state_id": 2279,
        "state_code": "GD",
        "state_name": "Guangdong",
        "country_id": 45,
        "country_code": "CN",
        "country_name": "China",
        "latitude": "23.24212000",
        "longitude": "111.52840000",
        "timezone": null,
        "wikiDataId": "Q1023774"
    },
    {
        "id": 19490,
        "name": "Encheng",
        "state_id": 2279,
        "state_code": "GD",
        "state_name": "Guangdong",
        "country_id": 45,
        "country_code": "CN",
        "country_name": "China",
        "latitude": "22.18659000",
        "longitude": "112.30424000",
        "timezone": null,
        "wikiDataId": "Q1343673"
    },
    {
        "id": 19514,
        "name": "Foshan",
        "state_id": 2279,
        "state_code": "GD",
        "state_name": "Guangdong",
        "country_id": 45,
        "country_code": "CN",
        "country_name": "China",
        "latitude": "23.02677000",
        "longitude": "113.13148000",
        "timezone": null,
        "wikiDataId": "Q34412"
    },
    {
        "id": 19515,
        "name": "Foshan Shi",
        "state_id": 2279,
        "state_code": "GD",
        "state_name": "Guangdong",
        "country_id": 45,
        "country_code": "CN",
        "country_name": "China",
        "latitude": "23.02264000",
        "longitude": "112.96302000",
        "timezone": null,
        "wikiDataId": "Q34412"
    },
    {
        "id": 19546,
        "name": "Gaoyao",
        "state_id": 2279,
        "state_code": "GD",
        "state_name": "Guangdong",
        "country_id": 45,
        "country_code": "CN",
        "country_name": "China",
        "latitude": "23.02432000",
        "longitude": "112.44555000",
        "timezone": null,
        "wikiDataId": "Q1023913"
    },
    {
        "id": 19550,
        "name": "Gaozhou",
        "state_id": 2279,
        "state_code": "GD",
        "state_name": "Guangdong",
        "country_id": 45,
        "country_code": "CN",
        "country_name": "China",
        "latitude": "21.93924000",
        "longitude": "110.84607000",
        "timezone": null,
        "wikiDataId": "Q1209135"
    },
    {
        "id": 19562,
        "name": "Guangzhou",
        "state_id": 2279,
        "state_code": "GD",
        "state_name": "Guangdong",
        "country_id": 45,
        "country_code": "CN",
        "country_name": "China",
        "latitude": "23.11667000",
        "longitude": "113.25000000",
        "timezone": null,
        "wikiDataId": "Q16572"
    },
    {
        "id": 19563,
        "name": "Guangzhou Shi",
        "state_id": 2279,
        "state_code": "GD",
        "state_name": "Guangdong",
        "country_id": 45,
        "country_code": "CN",
        "country_name": "China",
        "latitude": "23.37327000",
        "longitude": "113.51219000",
        "timezone": null,
        "wikiDataId": "Q16572"
    },
    {
        "id": 19590,
        "name": "Haimen",
        "state_id": 2279,
        "state_code": "GD",
        "state_name": "Guangdong",
        "country_id": 45,
        "country_code": "CN",
        "country_name": "China",
        "latitude": "23.19346000",
        "longitude": "116.61219000",
        "timezone": null,
        "wikiDataId": "Q1278514"
    },
    {
        "id": 19617,
        "name": "Hepo",
        "state_id": 2279,
        "state_code": "GD",
        "state_name": "Guangdong",
        "country_id": 45,
        "country_code": "CN",
        "country_name": "China",
        "latitude": "23.43077000",
        "longitude": "115.82991000",
        "timezone": null,
        "wikiDataId": "Q144663"
    },
    {
        "id": 19620,
        "name": "Heyuan",
        "state_id": 2279,
        "state_code": "GD",
        "state_name": "Guangdong",
        "country_id": 45,
        "country_code": "CN",
        "country_name": "China",
        "latitude": "23.73333000",
        "longitude": "114.68333000",
        "timezone": null,
        "wikiDataId": "Q59205"
    },
    {
        "id": 19637,
        "name": "Huaicheng",
        "state_id": 2279,
        "state_code": "GD",
        "state_name": "Guangdong",
        "country_id": 45,
        "country_code": "CN",
        "country_name": "China",
        "latitude": "23.91952000",
        "longitude": "112.17629000",
        "timezone": null,
        "wikiDataId": "Q360268"
    },
    {
        "id": 19646,
        "name": "Huanggang",
        "state_id": 2279,
        "state_code": "GD",
        "state_name": "Guangdong",
        "country_id": 45,
        "country_code": "CN",
        "country_name": "China",
        "latitude": "23.67704000",
        "longitude": "116.99961000",
        "timezone": null,
        "wikiDataId": "Q360178"
    },
    {
        "id": 19669,
        "name": "Huazhou",
        "state_id": 2279,
        "state_code": "GD",
        "state_name": "Guangdong",
        "country_id": 45,
        "country_code": "CN",
        "country_name": "China",
        "latitude": "21.63333000",
        "longitude": "110.58333000",
        "timezone": null,
        "wikiDataId": "Q1374792"
    },
    {
        "id": 19672,
        "name": "Huicheng",
        "state_id": 2279,
        "state_code": "GD",
        "state_name": "Guangdong",
        "country_id": 45,
        "country_code": "CN",
        "country_name": "China",
        "latitude": "23.03845000",
        "longitude": "116.28988000",
        "timezone": null,
        "wikiDataId": "Q1198787"
    },
    {
        "id": 19675,
        "name": "Huizhou",
        "state_id": 2279,
        "state_code": "GD",
        "state_name": "Guangdong",
        "country_id": 45,
        "country_code": "CN",
        "country_name": "China",
        "latitude": "23.11147000",
        "longitude": "114.41523000",
        "timezone": null,
        "wikiDataId": "Q59173"
    },
    {
        "id": 19699,
        "name": "Jiangmen",
        "state_id": 2279,
        "state_code": "GD",
        "state_name": "Guangdong",
        "country_id": 45,
        "country_code": "CN",
        "country_name": "China",
        "latitude": "22.58333000",
        "longitude": "113.08333000",
        "timezone": null,
        "wikiDataId": "Q59132"
    },
    {
        "id": 19717,
        "name": "Jiazi",
        "state_id": 2279,
        "state_code": "GD",
        "state_name": "Guangdong",
        "country_id": 45,
        "country_code": "CN",
        "country_name": "China",
        "latitude": "22.87932000",
        "longitude": "116.07318000",
        "timezone": null,
        "wikiDataId": "Q532560"
    },
    {
        "id": 19720,
        "name": "Jieshi",
        "state_id": 2279,
        "state_code": "GD",
        "state_name": "Guangdong",
        "country_id": 45,
        "country_code": "CN",
        "country_name": "China",
        "latitude": "22.81027000",
        "longitude": "115.83058000",
        "timezone": null,
        "wikiDataId": "Q532560"
    },
    {
        "id": 19723,
        "name": "Jieyang",
        "state_id": 2279,
        "state_code": "GD",
        "state_name": "Guangdong",
        "country_id": 45,
        "country_code": "CN",
        "country_name": "China",
        "latitude": "23.54180000",
        "longitude": "116.36581000",
        "timezone": null,
        "wikiDataId": "Q26323"
    },
    {
        "id": 19807,
        "name": "Lecheng",
        "state_id": 2279,
        "state_code": "GD",
        "state_name": "Guangdong",
        "country_id": 45,
        "country_code": "CN",
        "country_name": "China",
        "latitude": "25.12800000",
        "longitude": "113.35041000",
        "timezone": null,
        "wikiDataId": "Q1023909"
    },
    {
        "id": 19821,
        "name": "Lianjiang",
        "state_id": 2279,
        "state_code": "GD",
        "state_name": "Guangdong",
        "country_id": 45,
        "country_code": "CN",
        "country_name": "China",
        "latitude": "21.64673000",
        "longitude": "110.28172000",
        "timezone": null,
        "wikiDataId": "Q1374728"
    },
    {
        "id": 19826,
        "name": "Lianzhou",
        "state_id": 2279,
        "state_code": "GD",
        "state_name": "Guangdong",
        "country_id": 45,
        "country_code": "CN",
        "country_name": "China",
        "latitude": "24.78186000",
        "longitude": "112.37120000",
        "timezone": null,
        "wikiDataId": "Q1023910"
    },
    {
        "id": 19833,
        "name": "Licheng",
        "state_id": 2279,
        "state_code": "GD",
        "state_name": "Guangdong",
        "country_id": 45,
        "country_code": "CN",
        "country_name": "China",
        "latitude": "23.29549000",
        "longitude": "113.82465000",
        "timezone": null,
        "wikiDataId": "Q1365505"
    },
    {
        "id": 19879,
        "name": "Lubu",
        "state_id": 2279,
        "state_code": "GD",
        "state_name": "Guangdong",
        "country_id": 45,
        "country_code": "CN",
        "country_name": "China",
        "latitude": "23.17233000",
        "longitude": "112.28298000",
        "timezone": null,
        "wikiDataId": "Q416988"
    },
    {
        "id": 19881,
        "name": "Luocheng",
        "state_id": 2279,
        "state_code": "GD",
        "state_name": "Guangdong",
        "country_id": 45,
        "country_code": "CN",
        "country_name": "China",
        "latitude": "22.76953000",
        "longitude": "111.56882000",
        "timezone": null,
        "wikiDataId": "Q1022980"
    },
    {
        "id": 19888,
        "name": "Luoyang",
        "state_id": 2279,
        "state_code": "GD",
        "state_name": "Guangdong",
        "country_id": 45,
        "country_code": "CN",
        "country_name": "China",
        "latitude": "23.16244000",
        "longitude": "114.27342000",
        "timezone": null,
        "wikiDataId": "Q404599"
    },
    {
        "id": 19898,
        "name": "Maba",
        "state_id": 2279,
        "state_code": "GD",
        "state_name": "Guangdong",
        "country_id": 45,
        "country_code": "CN",
        "country_name": "China",
        "latitude": "24.68413000",
        "longitude": "113.59839000",
        "timezone": null,
        "wikiDataId": "Q73186"
    },
    {
        "id": 19904,
        "name": "Maoming",
        "state_id": 2279,
        "state_code": "GD",
        "state_name": "Guangdong",
        "country_id": 45,
        "country_code": "CN",
        "country_name": "China",
        "latitude": "21.65000000",
        "longitude": "110.90000000",
        "timezone": null,
        "wikiDataId": "Q38927"
    },
    {
        "id": 19913,
        "name": "Meizhou",
        "state_id": 2279,
        "state_code": "GD",
        "state_name": "Guangdong",
        "country_id": 45,
        "country_code": "CN",
        "country_name": "China",
        "latitude": "24.28859000",
        "longitude": "116.11768000",
        "timezone": null,
        "wikiDataId": "Q59184"
    },
    {
        "id": 19939,
        "name": "Nanfeng",
        "state_id": 2279,
        "state_code": "GD",
        "state_name": "Guangdong",
        "country_id": 45,
        "country_code": "CN",
        "country_name": "China",
        "latitude": "23.72695000",
        "longitude": "111.79723000",
        "timezone": null,
        "wikiDataId": "Q426996"
    },
    {
        "id": 19982,
        "name": "Pingshan",
        "state_id": 2279,
        "state_code": "GD",
        "state_name": "Guangdong",
        "country_id": 45,
        "country_code": "CN",
        "country_name": "China",
        "latitude": "22.99376000",
        "longitude": "114.71311000",
        "timezone": null,
        "wikiDataId": "Q533985"
    },
    {
        "id": 19996,
        "name": "Puning",
        "state_id": 2279,
        "state_code": "GD",
        "state_name": "Guangdong",
        "country_id": 45,
        "country_code": "CN",
        "country_name": "China",
        "latitude": "23.31072000",
        "longitude": "116.16869000",
        "timezone": null,
        "wikiDataId": "Q1346536"
    },
    {
        "id": 20027,
        "name": "Qingyuan",
        "state_id": 2279,
        "state_code": "GD",
        "state_name": "Guangdong",
        "country_id": 45,
        "country_code": "CN",
        "country_name": "China",
        "latitude": "23.70000000",
        "longitude": "113.03333000",
        "timezone": null,
        "wikiDataId": "Q59213"
    },
    {
        "id": 20057,
        "name": "Sanshui",
        "state_id": 2279,
        "state_code": "GD",
        "state_name": "Guangdong",
        "country_id": 45,
        "country_code": "CN",
        "country_name": "China",
        "latitude": "23.15486000",
        "longitude": "112.89161000",
        "timezone": null,
        "wikiDataId": "Q68614"
    },
    {
        "id": 20076,
        "name": "Shantou",
        "state_id": 2279,
        "state_code": "GD",
        "state_name": "Guangdong",
        "country_id": 45,
        "country_code": "CN",
        "country_name": "China",
        "latitude": "23.36814000",
        "longitude": "116.71479000",
        "timezone": null,
        "wikiDataId": "Q777171"
    },
    {
        "id": 20077,
        "name": "Shanwei",
        "state_id": 2279,
        "state_code": "GD",
        "state_name": "Guangdong",
        "country_id": 45,
        "country_code": "CN",
        "country_name": "China",
        "latitude": "22.78199000",
        "longitude": "115.34750000",
        "timezone": null,
        "wikiDataId": "Q777171"
    },
    {
        "id": 20080,
        "name": "Shaoguan",
        "state_id": 2279,
        "state_code": "GD",
        "state_name": "Guangdong",
        "country_id": 45,
        "country_code": "CN",
        "country_name": "China",
        "latitude": "24.80000000",
        "longitude": "113.58333000",
        "timezone": null,
        "wikiDataId": "Q777171"
    },
    {
        "id": 20083,
        "name": "Shaping",
        "state_id": 2279,
        "state_code": "GD",
        "state_name": "Guangdong",
        "country_id": 45,
        "country_code": "CN",
        "country_name": "China",
        "latitude": "22.77019000",
        "longitude": "112.95776000",
        "timezone": null,
        "wikiDataId": "Q777171"
    },
    {
        "id": 20091,
        "name": "Shenzhen",
        "state_id": 2279,
        "state_code": "GD",
        "state_name": "Guangdong",
        "country_id": 45,
        "country_code": "CN",
        "country_name": "China",
        "latitude": "22.55653000",
        "longitude": "113.98590000",
        "timezone": null,
        "wikiDataId": "Q15174"
    },
    {
        "id": 20101,
        "name": "Shilong",
        "state_id": 2279,
        "state_code": "GD",
        "state_name": "Guangdong",
        "country_id": 45,
        "country_code": "CN",
        "country_name": "China",
        "latitude": "23.11444000",
        "longitude": "113.84722000",
        "timezone": null,
        "wikiDataId": "Q58401"
    },
    {
        "id": 20103,
        "name": "Shiqi",
        "state_id": 2279,
        "state_code": "GD",
        "state_name": "Guangdong",
        "country_id": 45,
        "country_code": "CN",
        "country_name": "China",
        "latitude": "22.51682000",
        "longitude": "113.38521000",
        "timezone": null,
        "wikiDataId": "Q1025428"
    },
    {
        "id": 20105,
        "name": "Shiqiao",
        "state_id": 2279,
        "state_code": "GD",
        "state_name": "Guangdong",
        "country_id": 45,
        "country_code": "CN",
        "country_name": "China",
        "latitude": "22.94640000",
        "longitude": "113.35769000",
        "timezone": null,
        "wikiDataId": "Q1025428"
    },
    {
        "id": 20107,
        "name": "Shiwan",
        "state_id": 2279,
        "state_code": "GD",
        "state_name": "Guangdong",
        "country_id": 45,
        "country_code": "CN",
        "country_name": "China",
        "latitude": "23.00107000",
        "longitude": "113.07700000",
        "timezone": null,
        "wikiDataId": "Q1025428"
    },
    {
        "id": 20108,
        "name": "Shixing",
        "state_id": 2279,
        "state_code": "GD",
        "state_name": "Guangdong",
        "country_id": 45,
        "country_code": "CN",
        "country_name": "China",
        "latitude": "24.94824000",
        "longitude": "114.06572000",
        "timezone": null,
        "wikiDataId": "Q1025428"
    },
    {
        "id": 20160,
        "name": "Taishan",
        "state_id": 2279,
        "state_code": "GD",
        "state_name": "Guangdong",
        "country_id": 45,
        "country_code": "CN",
        "country_name": "China",
        "latitude": "22.25135000",
        "longitude": "112.77990000",
        "timezone": null,
        "wikiDataId": "Q164904"
    },
    {
        "id": 20170,
        "name": "Tangping",
        "state_id": 2279,
        "state_code": "GD",
        "state_name": "Guangdong",
        "country_id": 45,
        "country_code": "CN",
        "country_name": "China",
        "latitude": "22.03177000",
        "longitude": "111.93537000",
        "timezone": null,
        "wikiDataId": "Q1359226"
    },
    {
        "id": 20230,
        "name": "Wuchuan",
        "state_id": 2279,
        "state_code": "GD",
        "state_name": "Guangdong",
        "country_id": 45,
        "country_code": "CN",
        "country_name": "China",
        "latitude": "21.45713000",
        "longitude": "110.76591000",
        "timezone": null,
        "wikiDataId": "Q690255"
    },
    {
        "id": 20296,
        "name": "Xingning",
        "state_id": 2279,
        "state_code": "GD",
        "state_name": "Guangdong",
        "country_id": 45,
        "country_code": "CN",
        "country_name": "China",
        "latitude": "24.14830000",
        "longitude": "115.72272000",
        "timezone": null,
        "wikiDataId": "Q1023920"
    },
    {
        "id": 20299,
        "name": "Xinhui",
        "state_id": 2279,
        "state_code": "GD",
        "state_name": "Guangdong",
        "country_id": 45,
        "country_code": "CN",
        "country_name": "China",
        "latitude": "22.45600000",
        "longitude": "113.04820000",
        "timezone": null,
        "wikiDataId": "Q1024662"
    },
    {
        "id": 20312,
        "name": "Xinyi",
        "state_id": 2279,
        "state_code": "GD",
        "state_name": "Guangdong",
        "country_id": 45,
        "country_code": "CN",
        "country_name": "China",
        "latitude": "22.37303000",
        "longitude": "110.94746000",
        "timezone": null,
        "wikiDataId": "Q1023896"
    },
    {
        "id": 20319,
        "name": "Xiongzhou",
        "state_id": 2279,
        "state_code": "GD",
        "state_name": "Guangdong",
        "country_id": 45,
        "country_code": "CN",
        "country_name": "China",
        "latitude": "25.11667000",
        "longitude": "114.30000000",
        "timezone": null,
        "wikiDataId": "Q934465"
    },
    {
        "id": 20333,
        "name": "Xucheng",
        "state_id": 2279,
        "state_code": "GD",
        "state_name": "Guangdong",
        "country_id": 45,
        "country_code": "CN",
        "country_name": "China",
        "latitude": "20.32917000",
        "longitude": "110.16712000",
        "timezone": null,
        "wikiDataId": "Q404529"
    },
    {
        "id": 20341,
        "name": "Yangchun",
        "state_id": 2279,
        "state_code": "GD",
        "state_name": "Guangdong",
        "country_id": 45,
        "country_code": "CN",
        "country_name": "China",
        "latitude": "22.16667000",
        "longitude": "111.78333000",
        "timezone": null,
        "wikiDataId": "Q1023923"
    },
    {
        "id": 20344,
        "name": "Yangjiang",
        "state_id": 2279,
        "state_code": "GD",
        "state_name": "Guangdong",
        "country_id": 45,
        "country_code": "CN",
        "country_name": "China",
        "latitude": "21.85563000",
        "longitude": "111.96272000",
        "timezone": null,
        "wikiDataId": "Q59209"
    },
    {
        "id": 20375,
        "name": "Yingcheng",
        "state_id": 2279,
        "state_code": "GD",
        "state_name": "Guangdong",
        "country_id": 45,
        "country_code": "CN",
        "country_name": "China",
        "latitude": "24.16588000",
        "longitude": "113.41267000",
        "timezone": null,
        "wikiDataId": "Q1028091"
    },
    {
        "id": 20401,
        "name": "Yunfu",
        "state_id": 2279,
        "state_code": "GD",
        "state_name": "Guangdong",
        "country_id": 45,
        "country_code": "CN",
        "country_name": "China",
        "latitude": "22.92833000",
        "longitude": "112.03954000",
        "timezone": null,
        "wikiDataId": "Q59233"
    },
    {
        "id": 20429,
        "name": "Zhanjiang",
        "state_id": 2279,
        "state_code": "GD",
        "state_name": "Guangdong",
        "country_id": 45,
        "country_code": "CN",
        "country_name": "China",
        "latitude": "21.28145000",
        "longitude": "110.34271000",
        "timezone": null,
        "wikiDataId": "Q68814"
    },
    {
        "id": 20433,
        "name": "Zhaoqing",
        "state_id": 2279,
        "state_code": "GD",
        "state_name": "Guangdong",
        "country_id": 45,
        "country_code": "CN",
        "country_name": "China",
        "latitude": "23.04893000",
        "longitude": "112.46091000",
        "timezone": null,
        "wikiDataId": "Q59164"
    },
    {
        "id": 20451,
        "name": "Zhongshan",
        "state_id": 2279,
        "state_code": "GD",
        "state_name": "Guangdong",
        "country_id": 45,
        "country_code": "CN",
        "country_name": "China",
        "latitude": "21.31992000",
        "longitude": "110.57230000",
        "timezone": null,
        "wikiDataId": "Q1359300"
    },
    {
        "id": 20452,
        "name": "Zhongshan Prefecture",
        "state_id": 2279,
        "state_code": "GD",
        "state_name": "Guangdong",
        "country_id": 45,
        "country_code": "CN",
        "country_name": "China",
        "latitude": "22.55358000",
        "longitude": "113.37550000",
        "timezone": null,
        "wikiDataId": "Q59223"
    },
    {
        "id": 20466,
        "name": "Zhuhai",
        "state_id": 2279,
        "state_code": "GD",
        "state_name": "Guangdong",
        "country_id": 45,
        "country_code": "CN",
        "country_name": "China",
        "latitude": "22.27694000",
        "longitude": "113.56778000",
        "timezone": null,
        "wikiDataId": "Q59095"
    },
    {
        "id": 19295,
        "name": "Babu",
        "state_id": 2278,
        "state_code": "GX",
        "state_name": "Guangxi Zhuang",
        "country_id": 45,
        "country_code": "CN",
        "country_name": "China",
        "latitude": "24.41667000",
        "longitude": "111.51667000",
        "timezone": null,
        "wikiDataId": "Q625554"
    },
    {
        "id": 19299,
        "name": "Baihe",
        "state_id": 2278,
        "state_code": "GX",
        "state_name": "Guangxi Zhuang",
        "country_id": 45,
        "country_code": "CN",
        "country_name": "China",
        "latitude": "22.13430000",
        "longitude": "107.23200000",
        "timezone": null,
        "wikiDataId": "Q4843224"
    },
    {
        "id": 19303,
        "name": "Baise City",
        "state_id": 2278,
        "state_code": "GX",
        "state_name": "Guangxi Zhuang",
        "country_id": 45,
        "country_code": "CN",
        "country_name": "China",
        "latitude": "23.89972000",
        "longitude": "106.61333000",
        "timezone": null,
        "wikiDataId": "Q571949"
    },
    {
        "id": 19304,
        "name": "Baise Shi",
        "state_id": 2278,
        "state_code": "GX",
        "state_name": "Guangxi Zhuang",
        "country_id": 45,
        "country_code": "CN",
        "country_name": "China",
        "latitude": "23.90000000",
        "longitude": "106.61667000",
        "timezone": null,
        "wikiDataId": "Q571949"
    },
    {
        "id": 19331,
        "name": "Beihai",
        "state_id": 2278,
        "state_code": "GX",
        "state_name": "Guangxi Zhuang",
        "country_id": 45,
        "country_code": "CN",
        "country_name": "China",
        "latitude": "21.48333000",
        "longitude": "109.10000000",
        "timezone": null,
        "wikiDataId": "Q210365"
    },
    {
        "id": 19407,
        "name": "Chongzuo Shi",
        "state_id": 2278,
        "state_code": "GX",
        "state_name": "Guangxi Zhuang",
        "country_id": 45,
        "country_code": "CN",
        "country_name": "China",
        "latitude": "22.46541000",
        "longitude": "107.39622000",
        "timezone": null,
        "wikiDataId": "Q1001424"
    },
    {
        "id": 19441,
        "name": "Dazhai",
        "state_id": 2278,
        "state_code": "GX",
        "state_name": "Guangxi Zhuang",
        "country_id": 45,
        "country_code": "CN",
        "country_name": "China",
        "latitude": "25.80980000",
        "longitude": "110.15000000",
        "timezone": null,
        "wikiDataId": "Q1179105"
    },
    {
        "id": 19498,
        "name": "Fangchenggang Shi",
        "state_id": 2278,
        "state_code": "GX",
        "state_name": "Guangxi Zhuang",
        "country_id": 45,
        "country_code": "CN",
        "country_name": "China",
        "latitude": "21.93580000",
        "longitude": "107.95932000",
        "timezone": null,
        "wikiDataId": "Q571712"
    },
    {
        "id": 19569,
        "name": "Guigang",
        "state_id": 2278,
        "state_code": "GX",
        "state_name": "Guangxi Zhuang",
        "country_id": 45,
        "country_code": "CN",
        "country_name": "China",
        "latitude": "23.09639000",
        "longitude": "109.60917000",
        "timezone": null,
        "wikiDataId": "Q571808"
    },
    {
        "id": 19570,
        "name": "Guilin",
        "state_id": 2278,
        "state_code": "GX",
        "state_name": "Guangxi Zhuang",
        "country_id": 45,
        "country_code": "CN",
        "country_name": "China",
        "latitude": "25.28194000",
        "longitude": "110.28639000",
        "timezone": null,
        "wikiDataId": "Q571808"
    },
    {
        "id": 19571,
        "name": "Guilin Shi",
        "state_id": 2278,
        "state_code": "GX",
        "state_name": "Guangxi Zhuang",
        "country_id": 45,
        "country_code": "CN",
        "country_name": "China",
        "latitude": "25.28333000",
        "longitude": "110.28333000",
        "timezone": null,
        "wikiDataId": "Q189633"
    },
    {
        "id": 19572,
        "name": "Guiping",
        "state_id": 2278,
        "state_code": "GX",
        "state_name": "Guangxi Zhuang",
        "country_id": 45,
        "country_code": "CN",
        "country_name": "China",
        "latitude": "23.39336000",
        "longitude": "110.07437000",
        "timezone": null,
        "wikiDataId": "Q963782"
    },
    {
        "id": 19603,
        "name": "Hechi Shi",
        "state_id": 2278,
        "state_code": "GX",
        "state_name": "Guangxi Zhuang",
        "country_id": 45,
        "country_code": "CN",
        "country_name": "China",
        "latitude": "24.70000000",
        "longitude": "108.03000000",
        "timezone": null,
        "wikiDataId": "Q572089"
    },
    {
        "id": 19743,
        "name": "Jinji",
        "state_id": 2278,
        "state_code": "GX",
        "state_name": "Guangxi Zhuang",
        "country_id": 45,
        "country_code": "CN",
        "country_name": "China",
        "latitude": "23.22806000",
        "longitude": "110.82611000",
        "timezone": null,
        "wikiDataId": "Q372791"
    },
    {
        "id": 19789,
        "name": "Laibin",
        "state_id": 2278,
        "state_code": "GX",
        "state_name": "Guangxi Zhuang",
        "country_id": 45,
        "country_code": "CN",
        "country_name": "China",
        "latitude": "23.70000000",
        "longitude": "109.26667000",
        "timezone": null,
        "wikiDataId": "Q572140"
    },
    {
        "id": 19827,
        "name": "Lianzhou",
        "state_id": 2278,
        "state_code": "GX",
        "state_name": "Guangxi Zhuang",
        "country_id": 45,
        "country_code": "CN",
        "country_name": "China",
        "latitude": "21.66621000",
        "longitude": "109.20116000",
        "timezone": null,
        "wikiDataId": "Q1023910"
    },
    {
        "id": 19840,
        "name": "Lingcheng",
        "state_id": 2278,
        "state_code": "GX",
        "state_name": "Guangxi Zhuang",
        "country_id": 45,
        "country_code": "CN",
        "country_name": "China",
        "latitude": "22.70722000",
        "longitude": "110.34917000",
        "timezone": null,
        "wikiDataId": "Q1198819"
    },
    {
        "id": 19863,
        "name": "Liuzhou Shi",
        "state_id": 2278,
        "state_code": "GX",
        "state_name": "Guangxi Zhuang",
        "country_id": 45,
        "country_code": "CN",
        "country_name": "China",
        "latitude": "24.31667000",
        "longitude": "109.40000000",
        "timezone": null,
        "wikiDataId": "Q38968"
    },
    {
        "id": 19887,
        "name": "Luorong",
        "state_id": 2278,
        "state_code": "GX",
        "state_name": "Guangxi Zhuang",
        "country_id": 45,
        "country_code": "CN",
        "country_name": "China",
        "latitude": "24.40583000",
        "longitude": "109.60861000",
        "timezone": null,
        "wikiDataId": "Q404599"
    },
    {
        "id": 19938,
        "name": "Nandu",
        "state_id": 2278,
        "state_code": "GX",
        "state_name": "Guangxi Zhuang",
        "country_id": 45,
        "country_code": "CN",
        "country_name": "China",
        "latitude": "22.85250000",
        "longitude": "110.82333000",
        "timezone": null,
        "wikiDataId": "Q426996"
    },
    {
        "id": 19945,
        "name": "Nanning",
        "state_id": 2278,
        "state_code": "GX",
        "state_name": "Guangxi Zhuang",
        "country_id": 45,
        "country_code": "CN",
        "country_name": "China",
        "latitude": "22.81667000",
        "longitude": "108.31667000",
        "timezone": null,
        "wikiDataId": "Q179608"
    },
    {
        "id": 19981,
        "name": "Pingnan",
        "state_id": 2278,
        "state_code": "GX",
        "state_name": "Guangxi Zhuang",
        "country_id": 45,
        "country_code": "CN",
        "country_name": "China",
        "latitude": "23.54218000",
        "longitude": "110.38946000",
        "timezone": null,
        "wikiDataId": "Q533985"
    },
    {
        "id": 19995,
        "name": "Pumiao",
        "state_id": 2278,
        "state_code": "GX",
        "state_name": "Guangxi Zhuang",
        "country_id": 45,
        "country_code": "CN",
        "country_name": "China",
        "latitude": "22.75867000",
        "longitude": "108.48111000",
        "timezone": null,
        "wikiDataId": "Q416748"
    },
    {
        "id": 20031,
        "name": "Qinzhou",
        "state_id": 2278,
        "state_code": "GX",
        "state_name": "Guangxi Zhuang",
        "country_id": 45,
        "country_code": "CN",
        "country_name": "China",
        "latitude": "21.97296000",
        "longitude": "108.62612000",
        "timezone": null,
        "wikiDataId": "Q571766"
    },
    {
        "id": 20247,
        "name": "Wuzhou",
        "state_id": 2278,
        "state_code": "GX",
        "state_name": "Guangxi Zhuang",
        "country_id": 45,
        "country_code": "CN",
        "country_name": "China",
        "latitude": "23.48333000",
        "longitude": "111.31667000",
        "timezone": null,
        "wikiDataId": "Q571652"
    },
    {
        "id": 20346,
        "name": "Yangshuo",
        "state_id": 2278,
        "state_code": "GX",
        "state_name": "Guangxi Zhuang",
        "country_id": 45,
        "country_code": "CN",
        "country_name": "China",
        "latitude": "24.78081000",
        "longitude": "110.48967000",
        "timezone": null,
        "wikiDataId": "Q72907"
    },
    {
        "id": 20361,
        "name": "Yashan",
        "state_id": 2278,
        "state_code": "GX",
        "state_name": "Guangxi Zhuang",
        "country_id": 45,
        "country_code": "CN",
        "country_name": "China",
        "latitude": "22.19750000",
        "longitude": "109.94194000",
        "timezone": null,
        "wikiDataId": "Q210493"
    },
    {
        "id": 20398,
        "name": "Yulin",
        "state_id": 2278,
        "state_code": "GX",
        "state_name": "Guangxi Zhuang",
        "country_id": 45,
        "country_code": "CN",
        "country_name": "China",
        "latitude": "22.63333000",
        "longitude": "110.15000000",
        "timezone": null,
        "wikiDataId": "Q571918"
    },
    {
        "id": 19288,
        "name": "Anshun",
        "state_id": 2261,
        "state_code": "GZ",
        "state_name": "Guizhou",
        "country_id": 45,
        "country_code": "CN",
        "country_name": "China",
        "latitude": "26.25000000",
        "longitude": "105.93333000",
        "timezone": null,
        "wikiDataId": "Q486149"
    },