[
    {
        "id": 21807,
        "name": "Artemisa",
        "state_id": 283,
        "state_code": "15",
        "state_name": "Artemisa",
        "country_id": 56,
        "country_code": "CU",
        "country_name": "Cuba",
        "latitude": "22.81667000",
        "longitude": "-82.75944000",
        "timezone": null,
        "wikiDataId": "Q1936053"
    },
    {
        "id": 21808,
        "name": "Bahía Honda",
        "state_id": 283,
        "state_code": "15",
        "state_name": "Artemisa",
        "country_id": 56,
        "country_code": "CU",
        "country_name": "Cuba",
        "latitude": "22.90332000",
        "longitude": "-83.15994000",
        "timezone": null,
        "wikiDataId": "Q571968"
    },
    {
        "id": 21814,
        "name": "Bauta",
        "state_id": 283,
        "state_code": "15",
        "state_name": "Artemisa",
        "country_id": 56,
        "country_code": "CU",
        "country_name": "Cuba",
        "latitude": "22.98226000",
        "longitude": "-82.54719000",
        "timezone": null,
        "wikiDataId": "Q809538"
    },
    {
        "id": 21820,
        "name": "Cabañas",
        "state_id": 283,
        "state_code": "15",
        "state_name": "Artemisa",
        "country_id": 56,
        "country_code": "CU",
        "country_name": "Cuba",
        "latitude": "22.97944000",
        "longitude": "-82.92214000",
        "timezone": null,
        "wikiDataId": "Q5737954"
    },
    {
        "id": 21828,
        "name": "Candelaria",
        "state_id": 283,
        "state_code": "15",
        "state_name": "Artemisa",
        "country_id": 56,
        "country_code": "CU",
        "country_name": "Cuba",
        "latitude": "22.74057000",
        "longitude": "-82.95912000",
        "timezone": null,
        "wikiDataId": "Q280628"
    },
    {
        "id": 21858,
        "name": "Guanajay",
        "state_id": 283,
        "state_code": "15",
        "state_name": "Artemisa",
        "country_id": 56,
        "country_code": "CU",
        "country_name": "Cuba",
        "latitude": "22.92639000",
        "longitude": "-82.68750000",
        "timezone": null,
        "wikiDataId": "Q23796070"
    },
    {
        "id": 21865,
        "name": "Güira de Melena",
        "state_id": 283,
        "state_code": "15",
        "state_name": "Artemisa",
        "country_id": 56,
        "country_code": "CU",
        "country_name": "Cuba",
        "latitude": "22.79613000",
        "longitude": "-82.50667000",
        "timezone": null,
        "wikiDataId": "Q1935474"
    },
    {
        "id": 21895,
        "name": "Mariel",
        "state_id": 283,
        "state_code": "15",
        "state_name": "Artemisa",
        "country_id": 56,
        "country_code": "CU",
        "country_name": "Cuba",
        "latitude": "22.98931000",
        "longitude": "-82.75376000",
        "timezone": null,
        "wikiDataId": "Q23793608"
    },
    {
        "id": 21904,
        "name": "Municipio de Artemisa",
        "state_id": 283,
        "state_code": "15",
        "state_name": "Artemisa",
        "country_id": 56,
        "country_code": "CU",
        "country_name": "Cuba",
        "latitude": "22.77383000",
        "longitude": "-82.80419000",
        "timezone": null,
        "wikiDataId": "Q115006"
    },
    {
        "id": 21906,
        "name": "Municipio de Bauta",
        "state_id": 283,
        "state_code": "15",
        "state_name": "Artemisa",
        "country_id": 56,
        "country_code": "CU",
        "country_name": "Cuba",
        "latitude": "22.96957000",
        "longitude": "-82.49997000",
        "timezone": null,
        "wikiDataId": "Q114970"
    },
    {
        "id": 21914,
        "name": "Municipio de Guanajay",
        "state_id": 283,
        "state_code": "15",
        "state_name": "Artemisa",
        "country_id": 56,
        "country_code": "CU",
        "country_name": "Cuba",
        "latitude": "22.89215000",
        "longitude": "-82.70873000",
        "timezone": null,
        "wikiDataId": "Q114977"
    },
    {
        "id": 21923,
        "name": "Municipio de Mariel",
        "state_id": 283,
        "state_code": "15",
        "state_name": "Artemisa",
        "country_id": 56,
        "country_code": "CU",
        "country_name": "Cuba",
        "latitude": "22.96515000",
        "longitude": "-82.80324000",
        "timezone": null,
        "wikiDataId": "Q116156"
    },
    {
        "id": 21931,
        "name": "Municipio de San Cristóbal",
        "state_id": 283,
        "state_code": "15",
        "state_name": "Artemisa",
        "country_id": 56,
        "country_code": "CU",
        "country_name": "Cuba",
        "latitude": "22.71446000",
        "longitude": "-83.04561000",
        "timezone": null,
        "wikiDataId": "Q559801"
    },
    {
        "id": 21959,
        "name": "San Antonio de los Baños",
        "state_id": 283,
        "state_code": "15",
        "state_name": "Artemisa",
        "country_id": 56,
        "country_code": "CU",
        "country_name": "Cuba",
        "latitude": "22.89018000",
        "longitude": "-82.50099000",
        "timezone": null,
        "wikiDataId": "Q114984"
    },
    {
        "id": 21960,
        "name": "San Cristobal",
        "state_id": 283,
        "state_code": "15",
        "state_name": "Artemisa",
        "country_id": 56,
        "country_code": "CU",
        "country_name": "Cuba",
        "latitude": "22.71658000",
        "longitude": "-83.05647000",
        "timezone": null,
        "wikiDataId": "Q114984"
    },
    {
        "id": 21976,
        "name": "Soroa",
        "state_id": 283,
        "state_code": "15",
        "state_name": "Artemisa",
        "country_id": 56,
        "country_code": "CU",
        "country_name": "Cuba",
        "latitude": "22.80000000",
        "longitude": "-83.01667000",
        "timezone": null,
        "wikiDataId": "Q2303484"
    },
    {
        "id": 21825,
        "name": "Camagüey",
        "state_id": 286,
        "state_code": "09",
        "state_name": "Camagüey",
        "country_id": 56,
        "country_code": "CU",
        "country_name": "Cuba",
        "latitude": "21.38083000",
        "longitude": "-77.91694000",
        "timezone": null,
        "wikiDataId": "Q115329"
    },
    {
        "id": 21848,
        "name": "El Caney",
        "state_id": 286,
        "state_code": "09",
        "state_name": "Camagüey",
        "country_id": 56,
        "country_code": "CU",
        "country_name": "Cuba",
        "latitude": "21.30000000",
        "longitude": "-78.48333000",
        "timezone": null,
        "wikiDataId": "Q2397948"
    },
    {
        "id": 21851,
        "name": "Esmeralda",
        "state_id": 286,
        "state_code": "09",
        "state_name": "Camagüey",
        "country_id": 56,
        "country_code": "CU",
        "country_name": "Cuba",
        "latitude": "21.85139000",
        "longitude": "-78.11725000",
        "timezone": null,
        "wikiDataId": "Q23797650"
    },
    {
        "id": 21854,
        "name": "Florida",
        "state_id": 286,
        "state_code": "09",
        "state_name": "Camagüey",
        "country_id": 56,
        "country_code": "CU",
        "country_name": "Cuba",
        "latitude": "21.52536000",
        "longitude": "-78.22579000",
        "timezone": null,
        "wikiDataId": "Q1007702"
    },
    {
        "id": 21863,
        "name": "Guáimaro",
        "state_id": 286,
        "state_code": "09",
        "state_name": "Camagüey",
        "country_id": 56,
        "country_code": "CU",
        "country_name": "Cuba",
        "latitude": "21.05222000",
        "longitude": "-77.34990000",
        "timezone": null,
        "wikiDataId": "Q1935474"
    },
    {
        "id": 21876,
        "name": "Jimaguayú",
        "state_id": 286,
        "state_code": "09",
        "state_name": "Camagüey",
        "country_id": 56,
        "country_code": "CU",
        "country_name": "Cuba",
        "latitude": "21.24224000",
        "longitude": "-77.82625000",
        "timezone": null,
        "wikiDataId": "Q179701"
    },
    {
        "id": 21899,
        "name": "Minas",
        "state_id": 286,
        "state_code": "09",
        "state_name": "Camagüey",
        "country_id": 56,
        "country_code": "CU",
        "country_name": "Cuba",
        "latitude": "21.48802000",
        "longitude": "-77.61033000",
        "timezone": null,
        "wikiDataId": "Q643025"
    },
    {
        "id": 21913,
        "name": "Municipio de Florida",
        "state_id": 286,
        "state_code": "09",
        "state_name": "Camagüey",
        "country_id": 56,
        "country_code": "CU",
        "country_name": "Cuba",
        "latitude": "21.46582000",
        "longitude": "-78.34848000",
        "timezone": null,
        "wikiDataId": "Q643617"
    },
    {
        "id": 21928,
        "name": "Municipio de Nuevitas",
        "state_id": 286,
        "state_code": "09",
        "state_name": "Camagüey",
        "country_id": 56,
        "country_code": "CU",
        "country_name": "Cuba",
        "latitude": "21.55000000",
        "longitude": "-77.26667000",
        "timezone": null,
        "wikiDataId": "Q643081"
    },
    {
        "id": 21938,
        "name": "Nuevitas",
        "state_id": 286,
        "state_code": "09",
        "state_name": "Camagüey",
        "country_id": 56,
        "country_code": "CU",
        "country_name": "Cuba",
        "latitude": "21.54585000",
        "longitude": "-77.26504000",
        "timezone": null,
        "wikiDataId": "Q23792936"
    },
    {
        "id": 21971,
        "name": "Santa Cruz del Sur",
        "state_id": 286,
        "state_code": "09",
        "state_name": "Camagüey",
        "country_id": 56,
        "country_code": "CU",
        "country_name": "Cuba",
        "latitude": "20.71633000",
        "longitude": "-77.99816000",
        "timezone": null,
        "wikiDataId": "Q12896967"
    },
    {
        "id": 21975,
        "name": "Sibanicú",
        "state_id": 286,
        "state_code": "09",
        "state_name": "Camagüey",
        "country_id": 56,
        "country_code": "CU",
        "country_name": "Cuba",
        "latitude": "21.23631000",
        "longitude": "-77.52561000",
        "timezone": null,
        "wikiDataId": "Q537161"
    },
    {
        "id": 21982,
        "name": "Vertientes",
        "state_id": 286,
        "state_code": "09",
        "state_name": "Camagüey",
        "country_id": 56,
        "country_code": "CU",
        "country_name": "Cuba",
        "latitude": "21.25817000",
        "longitude": "-78.14979000",
        "timezone": null,
        "wikiDataId": "Q643047"
    },
    {
        "id": 21811,
        "name": "Baraguá",
        "state_id": 282,
        "state_code": "08",
        "state_name": "Ciego de Ávila",
        "country_id": 56,
        "country_code": "CU",
        "country_name": "Cuba",
        "latitude": "21.68216000",
        "longitude": "-78.62567000",
        "timezone": null,
        "wikiDataId": "Q1816192"
    },
    {
        "id": 21832,
        "name": "Chambas",
        "state_id": 282,
        "state_code": "08",
        "state_name": "Ciego de Ávila",
        "country_id": 56,
        "country_code": "CU",
        "country_name": "Cuba",
        "latitude": "22.19534000",
        "longitude": "-78.91230000",
        "timezone": null,
        "wikiDataId": "Q1060628"
    },
    {
        "id": 21833,
        "name": "Ciego de Ávila",
        "state_id": 282,
        "state_code": "08",
        "state_name": "Ciego de Ávila",
        "country_id": 56,
        "country_code": "CU",
        "country_name": "Cuba",
        "latitude": "21.84000000",
        "longitude": "-78.76194000",
        "timezone": null,
        "wikiDataId": "Q1060628"
    },
    {
        "id": 21836,
        "name": "Ciro Redondo",
        "state_id": 282,
        "state_code": "08",
        "state_name": "Ciego de Ávila",
        "country_id": 56,
        "country_code": "CU",
        "country_name": "Cuba",
        "latitude": "22.01921000",
        "longitude": "-78.70365000",
        "timezone": null,
        "wikiDataId": "Q1020273"
    },
    {
        "id": 21853,
        "name": "Florencia",
        "state_id": 282,
        "state_code": "08",
        "state_name": "Ciego de Ávila",
        "country_id": 56,
        "country_code": "CU",
        "country_name": "Cuba",
        "latitude": "22.14610000",
        "longitude": "-78.97328000",
        "timezone": null,
        "wikiDataId": "Q1007702"
    },
    {
        "id": 21902,
        "name": "Morón",
        "state_id": 282,
        "state_code": "08",
        "state_name": "Ciego de Ávila",
        "country_id": 56,
        "country_code": "CU",
        "country_name": "Cuba",
        "latitude": "22.10774000",
        "longitude": "-78.62667000",
        "timezone": null,
        "wikiDataId": "Q168965"
    },
    {
        "id": 21909,
        "name": "Municipio de Ciego de Ávila",
        "state_id": 282,
        "state_code": "08",
        "state_name": "Ciego de Ávila",
        "country_id": 56,
        "country_code": "CU",
        "country_name": "Cuba",
        "latitude": "21.85000000",
        "longitude": "-78.76667000",
        "timezone": null,
        "wikiDataId": "Q115465"
    },
    {
        "id": 21926,
        "name": "Municipio de Morón",
        "state_id": 282,
        "state_code": "08",
        "state_name": "Ciego de Ávila",
        "country_id": 56,
        "country_code": "CU",
        "country_name": "Cuba",
        "latitude": "22.29980000",
        "longitude": "-78.56875000",
        "timezone": null,
        "wikiDataId": "Q959528"
    },
    {
        "id": 21945,
        "name": "Primero de Enero",
        "state_id": 282,
        "state_code": "08",
        "state_name": "Ciego de Ávila",
        "country_id": 56,
        "country_code": "CU",
        "country_name": "Cuba",
        "latitude": "21.94501000",
        "longitude": "-78.43130000",
        "timezone": null,
        "wikiDataId": "Q1020104"
    },
    {
        "id": 21981,
        "name": "Venezuela",
        "state_id": 282,
        "state_code": "08",
        "state_name": "Ciego de Ávila",
        "country_id": 56,
        "country_code": "CU",
        "country_name": "Cuba",
        "latitude": "21.73748000",
        "longitude": "-78.79336000",
        "timezone": null,
        "wikiDataId": "Q593830"
    },
    {
        "id": 21800,
        "name": "Abreus",
        "state_id": 287,
        "state_code": "06",
        "state_name": "Cienfuegos",
        "country_id": 56,
        "country_code": "CU",
        "country_name": "Cuba",
        "latitude": "22.27797000",
        "longitude": "-80.56931000",
        "timezone": null,
        "wikiDataId": "Q23806009"
    },
    {
        "id": 21801,
        "name": "Aguada de Pasajeros",
        "state_id": 287,
        "state_code": "06",
        "state_name": "Cienfuegos",
        "country_id": 56,
        "country_code": "CU",
        "country_name": "Cuba",
        "latitude": "22.38520000",
        "longitude": "-80.84792000",
        "timezone": null,
        "wikiDataId": "Q23806009"
    },
    {
        "id": 21834,
        "name": "Cienfuegos",
        "state_id": 287,
        "state_code": "06",
        "state_name": "Cienfuegos",
        "country_id": 56,
        "country_code": "CU",
        "country_name": "Cuba",
        "latitude": "22.14957000",
        "longitude": "-80.44662000",
        "timezone": null,
        "wikiDataId": "Q1060628"
    },
    {
        "id": 21843,
        "name": "Cruces",
        "state_id": 287,
        "state_code": "06",
        "state_name": "Cienfuegos",
        "country_id": 56,
        "country_code": "CU",
        "country_name": "Cuba",
        "latitude": "22.34203000",
        "longitude": "-80.27021000",
        "timezone": null,
        "wikiDataId": "Q1129122"
    },
    {
        "id": 21845,
        "name": "Cumanayagua",
        "state_id": 287,
        "state_code": "06",
        "state_name": "Cienfuegos",
        "country_id": 56,
        "country_code": "CU",
        "country_name": "Cuba",
        "latitude": "22.15247000",
        "longitude": "-80.20354000",
        "timezone": null,
        "wikiDataId": "Q5044"
    },
    {
        "id": 21883,
        "name": "Lajas",
        "state_id": 287,
        "state_code": "06",
        "state_name": "Cienfuegos",
        "country_id": 56,
        "country_code": "CU",
        "country_name": "Cuba",
        "latitude": "22.41479000",
        "longitude": "-80.29310000",
        "timezone": null,
        "wikiDataId": "Q5045"
    },
    {
        "id": 21903,
        "name": "Municipio de Abreus",
        "state_id": 287,
        "state_code": "06",
        "state_name": "Cienfuegos",
        "country_id": 56,
        "country_code": "CU",
        "country_name": "Cuba",
        "latitude": "22.19229000",
        "longitude": "-80.71465000",
        "timezone": null,
        "wikiDataId": "Q331384"
    },
    {
        "id": 21910,
        "name": "Municipio de Cienfuegos",
        "state_id": 287,
        "state_code": "06",
        "state_name": "Cienfuegos",
        "country_id": 56,
        "country_code": "CU",
        "country_name": "Cuba",
        "latitude": "22.15000000",
        "longitude": "-80.45000000",
        "timezone": null,
        "wikiDataId": "Q190005"
    },
    {
        "id": 21940,
        "name": "Palmira",
        "state_id": 287,
        "state_code": "06",
        "state_name": "Cienfuegos",
        "country_id": 56,
        "country_code": "CU",
        "country_name": "Cuba",
        "latitude": "22.24126000",
        "longitude": "-80.39110000",
        "timezone": null,
        "wikiDataId": "Q5008"
    },
    {
        "id": 21953,
        "name": "Rodas",
        "state_id": 287,
        "state_code": "06",
        "state_name": "Cienfuegos",
        "country_id": 56,
        "country_code": "CU",
        "country_name": "Cuba",
        "latitude": "22.34184000",
        "longitude": "-80.55596000",
        "timezone": null,
        "wikiDataId": "Q21610104"
    },
    {
        "id": 21812,
        "name": "Bartolomé Masó",
        "state_id": 275,
        "state_code": "12",
        "state_name": "Granma",
        "country_id": 56,
        "country_code": "CU",
        "country_name": "Cuba",
        "latitude": "20.16635000",
        "longitude": "-76.94291000",
        "timezone": null,
        "wikiDataId": "Q809538"
    },
    {
        "id": 21815,
        "name": "Bayamo",
        "state_id": 275,
        "state_code": "12",
        "state_name": "Granma",
        "country_id": 56,
        "country_code": "CU",
        "country_name": "Cuba",
        "latitude": "20.37417000",
        "longitude": "-76.64361000",
        "timezone": null,
        "wikiDataId": "Q809538"
    },
    {
        "id": 21827,
        "name": "Campechuela",
        "state_id": 275,
        "state_code": "12",
        "state_name": "Granma",
        "country_id": 56,
        "country_code": "CU",
        "country_name": "Cuba",
        "latitude": "20.23329000",
        "longitude": "-77.27990000",
        "timezone": null,
        "wikiDataId": "Q280628"
    },
    {
        "id": 21829,
        "name": "Cauto Cristo",
        "state_id": 275,
        "state_code": "12",
        "state_name": "Granma",
        "country_id": 56,
        "country_code": "CU",
        "country_name": "Cuba",
        "latitude": "20.55709000",
        "longitude": "-76.47270000",
        "timezone": null,
        "wikiDataId": "Q1332179"
    },
    {
        "id": 21862,
        "name": "Guisa",
        "state_id": 275,
        "state_code": "12",
        "state_name": "Granma",
        "country_id": 56,
        "country_code": "CU",
        "country_name": "Cuba",
        "latitude": "20.25494000",
        "longitude": "-76.53930000",
        "timezone": null,
        "wikiDataId": "Q1935474"
    },
    {
        "id": 21875,
        "name": "Jiguaní",
        "state_id": 275,
        "state_code": "12",
        "state_name": "Granma",
        "country_id": 56,
        "country_code": "CU",
        "country_name": "Cuba",
        "latitude": "20.36785000",
        "longitude": "-76.42741000",
        "timezone": null,
        "wikiDataId": "Q1332144"
    },
    {
        "id": 21894,
        "name": "Manzanillo",
        "state_id": 275,
        "state_code": "12",
        "state_name": "Granma",
        "country_id": 56,
        "country_code": "CU",
        "country_name": "Cuba",
        "latitude": "20.34173000",
        "longitude": "-77.12126000",
        "timezone": null,
        "wikiDataId": "Q23793608"
    },
    {
        "id": 21898,
        "name": "Media Luna",
        "state_id": 275,
        "state_code": "12",
        "state_name": "Granma",
        "country_id": 56,
        "country_code": "CU",
        "country_name": "Cuba",
        "latitude": "20.14298000",
        "longitude": "-77.43532000",
        "timezone": null,
        "wikiDataId": "Q995690"
    },
    {
        "id": 21907,
        "name": "Municipio de Bayamo",
        "state_id": 275,
        "state_code": "12",
        "state_name": "Granma",
        "country_id": 56,
        "country_code": "CU",
        "country_name": "Cuba",
        "latitude": "20.42511000",
        "longitude": "-76.68614000",
        "timezone": null,
        "wikiDataId": "Q115382"
    },
    {
        "id": 21922,
        "name": "Municipio de Manzanillo",
        "state_id": 275,
        "state_code": "12",
        "state_name": "Granma",
        "country_id": 56,
        "country_code": "CU",
        "country_name": "Cuba",
        "latitude": "20.24732000",
        "longitude": "-77.10273000",
        "timezone": null,
        "wikiDataId": "Q115403"
    },
    {
        "id": 21927,
        "name": "Municipio de Niquero",
        "state_id": 275,
        "state_code": "12",
        "state_name": "Granma",
        "country_id": 56,
        "country_code": "CU",
        "country_name": "Cuba",
        "latitude": "19.93912000",
        "longitude": "-77.57085000",
        "timezone": null,
        "wikiDataId": "Q972546"
    },
    {
        "id": 21936,
        "name": "Niquero",
        "state_id": 275,
        "state_code": "12",
        "state_name": "Granma",
        "country_id": 56,
        "country_code": "CU",
        "country_name": "Cuba",
        "latitude": "20.04698000",
        "longitude": "-77.58089000",
        "timezone": null,
        "wikiDataId": "Q319272"
    },
    {
        "id": 21954,
        "name": "Río Cauto",
        "state_id": 275,
        "state_code": "12",
        "state_name": "Granma",
        "country_id": 56,
        "country_code": "CU",
        "country_name": "Cuba",
        "latitude": "20.55971000",
        "longitude": "-76.91673000",
        "timezone": null,
        "wikiDataId": "Q178931"
    },
    {
        "id": 21985,
        "name": "Yara",
        "state_id": 275,
        "state_code": "12",
        "state_name": "Granma",
        "country_id": 56,
        "country_code": "CU",
        "country_name": "Cuba",
        "latitude": "20.27465000",
        "longitude": "-76.95132000",
        "timezone": null,
        "wikiDataId": "Q643047"
    },
    {
        "id": 21810,
        "name": "Baracoa",
        "state_id": 285,
        "state_code": "14",
        "state_name": "Guantánamo",
        "country_id": 56,
        "country_code": "CU",
        "country_name": "Cuba",
        "latitude": "20.34711000",
        "longitude": "-74.49624000",
        "timezone": null,
        "wikiDataId": "Q23804595"
    },
    {
        "id": 21860,
        "name": "Guantánamo",
        "state_id": 285,
        "state_code": "14",
        "state_name": "Guantánamo",
        "country_id": 56,
        "country_code": "CU",
        "country_name": "Cuba",
        "latitude": "20.14444000",
        "longitude": "-75.20917000",
        "timezone": null,
        "wikiDataId": "Q23796097"
    },
    {
        "id": 21889,
        "name": "Maisí",
        "state_id": 285,
        "state_code": "14",
        "state_name": "Guantánamo",
        "country_id": 56,
        "country_code": "CU",
        "country_name": "Cuba",
        "latitude": "20.24673000",
        "longitude": "-74.15181000",
        "timezone": null,
        "wikiDataId": "Q911750"
    },
    {
        "id": 21916,
        "name": "Municipio de Guantánamo",
        "state_id": 285,
        "state_code": "14",
        "state_name": "Guantánamo",
        "country_id": 56,
        "country_code": "CU",
        "country_name": "Cuba",
        "latitude": "20.26723000",
        "longitude": "-75.15546000",
        "timezone": null,
        "wikiDataId": "Q185156"
    },
    {
        "id": 21955,
        "name": "Río Guayabal de Yateras",
        "state_id": 285,
        "state_code": "14",
        "state_name": "Guantánamo",
        "country_id": 56,
        "country_code": "CU",
        "country_name": "Cuba",
        "latitude": "20.36667000",
        "longitude": "-75.01667000",
        "timezone": null,
        "wikiDataId": "Q20592832"
    },
    {
        "id": 21958,
        "name": "San Antonio del Sur",
        "state_id": 285,
        "state_code": "14",
        "state_name": "Guantánamo",
        "country_id": 56,
        "country_code": "CU",
        "country_name": "Cuba",
        "latitude": "20.05564000",
        "longitude": "-74.80750000",
        "timezone": null,
        "wikiDataId": "Q281213"
    },
    {
        "id": 21803,
        "name": "Alamar",
        "state_id": 272,
        "state_code": "03",
        "state_name": "Havana",
        "country_id": 56,
        "country_code": "CU",
        "country_name": "Cuba",
        "latitude": "23.15794000",
        "longitude": "-82.27837000",
        "timezone": null,
        "wikiDataId": "Q23805305"
    },
    {
        "id": 21806,
        "name": "Arroyo Naranjo",
        "state_id": 272,
        "state_code": "03",
        "state_name": "Havana",
        "country_id": 56,
        "country_code": "CU",
        "country_name": "Cuba",
        "latitude": "23.03677000",
        "longitude": "-82.36937000",
        "timezone": null,
        "wikiDataId": "Q1936053"
    },
    {
        "id": 21818,
        "name": "Boyeros",
        "state_id": 272,
        "state_code": "03",
        "state_name": "Havana",
        "country_id": 56,
        "country_code": "CU",
        "country_name": "Cuba",
        "latitude": "23.00720000",
        "longitude": "-82.40170000",
        "timezone": null,
        "wikiDataId": "Q1936076"
    },
    {
        "id": 21830,
        "name": "Centro Habana",
        "state_id": 272,
        "state_code": "03",
        "state_name": "Havana",
        "country_id": 56,
        "country_code": "CU",
        "country_name": "Cuba",
        "latitude": "23.13833000",
        "longitude": "-82.36417000",
        "timezone": null,
        "wikiDataId": "Q1054312"
    },
    {
        "id": 21831,
        "name": "Cerro",
        "state_id": 272,
        "state_code": "03",
        "state_name": "Havana",
        "country_id": 56,
        "country_code": "CU",
        "country_name": "Cuba",
        "latitude": "23.10861000",
        "longitude": "-82.37778000",
        "timezone": null,
        "wikiDataId": "Q1055715"
    },
    {
        "id": 21847,
        "name": "Diez de Octubre",
        "state_id": 272,
        "state_code": "03",
        "state_name": "Havana",
        "country_id": 56,
        "country_code": "CU",
        "country_name": "Cuba",
        "latitude": "23.08810000",
        "longitude": "-82.35970000",
        "timezone": null,
        "wikiDataId": "Q2397948"
    },
    {
        "id": 21857,
        "name": "Guanabacoa",
        "state_id": 272,
        "state_code": "03",
        "state_name": "Havana",
        "country_id": 56,
        "country_code": "CU",
        "country_name": "Cuba",
        "latitude": "23.12360000",
        "longitude": "-82.30082000",
        "timezone": null,
        "wikiDataId": "Q23796070"
    },
    {
        "id": 21866,
        "name": "Habana del Este",
        "state_id": 272,
        "state_code": "03",
        "state_name": "Havana",
        "country_id": 56,
        "country_code": "CU",
        "country_name": "Cuba",
        "latitude": "23.15917000",
        "longitude": "-82.33056000",
        "timezone": null,
        "wikiDataId": "Q1566695"
    },
    {
        "id": 21867,
        "name": "Havana",
        "state_id": 272,
        "state_code": "03",
        "state_name": "Havana",
        "country_id": 56,
        "country_code": "CU",
        "country_name": "Cuba",
        "latitude": "23.13302000",
        "longitude": "-82.38304000",
        "timezone": null,
        "wikiDataId": "Q1563"
    },
    {
        "id": 21880,
        "name": "La Habana Vieja",
        "state_id": 272,
        "state_code": "03",
        "state_name": "Havana",
        "country_id": 56,
        "country_code": "CU",
        "country_name": "Cuba",
        "latitude": "23.13028000",
        "longitude": "-82.35306000",
        "timezone": null,
        "wikiDataId": "Q1165566"
    },
    {
        "id": 21952,
        "name": "Regla",
        "state_id": 272,
        "state_code": "03",
        "state_name": "Havana",
        "country_id": 56,
        "country_code": "CU",
        "country_name": "Cuba",
        "latitude": "23.12500000",
        "longitude": "-82.33194000",
        "timezone": null,
        "wikiDataId": "Q21610104"
    },
    {
        "id": 21966,
        "name": "San Miguel del Padrón",
        "state_id": 272,
        "state_code": "03",
        "state_name": "Havana",
        "country_id": 56,
        "country_code": "CU",
        "country_name": "Cuba",
        "latitude": "23.06639000",
        "longitude": "-82.29472000",
        "timezone": null,
        "wikiDataId": "Q2234391"
    },
    {
        "id": 21973,
        "name": "Santiago de las Vegas",
        "state_id": 272,
        "state_code": "03",
        "state_name": "Havana",
        "country_id": 56,
        "country_code": "CU",
        "country_name": "Cuba",
        "latitude": "22.97000000",
        "longitude": "-82.38694000",
        "timezone": null,
        "wikiDataId": "Q1747267"
    },
    {
        "id": 21809,
        "name": "Banes",
        "state_id": 279,
        "state_code": "11",
        "state_name": "Holguín",
        "country_id": 56,
        "country_code": "CU",
        "country_name": "Cuba",
        "latitude": "20.96116000",
        "longitude": "-75.72200000",
        "timezone": null,
        "wikiDataId": "Q23804595"
    },
    {
        "id": 21821,
        "name": "Cacocum",
        "state_id": 279,
        "state_code": "11",
        "state_name": "Holguín",
        "country_id": 56,
        "country_code": "CU",
        "country_name": "Cuba",
        "latitude": "20.73775000",
        "longitude": "-76.32574000",
        "timezone": null,
        "wikiDataId": "Q281104"
    },
    {
        "id": 21844,
        "name": "Cueto",
        "state_id": 279,
        "state_code": "11",
        "state_name": "Holguín",
        "country_id": 56,
        "country_code": "CU",
        "country_name": "Cuba",
        "latitude": "20.64855000",
        "longitude": "-75.92967000",
        "timezone": null,
        "wikiDataId": "Q280984"
    },
    {
        "id": 21856,
        "name": "Gibara",
        "state_id": 279,
        "state_code": "11",
        "state_name": "Holguín",
        "country_id": 56,
        "country_code": "CU",
        "country_name": "Cuba",
        "latitude": "21.10988000",
        "longitude": "-76.13145000",
        "timezone": null,
        "wikiDataId": "Q23796526"
    },
    {
        "id": 21868,
        "name": "Holguín",
        "state_id": 279,
        "state_code": "11",
        "state_name": "Holguín",
        "country_id": 56,
        "country_code": "CU",
        "country_name": "Cuba",
        "latitude": "20.88722000",
        "longitude": "-76.26306000",
        "timezone": null,
        "wikiDataId": "Q1563"
    },
    {
        "id": 21877,
        "name": "Jobabo",
        "state_id": 279,
        "state_code": "11",
        "state_name": "Holguín",
        "country_id": 56,
        "country_code": "CU",
        "country_name": "Cuba",
        "latitude": "20.96917000",
        "longitude": "-76.29944000",
        "timezone": null,
        "wikiDataId": "Q179701"
    },
    {
        "id": 21901,
        "name": "Moa",
        "state_id": 279,
        "state_code": "11",
        "state_name": "Holguín",
        "country_id": 56,
        "country_code": "CU",
        "country_name": "Cuba",
        "latitude": "20.65776000",
        "longitude": "-74.95075000",
        "timezone": null,
        "wikiDataId": "Q168965"
    },
    {
        "id": 21905,
        "name": "Municipio de Banes",
        "state_id": 279,
        "state_code": "11",
        "state_name": "Holguín",
        "country_id": 56,
        "country_code": "CU",
        "country_name": "Cuba",
        "latitude": "20.98008000",
        "longitude": "-75.74933000",
        "timezone": null,
        "wikiDataId": "Q806424"
    },
    {
        "id": 21918,
        "name": "Municipio de Holguín",
        "state_id": 279,
        "state_code": "11",
        "state_name": "Holguín",
        "country_id": 56,
        "country_code": "CU",
        "country_name": "Cuba",
        "latitude": "20.91192000",
        "longitude": "-76.27057000",
        "timezone": null,
        "wikiDataId": "Q244154"
    },
    {
        "id": 21956,
        "name": "Sagua de Tánamo",
        "state_id": 279,
        "state_code": "11",
        "state_name": "Holguín",
        "country_id": 56,
        "country_code": "CU",
        "country_name": "Cuba",
        "latitude": "20.58269000",
        "longitude": "-75.24116000",
        "timezone": null,
        "wikiDataId": "Q281213"
    },
    {
        "id": 21962,
        "name": "San Germán",
        "state_id": 279,
        "state_code": "11",
        "state_name": "Holguín",
        "country_id": 56,
        "country_code": "CU",
        "country_name": "Cuba",
        "latitude": "20.60009000",
        "longitude": "-76.13364000",
        "timezone": null,
        "wikiDataId": "Q280929"
    },
    {
        "id": 21937,
        "name": "Nueva Gerona",
        "state_id": 278,
        "state_code": "99",
        "state_name": "Isla de la Juventud",
        "country_id": 56,
        "country_code": "CU",
        "country_name": "Cuba",
        "latitude": "21.88667000",
        "longitude": "-82.80556000",
        "timezone": null,
        "wikiDataId": "Q833946"
    },
    {
        "id": 21805,
        "name": "Amancio",
        "state_id": 281,
        "state_code": "10",
        "state_name": "Las Tunas",
        "country_id": 56,
        "country_code": "CU",
        "country_name": "Cuba",
        "latitude": "20.81914000",
        "longitude": "-77.57958000",
        "timezone": null,
        "wikiDataId": "Q1936063"
    },
    {
        "id": 21837,
        "name": "Colombia",
        "state_id": 281,
        "state_code": "10",
        "state_name": "Las Tunas",
        "country_id": 56,
        "country_code": "CU",
        "country_name": "Cuba",
        "latitude": "20.98812000",
        "longitude": "-77.42598000",
        "timezone": null,
        "wikiDataId": "Q2733738"
    },
    {
        "id": 21874,
        "name": "Jesús Menéndez",
        "state_id": 281,
        "state_code": "10",
        "state_name": "Las Tunas",
        "country_id": 56,
        "country_code": "CU",
        "country_name": "Cuba",
        "latitude": "21.16139000",
        "longitude": "-76.47919000",
        "timezone": null,
        "wikiDataId": "Q1332144"
    },
    {
        "id": 21878,
        "name": "Jobabo",
        "state_id": 281,
        "state_code": "10",
        "state_name": "Las Tunas",
        "country_id": 56,
        "country_code": "CU",
        "country_name": "Cuba",
        "latitude": "20.90748000",
        "longitude": "-77.28194000",
        "timezone": null,
        "wikiDataId": "Q600105"
    },
    {
        "id": 21884,
        "name": "Las Tunas",
        "state_id": 281,
        "state_code": "10",
        "state_name": "Las Tunas",
        "country_id": 56,
        "country_code": "CU",
        "country_name": "Cuba",
        "latitude": "20.96167000",
        "longitude": "-76.95111000",
        "timezone": null,
        "wikiDataId": "Q115527"
    },
    {
        "id": 21890,
        "name": "Manatí",
        "state_id": 281,
        "state_code": "10",
        "state_name": "Las Tunas",
        "country_id": 56,
        "country_code": "CU",
        "country_name": "Cuba",
        "latitude": "21.31070000",
        "longitude": "-76.93403000",
        "timezone": null,
        "wikiDataId": "Q2234381"
    },
    {
        "id": 21947,
        "name": "Puerto Padre",
        "state_id": 281,
        "state_code": "10",
        "state_name": "Las Tunas",
        "country_id": 56,
        "country_code": "CU",
        "country_name": "Cuba",
        "latitude": "21.19517000",
        "longitude": "-76.60358000",
        "timezone": null,
        "wikiDataId": "Q23794731"
    },
    {
        "id": 21802,
        "name": "Alacranes",
        "state_id": 284,
        "state_code": "04",
        "state_name": "Matanzas",
        "country_id": 56,
        "country_code": "CU",
        "country_name": "Cuba",
        "latitude": "22.76719000",
        "longitude": "-81.56803000",
        "timezone": null,
        "wikiDataId": "Q23805305"
    },
    {
        "id": 21817,
        "name": "Bolondrón",
        "state_id": 284,
        "state_code": "04",
        "state_name": "Matanzas",
        "country_id": 56,
        "country_code": "CU",
        "country_name": "Cuba",
        "latitude": "22.76307000",
        "longitude": "-81.44780000",
        "timezone": null,
        "wikiDataId": "Q23803811"
    },
    {
        "id": 21824,
        "name": "Calimete",
        "state_id": 284,
        "state_code": "04",
        "state_name": "Matanzas",
        "country_id": 56,
        "country_code": "CU",
        "country_name": "Cuba",
        "latitude": "22.53420000",
        "longitude": "-80.91105000",
        "timezone": null,
        "wikiDataId": "Q4999"
    },
    {
        "id": 21846,
        "name": "Cárdenas",
        "state_id": 284,
        "state_code": "04",
        "state_name": "Matanzas",
        "country_id": 56,
        "country_code": "CU",
        "country_name": "Cuba",
        "latitude": "23.03661000",
        "longitude": "-81.20596000",
        "timezone": null,
        "wikiDataId": "Q5044"
    },
    {
        "id": 21838,
        "name": "Colón",
        "state_id": 284,
        "state_code": "04",
        "state_name": "Matanzas",
        "country_id": 56,
        "country_code": "CU",
        "country_name": "Cuba",
        "latitude": "22.72064000",
        "longitude": "-80.90492000",
        "timezone": null,
        "wikiDataId": "Q2733738"
    },
    {
        "id": 21870,
        "name": "Jagüey Grande",
        "state_id": 284,
        "state_code": "04",
        "state_name": "Matanzas",
        "country_id": 56,
        "country_code": "CU",
        "country_name": "Cuba",
        "latitude": "22.52694000",
        "longitude": "-81.12861000",
        "timezone": null,
        "wikiDataId": "Q1563"
    },
    {
        "id": 21879,
        "name": "Jovellanos",
        "state_id": 284,
        "state_code": "04",
        "state_name": "Matanzas",
        "country_id": 56,
        "country_code": "CU",
        "country_name": "Cuba",
        "latitude": "22.80375000",
        "longitude": "-81.19127000",
        "timezone": null,
        "wikiDataId": "Q600105"
    },
    {
        "id": 21885,
        "name": "Limonar",
        "state_id": 284,
        "state_code": "04",
        "state_name": "Matanzas",
        "country_id": 56,
        "country_code": "CU",
        "country_name": "Cuba",
        "latitude": "22.95035000",
        "longitude": "-81.41059000",
        "timezone": null,
        "wikiDataId": "Q2737469"
    },
    {
        "id": 21886,
        "name": "Los Arabos",
        "state_id": 284,
        "state_code": "04",
        "state_name": "Matanzas",
        "country_id": 56,
        "country_code": "CU",
        "country_name": "Cuba",
        "latitude": "22.72969000",
        "longitude": "-80.72081000",
        "timezone": null,
        "wikiDataId": "Q2737469"
    },
    {
        "id": 21891,
        "name": "Manguito",
        "state_id": 284,
        "state_code": "04",
        "state_name": "Matanzas",
        "country_id": 56,
        "country_code": "CU",
        "country_name": "Cuba",
        "latitude": "22.58733000",
        "longitude": "-80.91451000",
        "timezone": null,
        "wikiDataId": "Q23794180"
    },
    {
        "id": 21896,
        "name": "Martí",
        "state_id": 284,
        "state_code": "04",
        "state_name": "Matanzas",
        "country_id": 56,
        "country_code": "CU",
        "country_name": "Cuba",
        "latitude": "22.94714000",
        "longitude": "-80.91902000",
        "timezone": null,
        "wikiDataId": "Q23793608"
    },
    {
        "id": 21897,
        "name": "Matanzas",
        "state_id": 284,
        "state_code": "04",
        "state_name": "Matanzas",
        "country_id": 56,
        "country_code": "CU",
        "country_name": "Cuba",
        "latitude": "23.04111000",
        "longitude": "-81.57750000",
        "timezone": null,
        "wikiDataId": "Q23793608"
    },
    {
        "id": 21912,
        "name": "Municipio de Cárdenas",
        "state_id": 284,
        "state_code": "04",
        "state_name": "Matanzas",
        "country_id": 56,
        "country_code": "CU",
        "country_name": "Cuba",
        "latitude": "22.98978000",
        "longitude": "-81.23520000",
        "timezone": null,
        "wikiDataId": "Q986387"
    },
    {
        "id": 21924,
        "name": "Municipio de Matanzas",
        "state_id": 284,
        "state_code": "04",
        "state_name": "Matanzas",
        "country_id": 56,
        "country_code": "CU",
        "country_name": "Cuba",
        "latitude": "23.05000000",
        "longitude": "-81.58333000",
        "timezone": null,
        "wikiDataId": "Q272471"
    },
    {
        "id": 21941,
        "name": "Pedro Betancourt",
        "state_id": 284,
        "state_code": "04",
        "state_name": "Matanzas",
        "country_id": 56,
        "country_code": "CU",
        "country_name": "Cuba",
        "latitude": "22.72709000",
        "longitude": "-81.28963000",
        "timezone": null,
        "wikiDataId": "Q5008"
    },
    {
        "id": 21942,
        "name": "Perico",
        "state_id": 284,
        "state_code": "04",
        "state_name": "Matanzas",
        "country_id": 56,
        "country_code": "CU",
        "country_name": "Cuba",
        "latitude": "22.76987000",
        "longitude": "-81.01830000",
        "timezone": null,
        "wikiDataId": "Q5008"
    },
    {
        "id": 21979,
        "name": "Unión de Reyes",
        "state_id": 284,
        "state_code": "04",
        "state_name": "Matanzas",
        "country_id": 56,
        "country_code": "CU",
        "country_name": "Cuba",
        "latitude": "22.79505000",
        "longitude": "-81.53617000",
        "timezone": null,
        "wikiDataId": "Q20600096"
    },
    {
        "id": 21980,
        "name": "Varadero",
        "state_id": 284,
        "state_code": "04",
        "state_name": "Matanzas",
        "country_id": 56,
        "country_code": "CU",
        "country_name": "Cuba",
        "latitude": "23.15678000",
        "longitude": "-81.24441000",
        "timezone": null,
        "wikiDataId": "Q726751"
    },
    {
        "id": 21813,
        "name": "Batabanó",
        "state_id": 276,
        "state_code": "16",
        "state_name": "Mayabeque",
        "country_id": 56,
        "country_code": "CU",
        "country_name": "Cuba",
        "latitude": "22.71794000",
        "longitude": "-82.28965000",
        "timezone": null,
        "wikiDataId": "Q809538"
    },
    {
        "id": 21816,
        "name": "Bejucal",
        "state_id": 276,
        "state_code": "16",
        "state_name": "Mayabeque",
        "country_id": 56,
        "country_code": "CU",
        "country_name": "Cuba",
        "latitude": "22.92861000",
        "longitude": "-82.38861000",
        "timezone": null,
        "wikiDataId": "Q814979"
    },
    {
        "id": 21864,
        "name": "Güines",
        "state_id": 276,
        "state_code": "16",
        "state_name": "Mayabeque",
        "country_id": 56,
        "country_code": "CU",
        "country_name": "Cuba",
        "latitude": "22.83727000",
        "longitude": "-82.02641000",
        "timezone": null,
        "wikiDataId": "Q1935474"
    },
    {
        "id": 21871,
        "name": "Jamaica",
        "state_id": 276,
        "state_code": "16",
        "state_name": "Mayabeque",
        "country_id": 56,
        "country_code": "CU",
        "country_name": "Cuba",
        "latitude": "22.97559000",
        "longitude": "-82.16852000",
        "timezone": null,
        "wikiDataId": "Q23795053"
    },
    {
        "id": 21872,
        "name": "Jaruco",
        "state_id": 276,
        "state_code": "16",
        "state_name": "Mayabeque",
        "country_id": 56,
        "country_code": "CU",
        "country_name": "Cuba",
        "latitude": "23.04419000",
        "longitude": "-82.00919000",
        "timezone": null,
        "wikiDataId": "Q23795053"
    },
    {
        "id": 21881,
        "name": "La Salud",
        "state_id": 276,
        "state_code": "16",
        "state_name": "Mayabeque",
        "country_id": 56,
        "country_code": "CU",
        "country_name": "Cuba",
        "latitude": "22.87199000",
        "longitude": "-82.42328000",
        "timezone": null,
        "wikiDataId": "Q23794891"
    },
    {
        "id": 21888,
        "name": "Madruga",
        "state_id": 276,
        "state_code": "16",
        "state_name": "Mayabeque",
        "country_id": 56,
        "country_code": "CU",
        "country_name": "Cuba",
        "latitude": "22.91000000",
        "longitude": "-81.85639000",
        "timezone": null,
        "wikiDataId": "Q2737469"
    },
    {
        "id": 21917,
        "name": "Municipio de Güines",
        "state_id": 276,
        "state_code": "16",
        "state_name": "Mayabeque",
        "country_id": 56,
        "country_code": "CU",
        "country_name": "Cuba",
        "latitude": "22.78712000",
        "longitude": "-82.01602000",
        "timezone": null,
        "wikiDataId": "Q270297"
    },
    {
        "id": 21925,
        "name": "Municipio de Melena del Sur",
        "state_id": 276,
        "state_code": "16",
        "state_name": "Mayabeque",
        "country_id": 56,
        "country_code": "CU",
        "country_name": "Cuba",
        "latitude": "22.78821000",
        "longitude": "-82.15113000",
        "timezone": null,
        "wikiDataId": "Q272471"
    },
    {
        "id": 21949,
        "name": "Quivicán",
        "state_id": 276,
        "state_code": "16",
        "state_name": "Mayabeque",
        "country_id": 56,
        "country_code": "CU",
        "country_name": "Cuba",
        "latitude": "22.82313000",
        "longitude": "-82.35558000",
        "timezone": null,
        "wikiDataId": "Q23794731"
    },
    {
        "id": 21963,
        "name": "San José de las Lajas",
        "state_id": 276,
        "state_code": "16",
        "state_name": "Mayabeque",
        "country_id": 56,
        "country_code": "CU",
        "country_name": "Cuba",
        "latitude": "22.96139000",
        "longitude": "-82.15111000",
        "timezone": null,
        "wikiDataId": "Q23789806"
    },
    {
        "id": 21967,
        "name": "San Nicolás de Bari",
        "state_id": 276,
        "state_code": "16",
        "state_name": "Mayabeque",
        "country_id": 56,
        "country_code": "CU",
        "country_name": "Cuba",
        "latitude": "22.78444000",
        "longitude": "-81.91333000",
        "timezone": null,
        "wikiDataId": "Q2234391"
    },
    {
        "id": 21970,
        "name": "Santa Cruz del Norte",
        "state_id": 276,
        "state_code": "16",
        "state_name": "Mayabeque",
        "country_id": 56,
        "country_code": "CU",
        "country_name": "Cuba",
        "latitude": "23.15424000",
        "longitude": "-81.92556000",
        "timezone": null,
        "wikiDataId": "Q12896967"
    },
    {
        "id": 21840,
        "name": "Consolación del Sur",
        "state_id": 277,
        "state_code": "01",
        "state_name": "Pinar del Río",
        "country_id": 56,
        "country_code": "CU",
        "country_name": "Cuba",
        "latitude": "22.50419000",
        "longitude": "-83.51442000",
        "timezone": null,
        "wikiDataId": "Q23798614"
    },
    {
        "id": 21859,
        "name": "Guane",
        "state_id": 277,
        "state_code": "01",
        "state_name": "Pinar del Río",
        "country_id": 56,
        "country_code": "CU",
        "country_name": "Cuba",
        "latitude": "22.20179000",
        "longitude": "-84.08484000",
        "timezone": null,
        "wikiDataId": "Q23796097"
    },
    {
        "id": 21887,
        "name": "Los Palacios",
        "state_id": 277,
        "state_code": "01",
        "state_name": "Pinar del Río",
        "country_id": 56,
        "country_code": "CU",
        "country_name": "Cuba",
        "latitude": "22.58882000",
        "longitude": "-83.24671000",
        "timezone": null,
        "wikiDataId": "Q2737469"
    },
    {
        "id": 21893,
        "name": "Mantua",
        "state_id": 277,
        "state_code": "01",
        "state_name": "Pinar del Río",
        "country_id": 56,
        "country_code": "CU",
        "country_name": "Cuba",
        "latitude": "22.29058000",
        "longitude": "-84.28599000",
        "timezone": null,
        "wikiDataId": "Q23793608"
    },
    {
        "id": 21900,
        "name": "Minas de Matahambre",
        "state_id": 277,
        "state_code": "01",
        "state_name": "Pinar del Río",
        "country_id": 56,
        "country_code": "CU",
        "country_name": "Cuba",
        "latitude": "22.58691000",
        "longitude": "-83.94551000",
        "timezone": null,
        "wikiDataId": "Q2204246"
    },
    {
        "id": 21911,
        "name": "Municipio de Consolación del Sur",
        "state_id": 277,
        "state_code": "01",
        "state_name": "Pinar del Río",
        "country_id": 56,
        "country_code": "CU",
        "country_name": "Cuba",
        "latitude": "22.44095000",
        "longitude": "-83.41985000",
        "timezone": null,
        "wikiDataId": "Q1127452"
    },
    {
        "id": 21915,
        "name": "Municipio de Guane",
        "state_id": 277,
        "state_code": "01",
        "state_name": "Pinar del Río",
        "country_id": 56,
        "country_code": "CU",
        "country_name": "Cuba",
        "latitude": "22.24591000",
        "longitude": "-84.03660000",
        "timezone": null,
        "wikiDataId": "Q535537"
    },
    {
        "id": 21920,
        "name": "Municipio de La Palma",
        "state_id": 277,
        "state_code": "01",
        "state_name": "Pinar del Río",
        "country_id": 56,
        "country_code": "CU",
        "country_name": "Cuba",
        "latitude": "22.75000000",
        "longitude": "-83.55000000",
        "timezone": null,
        "wikiDataId": "Q2234325"
    },
    {
        "id": 21921,
        "name": "Municipio de Los Palacios",
        "state_id": 277,
        "state_code": "01",
        "state_name": "Pinar del Río",
        "country_id": 56,
        "country_code": "CU",
        "country_name": "Cuba",
        "latitude": "22.58333000",
        "longitude": "-83.25000000",
        "timezone": null,
        "wikiDataId": "Q1870561"
    },
    {
        "id": 21943,
        "name": "Pinar del Río",
        "state_id": 277,
        "state_code": "01",
        "state_name": "Pinar del Río",
        "country_id": 56,
        "country_code": "CU",
        "country_name": "Cuba",
        "latitude": "22.41667000",
        "longitude": "-83.69667000",
        "timezone": null,
        "wikiDataId": "Q5008"
    },
    {
        "id": 21946,
        "name": "Puerto Esperanza",
        "state_id": 277,
        "state_code": "01",
        "state_name": "Pinar del Río",
        "country_id": 56,
        "country_code": "CU",
        "country_name": "Cuba",
        "latitude": "22.77041000",
        "longitude": "-83.73138000",
        "timezone": null,
        "wikiDataId": "Q23794731"
    },
    {
        "id": 21961,
        "name": "San Diego de Los Baños",
        "state_id": 277,
        "state_code": "01",
        "state_name": "Pinar del Río",
        "country_id": 56,
        "country_code": "CU",
        "country_name": "Cuba",
        "latitude": "22.64667000",
        "longitude": "-83.36972000",
        "timezone": null,
        "wikiDataId": "Q23789756"
    },
    {
        "id": 21965,
        "name": "San Luis",
        "state_id": 277,
        "state_code": "01",
        "state_name": "Pinar del Río",
        "country_id": 56,
        "country_code": "CU",
        "country_name": "Cuba",
        "latitude": "22.27898000",
        "longitude": "-83.75956000",
        "timezone": null,
        "wikiDataId": "Q555956"
    },
    {
        "id": 21983,
        "name": "Viñales",
        "state_id": 277,
        "state_code": "01",
        "state_name": "Pinar del Río",
        "country_id": 56,
        "country_code": "CU",
        "country_name": "Cuba",
        "latitude": "22.61892000",
        "longitude": "-83.70694000",
        "timezone": null,
        "wikiDataId": "Q643047"
    },
    {
        "id": 21819,
        "name": "Cabaiguán",
        "state_id": 274,
        "state_code": "07",
        "state_name": "Sancti Spíritus",
        "country_id": 56,
        "country_code": "CU",
        "country_name": "Cuba",
        "latitude": "22.07874000",
        "longitude": "-79.49726000",
        "timezone": null,
        "wikiDataId": "Q1936076"
    },
    {
        "id": 21839,
        "name": "Condado",
        "state_id": 274,
        "state_code": "07",
        "state_name": "Sancti Spíritus",
        "country_id": 56,
        "country_code": "CU",
        "country_name": "Cuba",
        "latitude": "21.87670000",
        "longitude": "-79.84014000",
        "timezone": null,
        "wikiDataId": "Q23798614"
    },
    {
        "id": 21855,
        "name": "Fomento",
        "state_id": 274,
        "state_code": "07",
        "state_name": "Sancti Spíritus",
        "country_id": 56,
        "country_code": "CU",
        "country_name": "Cuba",
        "latitude": "22.10475000",
        "longitude": "-79.72141000",
        "timezone": null,
        "wikiDataId": "Q1007702"
    },
    {
        "id": 21861,
        "name": "Guayos",
        "state_id": 274,
        "state_code": "07",
        "state_name": "Sancti Spíritus",
        "country_id": 56,
        "country_code": "CU",
        "country_name": "Cuba",
        "latitude": "22.04956000",
        "longitude": "-79.46106000",
        "timezone": null,
        "wikiDataId": "Q5614403"
    },
    {
        "id": 21873,
        "name": "Jatibonico",
        "state_id": 274,
        "state_code": "07",
        "state_name": "Sancti Spíritus",
        "country_id": 56,
        "country_code": "CU",
        "country_name": "Cuba",
        "latitude": "21.94333000",
        "longitude": "-79.16906000",
        "timezone": null,
        "wikiDataId": "Q23795053"
    },
    {
        "id": 21882,
        "name": "La Sierpe",
        "state_id": 274,
        "state_code": "07",
        "state_name": "Sancti Spíritus",
        "country_id": 56,
        "country_code": "CU",
        "country_name": "Cuba",
        "latitude": "21.77241000",
        "longitude": "-79.26832000",
        "timezone": null,
        "wikiDataId": "Q861630"
    },
    {
        "id": 21908,
        "name": "Municipio de Cabaiguán",
        "state_id": 274,
        "state_code": "07",
        "state_name": "Sancti Spíritus",
        "country_id": 56,
        "country_code": "CU",
        "country_name": "Cuba",
        "latitude": "22.08333000",
        "longitude": "-79.50000000",
        "timezone": null,
        "wikiDataId": "Q862728"
    },
    {
        "id": 21919,
        "name": "Municipio de Jatibonico",
        "state_id": 274,
        "state_code": "07",
        "state_name": "Sancti Spíritus",
        "country_id": 56,
        "country_code": "CU",
        "country_name": "Cuba",
        "latitude": "21.93333000",
        "longitude": "-79.16667000",
        "timezone": null,
        "wikiDataId": "Q861575"
    },
    {
        "id": 21932,
        "name": "Municipio de Sancti Spíritus",
        "state_id": 274,
        "state_code": "07",
        "state_name": "Sancti Spíritus",
        "country_id": 56,
        "country_code": "CU",
        "country_name": "Cuba",
        "latitude": "21.82176000",
        "longitude": "-79.51036000",
        "timezone": null,
        "wikiDataId": "Q845720"
    },
    {
        "id": 21935,
        "name": "Municipio de Trinidad",
        "state_id": 274,
        "state_code": "07",
        "state_name": "Sancti Spíritus",
        "country_id": 56,
        "country_code": "CU",
        "country_name": "Cuba",
        "latitude": "21.83195000",
        "longitude": "-79.88362000",
        "timezone": null,
        "wikiDataId": "Q319272"
    },
    {
        "id": 21968,
        "name": "Sancti Spíritus",
        "state_id": 274,
        "state_code": "07",
        "state_name": "Sancti Spíritus",
        "country_id": 56,
        "country_code": "CU",
        "country_name": "Cuba",
        "latitude": "21.92972000",
        "longitude": "-79.44250000",
        "timezone": null,
        "wikiDataId": "Q2234391"
    },
    {
        "id": 21977,
        "name": "Topes de Collantes",
        "state_id": 274,
        "state_code": "07",
        "state_name": "Sancti Spíritus",
        "country_id": 56,
        "country_code": "CU",
        "country_name": "Cuba",
        "latitude": "21.91524000",
        "longitude": "-80.01929000",
        "timezone": null,
        "wikiDataId": "Q23787154"
    },
    {
        "id": 21978,
        "name": "Trinidad",
        "state_id": 274,
        "state_code": "07",
        "state_name": "Sancti Spíritus",
        "country_id": 56,
        "country_code": "CU",
        "country_name": "Cuba",
        "latitude": "21.80224000",
        "longitude": "-79.98467000",
        "timezone": null,
        "wikiDataId": "Q31877141"
    },
    {
        "id": 21984,
        "name": "Yaguajay",
        "state_id": 274,
        "state_code": "07",
        "state_name": "Sancti Spíritus",
        "country_id": 56,
        "country_code": "CU",
        "country_name": "Cuba",
        "latitude": "22.32691000",
        "longitude": "-79.23567000",
        "timezone": null,
        "wikiDataId": "Q643047"
    },
    {
        "id": 21986,
        "name": "Zaza del Medio",
        "state_id": 274,
        "state_code": "07",
        "state_name": "Sancti Spíritus",
        "country_id": 56,
        "country_code": "CU",
        "country_name": "Cuba",
        "latitude": "21.99712000",
        "longitude": "-79.36678000",
        "timezone": null,
        "wikiDataId": "Q20600881"
    },
    {
        "id": 21841,
        "name": "Contramaestre",
        "state_id": 273,
        "state_code": "13",
        "state_name": "Santiago de Cuba",
        "country_id": 56,
        "country_code": "CU",
        "country_name": "Cuba",
        "latitude": "20.29879000",
        "longitude": "-76.24511000",
        "timezone": null,
        "wikiDataId": "Q1129122"
    },
    {
        "id": 21849,
        "name": "El Cobre",
        "state_id": 273,
        "state_code": "13",
        "state_name": "Santiago de Cuba",
        "country_id": 56,
        "country_code": "CU",
        "country_name": "Cuba",
        "latitude": "20.04850000",
        "longitude": "-75.94579000",
        "timezone": null,
        "wikiDataId": "Q23797650"
    },
    {
        "id": 21929,
        "name": "Municipio de Palma Soriano",
        "state_id": 273,
        "state_code": "13",
        "state_name": "Santiago de Cuba",
        "country_id": 56,
        "country_code": "CU",
        "country_name": "Cuba",
        "latitude": "20.20897000",
        "longitude": "-76.05776000",
        "timezone": null,
        "wikiDataId": "Q742835"
    },
    {
        "id": 21934,
        "name": "Municipio de Santiago de Cuba",
        "state_id": 273,
        "state_code": "13",
        "state_name": "Santiago de Cuba",
        "country_id": 56,
        "country_code": "CU",
        "country_name": "Cuba",
        "latitude": "20.00617000",
        "longitude": "-75.70816000",
        "timezone": null,
        "wikiDataId": "Q117040"
    },
    {
        "id": 21939,
        "name": "Palma Soriano",
        "state_id": 273,
        "state_code": "13",
        "state_name": "Santiago de Cuba",
        "country_id": 56,
        "country_code": "CU",
        "country_name": "Cuba",
        "latitude": "20.21130000",
        "longitude": "-75.99362000",
        "timezone": null,
        "wikiDataId": "Q12895071"
    },
    {
        "id": 21964,
        "name": "San Luis",
        "state_id": 273,
        "state_code": "13",
        "state_name": "Santiago de Cuba",
        "country_id": 56,
        "country_code": "CU",
        "country_name": "Cuba",
        "latitude": "20.18809000",
        "longitude": "-75.85031000",
        "timezone": null,
        "wikiDataId": "Q555956"
    },
    {
        "id": 21972,
        "name": "Santiago de Cuba",
        "state_id": 273,
        "state_code": "13",
        "state_name": "Santiago de Cuba",
        "country_id": 56,
        "country_code": "CU",
        "country_name": "Cuba",
        "latitude": "20.02083000",
        "longitude": "-75.82667000",
        "timezone": null,
        "wikiDataId": "Q12896967"
    },
    {
        "id": 21822,
        "name": "Caibarién",
        "state_id": 280,
        "state_code": "05",
        "state_name": "Villa Clara",
        "country_id": 56,
        "country_code": "CU",
        "country_name": "Cuba",
        "latitude": "22.51996000",
        "longitude": "-79.46599000",
        "timezone": null,
        "wikiDataId": "Q289328"
    },
    {
        "id": 21823,
        "name": "Calabazar de Sagua",
        "state_id": 280,
        "state_code": "05",
        "state_name": "Villa Clara",
        "country_id": 56,
        "country_code": "CU",
        "country_name": "Cuba",
        "latitude": "22.64515000",
        "longitude": "-79.89510000",
        "timezone": null,
        "wikiDataId": "Q289328"
    },
    {
        "id": 21826,
        "name": "Camajuaní",
        "state_id": 280,
        "state_code": "05",
        "state_name": "Villa Clara",
        "country_id": 56,
        "country_code": "CU",
        "country_name": "Cuba",
        "latitude": "22.48333000",
        "longitude": "-79.75000000",
        "timezone": null,
        "wikiDataId": "Q280628"
    },
    {
        "id": 21835,
        "name": "Cifuentes",
        "state_id": 280,
        "state_code": "05",
        "state_name": "Villa Clara",
        "country_id": 56,
        "country_code": "CU",
        "country_name": "Cuba",
        "latitude": "22.64930000",
        "longitude": "-80.04935000",
        "timezone": null,
        "wikiDataId": "Q1060628"
    },
    {
        "id": 21842,
        "name": "Corralillo",
        "state_id": 280,
        "state_code": "05",
        "state_name": "Villa Clara",
        "country_id": 56,
        "country_code": "CU",
        "country_name": "Cuba",
        "latitude": "22.98212000",
        "longitude": "-80.58556000",
        "timezone": null,
        "wikiDataId": "Q1129122"
    },
    {
        "id": 21850,
        "name": "Encrucijada",
        "state_id": 280,
        "state_code": "05",
        "state_name": "Villa Clara",
        "country_id": 56,
        "country_code": "CU",
        "country_name": "Cuba",
        "latitude": "22.61802000",
        "longitude": "-79.86603000",
        "timezone": null,
        "wikiDataId": "Q23797650"
    },
    {
        "id": 21852,
        "name": "Esperanza",
        "state_id": 280,
        "state_code": "05",
        "state_name": "Villa Clara",
        "country_id": 56,
        "country_code": "CU",
        "country_name": "Cuba",
        "latitude": "22.44680000",
        "longitude": "-80.09711000",
        "timezone": null,
        "wikiDataId": "Q23796982"
    },
    {
        "id": 21869,
        "name": "Isabela de Sagua",
        "state_id": 280,
        "state_code": "05",
        "state_name": "Villa Clara",
        "country_id": 56,
        "country_code": "CU",
        "country_name": "Cuba",
        "latitude": "22.93924000",
        "longitude": "-80.01185000",
        "timezone": null,
        "wikiDataId": "Q1563"
    },
    {
        "id": 21892,
        "name": "Manicaragua",
        "state_id": 280,
        "state_code": "05",
        "state_name": "Villa Clara",
        "country_id": 56,
        "country_code": "CU",
        "country_name": "Cuba",
        "latitude": "22.15021000",
        "longitude": "-79.97867000",
        "timezone": null,
        "wikiDataId": "Q2573328"
    },
    {
        "id": 21930,
        "name": "Municipio de Placetas",
        "state_id": 280,
        "state_code": "05",
        "state_name": "Villa Clara",
        "country_id": 56,
        "country_code": "CU",
        "country_name": "Cuba",
        "latitude": "22.22248000",
        "longitude": "-79.74268000",
        "timezone": null,
        "wikiDataId": "Q861701"
    },
    {
        "id": 21933,
        "name": "Municipio de Santa Clara",
        "state_id": 280,
        "state_code": "05",
        "state_name": "Villa Clara",
        "country_id": 56,
        "country_code": "CU",
        "country_name": "Cuba",
        "latitude": "22.40000000",
        "longitude": "-79.96667000",
        "timezone": null,
        "wikiDataId": "Q211590"
    },
    {
        "id": 21944,
        "name": "Placetas",
        "state_id": 280,
        "state_code": "05",
        "state_name": "Villa Clara",
        "country_id": 56,
        "country_code": "CU",
        "country_name": "Cuba",
        "latitude": "22.31184000",
        "longitude": "-79.65440000",
        "timezone": null,
        "wikiDataId": "Q5008"
    },
    {
        "id": 21948,
        "name": "Quemado de Güines",
        "state_id": 280,
        "state_code": "05",
        "state_name": "Villa Clara",
        "country_id": 56,
        "country_code": "CU",
        "country_name": "Cuba",
        "latitude": "22.78816000",
        "longitude": "-80.25226000",
        "timezone": null,
        "wikiDataId": "Q23794731"
    },
    {
        "id": 21950,
        "name": "Rancho Veloz",
        "state_id": 280,
        "state_code": "05",
        "state_name": "Villa Clara",
        "country_id": 56,
        "country_code": "CU",
        "country_name": "Cuba",
        "latitude": "22.88042000",
        "longitude": "-80.39098000",
        "timezone": null,
        "wikiDataId": "Q21610104"
    },
    {
        "id": 21951,
        "name": "Ranchuelo",
        "state_id": 280,
        "state_code": "05",
        "state_name": "Villa Clara",
        "country_id": 56,
        "country_code": "CU",
        "country_name": "Cuba",
        "latitude": "22.37266000",
        "longitude": "-80.15046000",
        "timezone": null,
        "wikiDataId": "Q21610104"
    },
    {
        "id": 21957,
        "name": "Sagua la Grande",
        "state_id": 280,
        "state_code": "05",
        "state_name": "Villa Clara",
        "country_id": 56,
        "country_code": "CU",
        "country_name": "Cuba",
        "latitude": "22.80667000",
        "longitude": "-80.07556000",
        "timezone": null,
        "wikiDataId": "Q281213"
    },
    {
        "id": 21969,
        "name": "Santa Clara",
        "state_id": 280,
        "state_code": "05",
        "state_name": "Villa Clara",
        "country_id": 56,
        "country_code": "CU",
        "country_name": "Cuba",
        "latitude": "22.40694000",
        "longitude": "-79.96472000",
        "timezone": null,
        "wikiDataId": "Q2234391"
    },
    {
        "id": 21974,
        "name": "Santo Domingo",
        "state_id": 280,
        "state_code": "05",
        "state_name": "Villa Clara",
        "country_id": 56,
        "country_code": "CU",
        "country_name": "Cuba",
        "latitude": "22.58677000",
        "longitude": "-80.24261000",
        "timezone": null,
        "wikiDataId": "Q1747267"
    }
]