[
    {
        "id": 22102,
        "name": "Áchna",
        "state_id": 749,
        "state_code": "04",
        "state_name": "Famagusta (Mağusa)",
        "country_id": 57,
        "country_code": "CY",
        "country_name": "Cyprus",
        "latitude": "35.05515000",
        "longitude": "33.78388000",
        "timezone": null,
        "wikiDataId": "Q81490"
    },
    {
        "id": 22014,
        "name": "Ammochostos Municipality",
        "state_id": 749,
        "state_code": "04",
        "state_name": "Famagusta (Mağusa)",
        "country_id": 57,
        "country_code": "CY",
        "country_name": "Cyprus",
        "latitude": "35.11755000",
        "longitude": "33.94335000",
        "timezone": null,
        "wikiDataId": "Q56118759"
    },
    {
        "id": 22020,
        "name": "Avgórou",
        "state_id": 749,
        "state_code": "04",
        "state_name": "Famagusta (Mağusa)",
        "country_id": 57,
        "country_code": "CY",
        "country_name": "Cyprus",
        "latitude": "35.03615000",
        "longitude": "33.83918000",
        "timezone": null,
        "wikiDataId": "Q3560533"
    },
    {
        "id": 22021,
        "name": "Ayia Napa",
        "state_id": 749,
        "state_code": "04",
        "state_name": "Famagusta (Mağusa)",
        "country_id": 57,
        "country_code": "CY",
        "country_name": "Cyprus",
        "latitude": "34.98213000",
        "longitude": "34.00183000",
        "timezone": null,
        "wikiDataId": "Q393593"
    },
    {
        "id": 22023,
        "name": "Derýneia",
        "state_id": 749,
        "state_code": "04",
        "state_name": "Famagusta (Mağusa)",
        "country_id": 57,
        "country_code": "CY",
        "country_name": "Cyprus",
        "latitude": "35.06484000",
        "longitude": "33.96083000",
        "timezone": null,
        "wikiDataId": "Q777760"
    },
    {
        "id": 22029,
        "name": "Famagusta",
        "state_id": 749,
        "state_code": "04",
        "state_name": "Famagusta (Mağusa)",
        "country_id": 57,
        "country_code": "CY",
        "country_name": "Cyprus",
        "latitude": "35.12054000",
        "longitude": "33.93894000",
        "timezone": null,
        "wikiDataId": "Q193190"
    },
    {
        "id": 22030,
        "name": "Frénaros",
        "state_id": 749,
        "state_code": "04",
        "state_name": "Famagusta (Mağusa)",
        "country_id": 57,
        "country_code": "CY",
        "country_name": "Cyprus",
        "latitude": "35.04121000",
        "longitude": "33.92242000",
        "timezone": null,
        "wikiDataId": "Q1455222"
    },
    {
        "id": 22052,
        "name": "Lefkónoiko",
        "state_id": 749,
        "state_code": "04",
        "state_name": "Famagusta (Mağusa)",
        "country_id": 57,
        "country_code": "CY",
        "country_name": "Cyprus",
        "latitude": "35.25980000",
        "longitude": "33.73189000",
        "timezone": null,
        "wikiDataId": "Q171882"
    },
    {
        "id": 22054,
        "name": "Leonárisso",
        "state_id": 749,
        "state_code": "04",
        "state_name": "Famagusta (Mağusa)",
        "country_id": 57,
        "country_code": "CY",
        "country_name": "Cyprus",
        "latitude": "35.46892000",
        "longitude": "34.13886000",
        "timezone": null,
        "wikiDataId": "Q28870916"
    },
    {
        "id": 22056,
        "name": "Liopétri",
        "state_id": 749,
        "state_code": "04",
        "state_name": "Famagusta (Mağusa)",
        "country_id": 57,
        "country_code": "CY",
        "country_name": "Cyprus",
        "latitude": "35.00885000",
        "longitude": "33.89256000",
        "timezone": null,
        "wikiDataId": "Q546060"
    },
    {
        "id": 22072,
        "name": "Paralímni",
        "state_id": 749,
        "state_code": "04",
        "state_name": "Famagusta (Mağusa)",
        "country_id": 57,
        "country_code": "CY",
        "country_name": "Cyprus",
        "latitude": "35.03945000",
        "longitude": "33.98181000",
        "timezone": null,
        "wikiDataId": "Q954174"
    },
    {
        "id": 22078,
        "name": "Protaras",
        "state_id": 749,
        "state_code": "04",
        "state_name": "Famagusta (Mağusa)",
        "country_id": 57,
        "country_code": "CY",
        "country_name": "Cyprus",
        "latitude": "35.01250000",
        "longitude": "34.05833000",
        "timezone": null,
        "wikiDataId": "Q2113430"
    },
    {
        "id": 22090,
        "name": "Rizokárpaso",
        "state_id": 749,
        "state_code": "04",
        "state_name": "Famagusta (Mağusa)",
        "country_id": 57,
        "country_code": "CY",
        "country_name": "Cyprus",
        "latitude": "35.59719000",
        "longitude": "34.37916000",
        "timezone": null,
        "wikiDataId": "Q1968566"
    },
    {
        "id": 22095,
        "name": "Tríkomo",
        "state_id": 749,
        "state_code": "04",
        "state_name": "Famagusta (Mağusa)",
        "country_id": 57,
        "country_code": "CY",
        "country_name": "Cyprus",
        "latitude": "35.28628000",
        "longitude": "33.89167000",
        "timezone": null,
        "wikiDataId": "Q7846552"
    },
    {
        "id": 22045,
        "name": "Kyrenia",
        "state_id": 744,
        "state_code": "06",
        "state_name": "Kyrenia (Keryneia)",
        "country_id": 57,
        "country_code": "CY",
        "country_name": "Cyprus",
        "latitude": "35.33634000",
        "longitude": "33.31729000",
        "timezone": null,
        "wikiDataId": "Q206760"
    },
    {
        "id": 22046,
        "name": "Kyrenia Municipality",
        "state_id": 744,
        "state_code": "06",
        "state_name": "Kyrenia (Keryneia)",
        "country_id": 57,
        "country_code": "CY",
        "country_name": "Cyprus",
        "latitude": "35.33672000",
        "longitude": "33.31504000",
        "timezone": null,
        "wikiDataId": "Q56241597"
    },
    {
        "id": 22059,
        "name": "Lápithos",
        "state_id": 744,
        "state_code": "06",
        "state_name": "Kyrenia (Keryneia)",
        "country_id": 57,
        "country_code": "CY",
        "country_name": "Cyprus",
        "latitude": "35.33823000",
        "longitude": "33.17368000",
        "timezone": null,
        "wikiDataId": "Q6710344"
    },
    {
        "id": 22015,
        "name": "Aradíppou",
        "state_id": 747,
        "state_code": "03",
        "state_name": "Larnaca (Larnaka)",
        "country_id": 57,
        "country_code": "CY",
        "country_name": "Cyprus",
        "latitude": "34.95151000",
        "longitude": "33.59199000",
        "timezone": null,
        "wikiDataId": "Q2009604"
    },
    {
        "id": 22019,
        "name": "Athíenou",
        "state_id": 747,
        "state_code": "03",
        "state_name": "Larnaca (Larnaka)",
        "country_id": 57,
        "country_code": "CY",
        "country_name": "Cyprus",
        "latitude": "35.06180000",
        "longitude": "33.54156000",
        "timezone": null,
        "wikiDataId": "Q570146"
    },
    {
        "id": 22024,
        "name": "Dhromolaxia",
        "state_id": 747,
        "state_code": "03",
        "state_name": "Larnaca (Larnaka)",
        "country_id": 57,
        "country_code": "CY",
        "country_name": "Cyprus",
        "latitude": "34.87551000",
        "longitude": "33.58684000",
        "timezone": null,
        "wikiDataId": "Q5308294"
    },
    {
        "id": 22049,
        "name": "Kíti",
        "state_id": 747,
        "state_code": "03",
        "state_name": "Larnaca (Larnaka)",
        "country_id": 57,
        "country_code": "CY",
        "country_name": "Cyprus",
        "latitude": "34.84696000",
        "longitude": "33.57344000",
        "timezone": null,
        "wikiDataId": "Q6418213"
    },
    {
        "id": 22039,
        "name": "Kofínou",
        "state_id": 747,
        "state_code": "03",
        "state_name": "Larnaca (Larnaka)",
        "country_id": 57,
        "country_code": "CY",
        "country_name": "Cyprus",
        "latitude": "34.82449000",
        "longitude": "33.39130000",
        "timezone": null,
        "wikiDataId": "Q6425729"
    },
    {
        "id": 22042,
        "name": "Kolossi",
        "state_id": 747,
        "state_code": "03",
        "state_name": "Larnaca (Larnaka)",
        "country_id": 57,
        "country_code": "CY",
        "country_name": "Cyprus",
        "latitude": "34.66865000",
        "longitude": "32.93375000",
        "timezone": null,
        "wikiDataId": "Q3353547"
    },
    {
        "id": 22050,
        "name": "Kórnos",
        "state_id": 747,
        "state_code": "03",
        "state_name": "Larnaca (Larnaka)",
        "country_id": 57,
        "country_code": "CY",
        "country_name": "Cyprus",
        "latitude": "34.92396000",
        "longitude": "33.39764000",
        "timezone": null,
        "wikiDataId": "Q6432453"
    },
    {
        "id": 22051,
        "name": "Larnaca",
        "state_id": 747,
        "state_code": "03",
        "state_name": "Larnaca (Larnaka)",
        "country_id": 57,
        "country_code": "CY",
        "country_name": "Cyprus",
        "latitude": "34.92291000",
        "longitude": "33.62330000",
        "timezone": null,
        "wikiDataId": "Q171882"
    },
    {
        "id": 22057,
        "name": "Livádia",
        "state_id": 747,
        "state_code": "03",
        "state_name": "Larnaca (Larnaka)",
        "country_id": 57,
        "country_code": "CY",
        "country_name": "Cyprus",
        "latitude": "34.95118000",
        "longitude": "33.62658000",
        "timezone": null,
        "wikiDataId": "Q11762209"
    },
    {
        "id": 22062,
        "name": "Meneou",
        "state_id": 747,
        "state_code": "03",
        "state_name": "Larnaca (Larnaka)",
        "country_id": 57,
        "country_code": "CY",
        "country_name": "Cyprus",
        "latitude": "34.86114000",
        "longitude": "33.59516000",
        "timezone": null,
        "wikiDataId": "Q6816909"
    },
    {
        "id": 22064,
        "name": "Mosfilotí",
        "state_id": 747,
        "state_code": "03",
        "state_name": "Larnaca (Larnaka)",
        "country_id": 57,
        "country_code": "CY",
        "country_name": "Cyprus",
        "latitude": "34.95256000",
        "longitude": "33.42511000",
        "timezone": null,
        "wikiDataId": "Q11785710"
    },
    {
        "id": 22087,
        "name": "Pérgamos",
        "state_id": 747,
        "state_code": "03",
        "state_name": "Larnaca (Larnaka)",
        "country_id": 57,
        "country_code": "CY",
        "country_name": "Cyprus",
        "latitude": "35.04167000",
        "longitude": "33.70833000",
        "timezone": null,
        "wikiDataId": "Q2538717"
    },
    {
        "id": 22076,
        "name": "Perivólia",
        "state_id": 747,
        "state_code": "03",
        "state_name": "Larnaca (Larnaka)",
        "country_id": 57,
        "country_code": "CY",
        "country_name": "Cyprus",
        "latitude": "34.83355000",
        "longitude": "33.58196000",
        "timezone": null,
        "wikiDataId": "Q7168940"
    },
    {
        "id": 22079,
        "name": "Psevdás",
        "state_id": 747,
        "state_code": "03",
        "state_name": "Larnaca (Larnaka)",
        "country_id": 57,
        "country_code": "CY",
        "country_name": "Cyprus",
        "latitude": "34.94653000",
        "longitude": "33.46277000",
        "timezone": null,
        "wikiDataId": "Q7255745"
    },
    {
        "id": 22089,
        "name": "Pýla",
        "state_id": 747,
        "state_code": "03",
        "state_name": "Larnaca (Larnaka)",
        "country_id": 57,
        "country_code": "CY",
        "country_name": "Cyprus",
        "latitude": "35.01237000",
        "longitude": "33.69188000",
        "timezone": null,
        "wikiDataId": "Q1968566"
    },
    {
        "id": 22093,
        "name": "Tersefánou",
        "state_id": 747,
        "state_code": "03",
        "state_name": "Larnaca (Larnaka)",
        "country_id": 57,
        "country_code": "CY",
        "country_name": "Cyprus",
        "latitude": "34.85411000",
        "longitude": "33.54746000",
        "timezone": null,
        "wikiDataId": "Q7705213"
    },
    {
        "id": 22094,
        "name": "Troúlloi",
        "state_id": 747,
        "state_code": "03",
        "state_name": "Larnaca (Larnaka)",
        "country_id": 57,
        "country_code": "CY",
        "country_name": "Cyprus",
        "latitude": "35.03203000",
        "longitude": "33.61501000",
        "timezone": null,
        "wikiDataId": "Q7846552"
    },
    {
        "id": 22099,
        "name": "Voróklini",
        "state_id": 747,
        "state_code": "03",
        "state_name": "Larnaca (Larnaka)",
        "country_id": 57,
        "country_code": "CY",
        "country_name": "Cyprus",
        "latitude": "34.98600000",
        "longitude": "33.65387000",
        "timezone": null,
        "wikiDataId": "Q7103757"
    },
    {
        "id": 22100,
        "name": "Xylofágou",
        "state_id": 747,
        "state_code": "03",
        "state_name": "Larnaca (Larnaka)",
        "country_id": 57,
        "country_code": "CY",
        "country_name": "Cyprus",
        "latitude": "34.97743000",
        "longitude": "33.84894000",
        "timezone": null,
        "wikiDataId": "Q8045452"
    },
    {
        "id": 22101,
        "name": "Xylotymbou",
        "state_id": 747,
        "state_code": "03",
        "state_name": "Larnaca (Larnaka)",
        "country_id": 57,
        "country_code": "CY",
        "country_name": "Cyprus",
        "latitude": "35.01720000",
        "longitude": "33.74245000",
        "timezone": null,
        "wikiDataId": "Q81490"
    },
    {
        "id": 22103,
        "name": "Ágios Tomás",
        "state_id": 748,
        "state_code": "02",
        "state_name": "Limassol (Leymasun)",
        "country_id": 57,
        "country_code": "CY",
        "country_name": "Cyprus",
        "latitude": "34.71158000",
        "longitude": "32.73129000",
        "timezone": null,
        "wikiDataId": "Q4831309"
    },
    {
        "id": 22104,
        "name": "Ágios Týchon",
        "state_id": 748,
        "state_code": "02",
        "state_name": "Limassol (Leymasun)",
        "country_id": 57,
        "country_code": "CY",
        "country_name": "Cyprus",
        "latitude": "34.72606000",
        "longitude": "33.13872000",
        "timezone": null,
        "wikiDataId": "Q4831310"
    },
    {
        "id": 22028,
        "name": "Erími",
        "state_id": 748,
        "state_code": "02",
        "state_name": "Limassol (Leymasun)",
        "country_id": 57,
        "country_code": "CY",
        "country_name": "Cyprus",
        "latitude": "34.67766000",
        "longitude": "32.91815000",
        "timezone": null,
        "wikiDataId": "Q5389081"
    },
    {
        "id": 22031,
        "name": "Germasógeia",
        "state_id": 748,
        "state_code": "02",
        "state_name": "Limassol (Leymasun)",
        "country_id": 57,
        "country_code": "CY",
        "country_name": "Cyprus",
        "latitude": "34.72207000",
        "longitude": "33.08254000",
        "timezone": null,
        "wikiDataId": "Q349340"
    },
    {
        "id": 22044,
        "name": "Kyperoúnta",
        "state_id": 748,
        "state_code": "02",
        "state_name": "Limassol (Leymasun)",
        "country_id": 57,
        "country_code": "CY",
        "country_name": "Cyprus",
        "latitude": "34.93815000",
        "longitude": "32.97551000",
        "timezone": null,
        "wikiDataId": "Q3499503"
    },
    {
        "id": 22053,
        "name": "Lemesós",
        "state_id": 748,
        "state_code": "02",
        "state_name": "Limassol (Leymasun)",
        "country_id": 57,
        "country_code": "CY",
        "country_name": "Cyprus",
        "latitude": "34.69218000",
        "longitude": "33.02854000",
        "timezone": null,
        "wikiDataId": "Q28870916"
    },
    {
        "id": 22055,
        "name": "Limassol",
        "state_id": 748,
        "state_code": "02",
        "state_name": "Limassol (Leymasun)",
        "country_id": 57,
        "country_code": "CY",
        "country_name": "Cyprus",
        "latitude": "34.68406000",
        "longitude": "33.03794000",
        "timezone": null,
        "wikiDataId": "Q185632"
    },
    {
        "id": 22065,
        "name": "Mouttagiáka",
        "state_id": 748,
        "state_code": "02",
        "state_name": "Limassol (Leymasun)",
        "country_id": 57,
        "country_code": "CY",
        "country_name": "Cyprus",
        "latitude": "34.72022000",
        "longitude": "33.10066000",
        "timezone": null,
        "wikiDataId": "Q11786854"
    },
    {
        "id": 22082,
        "name": "Páchna",
        "state_id": 748,
        "state_code": "02",
        "state_name": "Limassol (Leymasun)",
        "country_id": 57,
        "country_code": "CY",
        "country_name": "Cyprus",
        "latitude": "34.77874000",
        "longitude": "32.79355000",
        "timezone": null,
        "wikiDataId": "Q3557407"
    },
    {
        "id": 22084,
        "name": "Páno Polemídia",
        "state_id": 748,
        "state_code": "02",
        "state_name": "Limassol (Leymasun)",
        "country_id": 57,
        "country_code": "CY",
        "country_name": "Cyprus",
        "latitude": "34.70559000",
        "longitude": "32.99269000",
        "timezone": null,
        "wikiDataId": "Q16269888"
    },
    {
        "id": 22073,
        "name": "Parekklisha",
        "state_id": 748,
        "state_code": "02",
        "state_name": "Limassol (Leymasun)",
        "country_id": 57,
        "country_code": "CY",
        "country_name": "Cyprus",
        "latitude": "34.74583000",
        "longitude": "33.15833000",
        "timezone": null,
        "wikiDataId": "Q7136707"
    },
    {
        "id": 22074,
        "name": "Peléndri",
        "state_id": 748,
        "state_code": "02",
        "state_name": "Limassol (Leymasun)",
        "country_id": 57,
        "country_code": "CY",
        "country_name": "Cyprus",
        "latitude": "34.89597000",
        "longitude": "32.96817000",
        "timezone": null,
        "wikiDataId": "Q3561641"
    },
    {
        "id": 22077,
        "name": "Pissoúri",
        "state_id": 748,
        "state_code": "02",
        "state_name": "Limassol (Leymasun)",
        "country_id": 57,
        "country_code": "CY",
        "country_name": "Cyprus",
        "latitude": "34.66942000",
        "longitude": "32.70132000",
        "timezone": null,
        "wikiDataId": "Q1985470"
    },
    {
        "id": 22081,
        "name": "Pyrgos",
        "state_id": 748,
        "state_code": "02",
        "state_name": "Limassol (Leymasun)",
        "country_id": 57,
        "country_code": "CY",
        "country_name": "Cyprus",
        "latitude": "34.74167000",
        "longitude": "33.18333000",
        "timezone": null,
        "wikiDataId": "Q7263520"
    },
    {
        "id": 22091,
        "name": "Sotíra",
        "state_id": 748,
        "state_code": "02",
        "state_name": "Limassol (Leymasun)",
        "country_id": 57,
        "country_code": "CY",
        "country_name": "Cyprus",
        "latitude": "34.71189000",
        "longitude": "32.86340000",
        "timezone": null,
        "wikiDataId": "Q733386"
    },
    {
        "id": 22092,
        "name": "Soúni-Zanakiá",
        "state_id": 748,
        "state_code": "02",
        "state_name": "Limassol (Leymasun)",
        "country_id": 57,
        "country_code": "CY",
        "country_name": "Cyprus",
        "latitude": "34.73570000",
        "longitude": "32.88437000",
        "timezone": null,
        "wikiDataId": "Q7565030"
    },
    {
        "id": 22105,
        "name": "Ýpsonas",
        "state_id": 748,
        "state_code": "02",
        "state_name": "Limassol (Leymasun)",
        "country_id": 57,
        "country_code": "CY",
        "country_name": "Cyprus",
        "latitude": "34.68797000",
        "longitude": "32.96191000",
        "timezone": null,
        "wikiDataId": "Q3560553"
    },
    {
        "id": 22012,
        "name": "Akáki",
        "state_id": 745,
        "state_code": "01",
        "state_name": "Nicosia (Lefkoşa)",
        "country_id": 57,
        "country_code": "CY",
        "country_name": "Cyprus",
        "latitude": "35.13341000",
        "longitude": "33.12873000",
        "timezone": null,
        "wikiDataId": "Q3646772"
    },
    {
        "id": 22013,
        "name": "Alámpra",
        "state_id": 745,
        "state_code": "01",
        "state_name": "Nicosia (Lefkoşa)",
        "country_id": 57,
        "country_code": "CY",
        "country_name": "Cyprus",
        "latitude": "34.98898000",
        "longitude": "33.39887000",
        "timezone": null,
        "wikiDataId": "Q827206"
    },
    {
        "id": 22016,
        "name": "Aredioú",
        "state_id": 745,
        "state_code": "01",
        "state_name": "Nicosia (Lefkoşa)",
        "country_id": 57,
        "country_code": "CY",
        "country_name": "Cyprus",
        "latitude": "35.04844000",
        "longitude": "33.19610000",
        "timezone": null,
        "wikiDataId": "Q4788730"
    },
    {
        "id": 22018,
        "name": "Astromerítis",
        "state_id": 745,
        "state_code": "01",
        "state_name": "Nicosia (Lefkoşa)",
        "country_id": 57,
        "country_code": "CY",
        "country_name": "Cyprus",
        "latitude": "35.14096000",
        "longitude": "33.03793000",
        "timezone": null,
        "wikiDataId": "Q4811597"
    },
    {
        "id": 22025,
        "name": "Dáli",
        "state_id": 745,
        "state_code": "01",
        "state_name": "Nicosia (Lefkoşa)",
        "country_id": 57,
        "country_code": "CY",
        "country_name": "Cyprus",
        "latitude": "35.02294000",
        "longitude": "33.42195000",
        "timezone": null,
        "wikiDataId": "Q2555453"
    },
    {
        "id": 22027,
        "name": "Ergátes",
        "state_id": 745,
        "state_code": "01",
        "state_name": "Nicosia (Lefkoşa)",
        "country_id": 57,
        "country_code": "CY",
        "country_name": "Cyprus",
        "latitude": "35.05365000",
        "longitude": "33.24292000",
        "timezone": null,
        "wikiDataId": "Q1828011"
    },
    {
        "id": 22035,
        "name": "Géri",
        "state_id": 745,
        "state_code": "01",
        "state_name": "Nicosia (Lefkoşa)",
        "country_id": 57,
        "country_code": "CY",
        "country_name": "Cyprus",
        "latitude": "35.10560000",
        "longitude": "33.41977000",
        "timezone": null,
        "wikiDataId": "Q3104074"
    },
    {
        "id": 22036,
        "name": "Kakopetriá",
        "state_id": 745,
        "state_code": "01",
        "state_name": "Nicosia (Lefkoşa)",
        "country_id": 57,
        "country_code": "CY",
        "country_name": "Cyprus",
        "latitude": "34.98768000",
        "longitude": "32.90468000",
        "timezone": null,
        "wikiDataId": "Q1308220"
    },
    {
        "id": 22047,
        "name": "Káto Defterá",
        "state_id": 745,
        "state_code": "01",
        "state_name": "Nicosia (Lefkoşa)",
        "country_id": 57,
        "country_code": "CY",
        "country_name": "Cyprus",
        "latitude": "35.08489000",
        "longitude": "33.27558000",
        "timezone": null,
        "wikiDataId": "Q47317971"
    },
    {
        "id": 22048,
        "name": "Káto Pýrgos",
        "state_id": 745,
        "state_code": "01",
        "state_name": "Nicosia (Lefkoşa)",
        "country_id": 57,
        "country_code": "CY",
        "country_name": "Cyprus",
        "latitude": "35.17897000",
        "longitude": "32.68600000",
        "timezone": null,
        "wikiDataId": "Q22988437"
    },
    {
        "id": 22038,
        "name": "Klírou",
        "state_id": 745,
        "state_code": "01",
        "state_name": "Nicosia (Lefkoşa)",
        "country_id": 57,
        "country_code": "CY",
        "country_name": "Cyprus",
        "latitude": "35.02004000",
        "longitude": "33.17806000",
        "timezone": null,
        "wikiDataId": "Q672215"
    },
    {
        "id": 22040,
        "name": "Kokkinotrimithiá",
        "state_id": 745,
        "state_code": "01",
        "state_name": "Nicosia (Lefkoşa)",
        "country_id": 57,
        "country_code": "CY",
        "country_name": "Cyprus",
        "latitude": "35.15303000",
        "longitude": "33.19966000",
        "timezone": null,
        "wikiDataId": "Q6426673"
    },
    {
        "id": 22060,
        "name": "Léfka",
        "state_id": 745,
        "state_code": "01",
        "state_name": "Nicosia (Lefkoşa)",
        "country_id": 57,
        "country_code": "CY",
        "country_name": "Cyprus",
        "latitude": "35.11199000",
        "longitude": "32.84997000",
        "timezone": null,
        "wikiDataId": "Q6710344"
    },
    {
        "id": 22061,
        "name": "Lýmpia",
        "state_id": 745,
        "state_code": "01",
        "state_name": "Nicosia (Lefkoşa)",
        "country_id": 57,
        "country_code": "CY",
        "country_name": "Cyprus",
        "latitude": "34.99889000",
        "longitude": "33.46175000",
        "timezone": null,
        "wikiDataId": "Q6708289"
    },
    {
        "id": 22058,
        "name": "Lythrodóntas",
        "state_id": 745,
        "state_code": "01",
        "state_name": "Nicosia (Lefkoşa)",
        "country_id": 57,
        "country_code": "CY",
        "country_name": "Cyprus",
        "latitude": "34.95105000",
        "longitude": "33.29777000",
        "timezone": null,
        "wikiDataId": "Q6710344"
    },
    {
        "id": 22066,
        "name": "Mámmari",
        "state_id": 745,
        "state_code": "01",
        "state_name": "Nicosia (Lefkoşa)",
        "country_id": 57,
        "country_code": "CY",
        "country_name": "Cyprus",
        "latitude": "35.17604000",
        "longitude": "33.20435000",
        "timezone": null,
        "wikiDataId": "Q3566171"
    },
    {
        "id": 22067,
        "name": "Méniko",
        "state_id": 745,
        "state_code": "01",
        "state_name": "Nicosia (Lefkoşa)",
        "country_id": 57,
        "country_code": "CY",
        "country_name": "Cyprus",
        "latitude": "35.10945000",
        "longitude": "33.14474000",
        "timezone": null,
        "wikiDataId": "Q6817059"
    },
    {
        "id": 22068,
        "name": "Mórfou",
        "state_id": 745,
        "state_code": "01",
        "state_name": "Nicosia (Lefkoşa)",
        "country_id": 57,
        "country_code": "CY",
        "country_name": "Cyprus",
        "latitude": "35.19869000",
        "longitude": "32.99338000",
        "timezone": null,
        "wikiDataId": "Q6817059"
    },
    {
        "id": 22069,
        "name": "Nicosia",
        "state_id": 745,
        "state_code": "01",
        "state_name": "Nicosia (Lefkoşa)",
        "country_id": 57,
        "country_code": "CY",
        "country_name": "Cyprus",
        "latitude": "35.17531000",
        "longitude": "33.36420000",
        "timezone": null,
        "wikiDataId": "Q3856"
    },
    {
        "id": 22070,
        "name": "Nicosia Municipality",
        "state_id": 745,
        "state_code": "01",
        "state_name": "Nicosia (Lefkoşa)",
        "country_id": 57,
        "country_code": "CY",
        "country_name": "Cyprus",
        "latitude": "35.16944000",
        "longitude": "33.36081000",
        "timezone": null,
        "wikiDataId": "Q56037497"
    },
    {
        "id": 22083,
        "name": "Páno Defterá",
        "state_id": 745,
        "state_code": "01",
        "state_name": "Nicosia (Lefkoşa)",
        "country_id": 57,
        "country_code": "CY",
        "country_name": "Cyprus",
        "latitude": "35.07778000",
        "longitude": "33.26584000",
        "timezone": null,
        "wikiDataId": "Q11802699"
    },
    {
        "id": 22086,
        "name": "Péra",
        "state_id": 745,
        "state_code": "01",
        "state_name": "Nicosia (Lefkoşa)",
        "country_id": 57,
        "country_code": "CY",
        "country_name": "Cyprus",
        "latitude": "35.03350000",
        "longitude": "33.25413000",
        "timezone": null,
        "wikiDataId": "Q2538717"
    },
    {
        "id": 22075,
        "name": "Peristeróna",
        "state_id": 745,
        "state_code": "01",
        "state_name": "Nicosia (Lefkoşa)",
        "country_id": 57,
        "country_code": "CY",
        "country_name": "Cyprus",
        "latitude": "35.12928000",
        "longitude": "33.07858000",
        "timezone": null,
        "wikiDataId": "Q4810069"
    },
    {
        "id": 22080,
        "name": "Psimolofou",
        "state_id": 745,
        "state_code": "01",
        "state_name": "Nicosia (Lefkoşa)",
        "country_id": 57,
        "country_code": "CY",
        "country_name": "Cyprus",
        "latitude": "35.06250000",
        "longitude": "33.26250000",
        "timezone": null,
        "wikiDataId": "Q3409988"
    },
    {
        "id": 22097,
        "name": "Tséri",
        "state_id": 745,
        "state_code": "01",
        "state_name": "Nicosia (Lefkoşa)",
        "country_id": 57,
        "country_code": "CY",
        "country_name": "Cyprus",
        "latitude": "35.07307000",
        "longitude": "33.32344000",
        "timezone": null,
        "wikiDataId": "Q3541492"
    },
    {
        "id": 22017,
        "name": "Argáka",
        "state_id": 746,
        "state_code": "05",
        "state_name": "Paphos (Pafos)",
        "country_id": 57,
        "country_code": "CY",
        "country_name": "Cyprus",
        "latitude": "35.06646000",
        "longitude": "32.49446000",
        "timezone": null,
        "wikiDataId": "Q744626"
    },
    {
        "id": 22022,
        "name": "Chlórakas",
        "state_id": 746,
        "state_code": "05",
        "state_name": "Paphos (Pafos)",
        "country_id": 57,
        "country_code": "CY",
        "country_name": "Cyprus",
        "latitude": "34.79768000",
        "longitude": "32.41207000",
        "timezone": null,
        "wikiDataId": "Q393593"
    },
    {
        "id": 22026,
        "name": "Emba",
        "state_id": 746,
        "state_code": "05",
        "state_name": "Paphos (Pafos)",
        "country_id": 57,
        "country_code": "CY",
        "country_name": "Cyprus",
        "latitude": "34.80700000",
        "longitude": "32.42406000",
        "timezone": null,
        "wikiDataId": "Q5369408"
    },
    {
        "id": 22032,
        "name": "Geroskipou",
        "state_id": 746,
        "state_code": "05",
        "state_name": "Paphos (Pafos)",
        "country_id": 57,
        "country_code": "CY",
        "country_name": "Cyprus",
        "latitude": "34.75498000",
        "longitude": "32.45155000",
        "timezone": null,
        "wikiDataId": "Q349340"
    },
    {
        "id": 22033,
        "name": "Geroskípou (quarter)",
        "state_id": 746,
        "state_code": "05",
        "state_name": "Paphos (Pafos)",
        "country_id": 57,
        "country_code": "CY",
        "country_name": "Cyprus",
        "latitude": "34.76190000",
        "longitude": "32.45135000",
        "timezone": null,
        "wikiDataId": "Q47313335"
    },
    {
        "id": 22034,
        "name": "Geroskípou Municipality",
        "state_id": 746,
        "state_code": "05",
        "state_name": "Paphos (Pafos)",
        "country_id": 57,
        "country_code": "CY",
        "country_name": "Cyprus",
        "latitude": "34.75142000",
        "longitude": "32.45449000",
        "timezone": null,
        "wikiDataId": "Q588760"
    },
    {
        "id": 22037,
        "name": "Kissonerga",
        "state_id": 746,
        "state_code": "05",
        "state_name": "Paphos (Pafos)",
        "country_id": 57,
        "country_code": "CY",
        "country_name": "Cyprus",
        "latitude": "34.82279000",
        "longitude": "32.40131000",
        "timezone": null,
        "wikiDataId": "Q6417285"
    },
    {
        "id": 22041,
        "name": "Koloni",
        "state_id": 746,
        "state_code": "05",
        "state_name": "Paphos (Pafos)",
        "country_id": 57,
        "country_code": "CY",
        "country_name": "Cyprus",
        "latitude": "34.75228000",
        "longitude": "32.46487000",
        "timezone": null,
        "wikiDataId": "Q6426673"
    },
    {
        "id": 22043,
        "name": "Konia",
        "state_id": 746,
        "state_code": "05",
        "state_name": "Paphos (Pafos)",
        "country_id": 57,
        "country_code": "CY",
        "country_name": "Cyprus",
        "latitude": "34.78516000",
        "longitude": "32.45900000",
        "timezone": null,
        "wikiDataId": "Q3353547"
    },
    {
        "id": 22063,
        "name": "Mesógi",
        "state_id": 746,
        "state_code": "05",
        "state_name": "Paphos (Pafos)",
        "country_id": 57,
        "country_code": "CY",
        "country_name": "Cyprus",
        "latitude": "34.81577000",
        "longitude": "32.45542000",
        "timezone": null,
        "wikiDataId": "Q6816909"
    },
    {
        "id": 22071,
        "name": "Paphos",
        "state_id": 746,
        "state_code": "05",
        "state_name": "Paphos (Pafos)",
        "country_id": 57,
        "country_code": "CY",
        "country_name": "Cyprus",
        "latitude": "34.77679000",
        "longitude": "32.42451000",
        "timezone": null,
        "wikiDataId": "Q180918"
    },
    {
        "id": 22085,
        "name": "Pégeia",
        "state_id": 746,
        "state_code": "05",
        "state_name": "Paphos (Pafos)",
        "country_id": 57,
        "country_code": "CY",
        "country_name": "Cyprus",
        "latitude": "34.88341000",
        "longitude": "32.38166000",
        "timezone": null,
        "wikiDataId": "Q2538717"
    },
    {
        "id": 22088,
        "name": "Pólis",
        "state_id": 746,
        "state_code": "05",
        "state_name": "Paphos (Pafos)",
        "country_id": 57,
        "country_code": "CY",
        "country_name": "Cyprus",
        "latitude": "35.03534000",
        "longitude": "32.42575000",
        "timezone": null,
        "wikiDataId": "Q2626631"
    },
    {
        "id": 22098,
        "name": "Tála",
        "state_id": 746,
        "state_code": "05",
        "state_name": "Paphos (Pafos)",
        "country_id": 57,
        "country_code": "CY",
        "country_name": "Cyprus",
        "latitude": "34.83745000",
        "longitude": "32.43272000",
        "timezone": null,
        "wikiDataId": "Q7678734"
    },
    {
        "id": 22096,
        "name": "Tsáda",
        "state_id": 746,
        "state_code": "05",
        "state_name": "Paphos (Pafos)",
        "country_id": 57,
        "country_code": "CY",
        "country_name": "Cyprus",
        "latitude": "34.83801000",
        "longitude": "32.47547000",
        "timezone": null,
        "wikiDataId": "Q3559631"
    }
]