[
    {
        "id": 39146,
        "name": "Namosi Province",
        "state_id": 1929,
        "state_code": "C",
        "state_name": "Central",
        "country_id": 73,
        "country_code": "FJ",
        "country_name": "Fiji Islands",
        "latitude": "-18.05000000",
        "longitude": "178.13333000",
        "timezone": null,
        "wikiDataId": "Q1365295"
    },
    {
        "id": 39149,
        "name": "Rewa Province",
        "state_id": 1929,
        "state_code": "C",
        "state_name": "Central",
        "country_id": 73,
        "country_code": "FJ",
        "country_name": "Fiji Islands",
        "latitude": "-18.08333000",
        "longitude": "178.33333000",
        "timezone": null,
        "wikiDataId": "Q1365257"
    },
    {
        "id": 39150,
        "name": "Serua Province",
        "state_id": 1929,
        "state_code": "C",
        "state_name": "Central",
        "country_id": 73,
        "country_code": "FJ",
        "country_name": "Fiji Islands",
        "latitude": "-18.16667000",
        "longitude": "178.00000000",
        "timezone": null,
        "wikiDataId": "Q1208362"
    },
    {
        "id": 39151,
        "name": "Suva",
        "state_id": 1929,
        "state_code": "C",
        "state_name": "Central",
        "country_id": 73,
        "country_code": "FJ",
        "country_name": "Fiji Islands",
        "latitude": "-18.14161000",
        "longitude": "178.44149000",
        "timezone": null,
        "wikiDataId": "Q38807"
    },
    {
        "id": 39152,
        "name": "Tailevu Province",
        "state_id": 1929,
        "state_code": "C",
        "state_name": "Central",
        "country_id": 73,
        "country_code": "FJ",
        "country_name": "Fiji Islands",
        "latitude": "-17.83333000",
        "longitude": "178.50000000",
        "timezone": null,
        "wikiDataId": "Q1365322"
    },
    {
        "id": 39137,
        "name": "Kadavu Province",
        "state_id": 1932,
        "state_code": "E",
        "state_name": "Eastern",
        "country_id": 73,
        "country_code": "FJ",
        "country_name": "Fiji Islands",
        "latitude": "-18.99331000",
        "longitude": "178.22021000",
        "timezone": null,
        "wikiDataId": "Q676046"
    },
    {
        "id": 39139,
        "name": "Lau Province",
        "state_id": 1932,
        "state_code": "E",
        "state_name": "Eastern",
        "country_id": 73,
        "country_code": "FJ",
        "country_name": "Fiji Islands",
        "latitude": "-18.20488000",
        "longitude": "-178.79251000",
        "timezone": null,
        "wikiDataId": "Q513104"
    },
    {
        "id": 39141,
        "name": "Levuka",
        "state_id": 1932,
        "state_code": "E",
        "state_name": "Eastern",
        "country_id": 73,
        "country_code": "FJ",
        "country_name": "Fiji Islands",
        "latitude": "-18.06667000",
        "longitude": "179.31667000",
        "timezone": null,
        "wikiDataId": "Q856662"
    },
    {
        "id": 39142,
        "name": "Lomaiviti Province",
        "state_id": 1932,
        "state_code": "E",
        "state_name": "Eastern",
        "country_id": 73,
        "country_code": "FJ",
        "country_name": "Fiji Islands",
        "latitude": "-17.66667000",
        "longitude": "178.80000000",
        "timezone": null,
        "wikiDataId": "Q2144922"
    },
    {
        "id": 39135,
        "name": "Bua Province",
        "state_id": 1921,
        "state_code": "N",
        "state_name": "Northern",
        "country_id": 73,
        "country_code": "FJ",
        "country_name": "Fiji Islands",
        "latitude": "-16.83333000",
        "longitude": "178.75000000",
        "timezone": null,
        "wikiDataId": "Q1365265"
    },
    {
        "id": 39136,
        "name": "Cakaudrove Province",
        "state_id": 1921,
        "state_code": "N",
        "state_name": "Northern",
        "country_id": 73,
        "country_code": "FJ",
        "country_name": "Fiji Islands",
        "latitude": "-16.66667000",
        "longitude": "179.41667000",
        "timezone": null,
        "wikiDataId": "Q676046"
    },
    {
        "id": 39138,
        "name": "Labasa",
        "state_id": 1921,
        "state_code": "N",
        "state_name": "Northern",
        "country_id": 73,
        "country_code": "FJ",
        "country_name": "Fiji Islands",
        "latitude": "-16.43320000",
        "longitude": "179.36451000",
        "timezone": null,
        "wikiDataId": "Q579556"
    },
    {
        "id": 39143,
        "name": "Macuata Province",
        "state_id": 1921,
        "state_code": "N",
        "state_name": "Northern",
        "country_id": 73,
        "country_code": "FJ",
        "country_name": "Fiji Islands",
        "latitude": "-16.50000000",
        "longitude": "179.25000000",
        "timezone": null,
        "wikiDataId": "Q1365304"
    },
    {
        "id": 39133,
        "name": "Ba",
        "state_id": 1923,
        "state_code": "W",
        "state_name": "Western",
        "country_id": 73,
        "country_code": "FJ",
        "country_name": "Fiji Islands",
        "latitude": "-17.53430000",
        "longitude": "177.67407000",
        "timezone": null,
        "wikiDataId": "Q26713"
    },
    {
        "id": 39134,
        "name": "Ba Province",
        "state_id": 1923,
        "state_code": "W",
        "state_name": "Western",
        "country_id": 73,
        "country_code": "FJ",
        "country_name": "Fiji Islands",
        "latitude": "-17.66667000",
        "longitude": "177.66667000",
        "timezone": null,
        "wikiDataId": "Q797434"
    },
    {
        "id": 39140,
        "name": "Lautoka",
        "state_id": 1923,
        "state_code": "W",
        "state_name": "Western",
        "country_id": 73,
        "country_code": "FJ",
        "country_name": "Fiji Islands",
        "latitude": "-17.61686000",
        "longitude": "177.45049000",
        "timezone": null,
        "wikiDataId": "Q856662"
    },
    {
        "id": 39144,
        "name": "Nadi",
        "state_id": 1923,
        "state_code": "W",
        "state_name": "Western",
        "country_id": 73,
        "country_code": "FJ",
        "country_name": "Fiji Islands",
        "latitude": "-17.80309000",
        "longitude": "177.41617000",
        "timezone": null,
        "wikiDataId": "Q619443"
    },
    {
        "id": 39147,
        "name": "Nandronga and Navosa Province",
        "state_id": 1923,
        "state_code": "W",
        "state_name": "Western",
        "country_id": 73,
        "country_code": "FJ",
        "country_name": "Fiji Islands",
        "latitude": "-18.00000000",
        "longitude": "177.66667000",
        "timezone": null,
        "wikiDataId": "Q952528"
    },
    {
        "id": 39148,
        "name": "Ra Province",
        "state_id": 1923,
        "state_code": "W",
        "state_name": "Western",
        "country_id": 73,
        "country_code": "FJ",
        "country_name": "Fiji Islands",
        "latitude": "-17.50000000",
        "longitude": "178.16667000",
        "timezone": null,
        "wikiDataId": "Q1208350"
    }
]