[
    {
        "id": 48158,
        "name": "Abbots Bromley",
        "state_id": 2336,
        "state_code": "ENG",
        "state_name": "England",
        "country_id": 232,
        "country_code": "GB",
        "country_name": "United Kingdom",
        "latitude": "52.81705000",
        "longitude": "-1.87694000",
        "timezone": null,
        "wikiDataId": "Q2167664"
    },
    {
        "id": 48159,
        "name": "Abbots Langley",
        "state_id": 2336,
        "state_code": "ENG",
        "state_name": "England",
        "country_id": 232,
        "country_code": "GB",
        "country_name": "United Kingdom",
        "latitude": "51.70573000",
        "longitude": "-0.41757000",
        "timezone": null,
        "wikiDataId": "Q2167664"
    },
    {
        "id": 48160,
        "name": "Abbotskerswell",
        "state_id": 2336,
        "state_code": "ENG",
        "state_name": "England",
        "country_id": 232,
        "country_code": "GB",
        "country_name": "United Kingdom",
        "latitude": "50.50816000",
        "longitude": "-3.61342000",
        "timezone": null,
        "wikiDataId": "Q2684937"
    },
    {
        "id": 48161,
        "name": "Abbotts Ann",
        "state_id": 2336,
        "state_code": "ENG",
        "state_name": "England",
        "country_id": 232,
        "country_code": "GB",
        "country_name": "United Kingdom",
        "latitude": "51.19016000",
        "longitude": "-1.53234000",
        "timezone": null,
        "wikiDataId": "Q660124"
    },
    {
        "id": 48174,
        "name": "Aberford",
        "state_id": 2336,
        "state_code": "ENG",
        "state_name": "England",
        "country_id": 232,
        "country_code": "GB",
        "country_name": "United Kingdom",
        "latitude": "53.82604000",
        "longitude": "-1.34231000",
        "timezone": null,
        "wikiDataId": "Q2853591"
    },
    {
        "id": 48184,
        "name": "Abingdon",
        "state_id": 2336,
        "state_code": "ENG",
        "state_name": "England",
        "country_id": 232,
        "country_code": "GB",
        "country_name": "United Kingdom",
        "latitude": "51.67109000",
        "longitude": "-1.28278000",
        "timezone": null,
        "wikiDataId": "Q321381"
    },
    {
        "id": 48186,
        "name": "Abram",
        "state_id": 2336,
        "state_code": "ENG",
        "state_name": "England",
        "country_id": 232,
        "country_code": "GB",
        "country_name": "United Kingdom",
        "latitude": "53.50855000",
        "longitude": "-2.59266000",
        "timezone": null,
        "wikiDataId": "Q4669333"
    },
    {
        "id": 48187,
        "name": "Abridge",
        "state_id": 2336,
        "state_code": "ENG",
        "state_name": "England",
        "country_id": 232,
        "country_code": "GB",
        "country_name": "United Kingdom",
        "latitude": "51.64950000",
        "longitude": "0.12033000",
        "timezone": null,
        "wikiDataId": "Q2215683"
    },
    {
        "id": 48188,
        "name": "Accrington",
        "state_id": 2336,
        "state_code": "ENG",
        "state_name": "England",
        "country_id": 232,
        "country_code": "GB",
        "country_name": "United Kingdom",
        "latitude": "53.75379000",
        "longitude": "-2.35863000",
        "timezone": null,
        "wikiDataId": "Q1622949"
    },
    {
        "id": 48189,
        "name": "Acklington",
        "state_id": 2336,
        "state_code": "ENG",
        "state_name": "England",
        "country_id": 232,
        "country_code": "GB",
        "country_name": "United Kingdom",
        "latitude": "55.30000000",
        "longitude": "-1.63333000",
        "timezone": null,
        "wikiDataId": "Q675592"
    },
    {
        "id": 48190,
        "name": "Acle",
        "state_id": 2336,
        "state_code": "ENG",
        "state_name": "England",
        "country_id": 232,
        "country_code": "GB",
        "country_name": "United Kingdom",
        "latitude": "52.63681000",
        "longitude": "1.54757000",
        "timezone": null,
        "wikiDataId": "Q341938"
    },
    {
        "id": 48191,
        "name": "Acocks Green",
        "state_id": 2336,
        "state_code": "ENG",
        "state_name": "England",
        "country_id": 232,
        "country_code": "GB",
        "country_name": "United Kingdom",
        "latitude": "52.45000000",
        "longitude": "-1.81667000",
        "timezone": null,
        "wikiDataId": "Q4674449"
    },
    {
        "id": 48192,
        "name": "Acomb",
        "state_id": 2336,
        "state_code": "ENG",
        "state_name": "England",
        "country_id": 232,
        "country_code": "GB",
        "country_name": "United Kingdom",
        "latitude": "54.99229000",
        "longitude": "-2.11229000",
        "timezone": null,
        "wikiDataId": "Q2536739"
    },
    {
        "id": 48193,
        "name": "Acton",
        "state_id": 2336,
        "state_code": "ENG",
        "state_name": "England",
        "country_id": 232,
        "country_code": "GB",
        "country_name": "United Kingdom",
        "latitude": "51.50901000",
        "longitude": "-0.27620000",
        "timezone": null,
        "wikiDataId": "Q83609"
    },
    {
        "id": 48194,
        "name": "Adderbury",
        "state_id": 2336,
        "state_code": "ENG",
        "state_name": "England",
        "country_id": 232,
        "country_code": "GB",
        "country_name": "United Kingdom",
        "latitude": "52.01690000",
        "longitude": "-1.31192000",
        "timezone": null,
        "wikiDataId": "Q352863"
    },
    {
        "id": 48196,
        "name": "Addingham",
        "state_id": 2336,
        "state_code": "ENG",
        "state_name": "England",
        "country_id": 232,
        "country_code": "GB",
        "country_name": "United Kingdom",
        "latitude": "53.94452000",
        "longitude": "-1.88424000",
        "timezone": null,
        "wikiDataId": "Q379316"
    },
    {
        "id": 48197,
        "name": "Addlestone",
        "state_id": 2336,
        "state_code": "ENG",
        "state_name": "England",
        "country_id": 232,
        "country_code": "GB",
        "country_name": "United Kingdom",
        "latitude": "51.37135000",
        "longitude": "-0.49353000",
        "timezone": null,
        "wikiDataId": "Q353307"
    },
    {
        "id": 48198,
        "name": "Adlington",
        "state_id": 2336,
        "state_code": "ENG",
        "state_name": "England",
        "country_id": 232,
        "country_code": "GB",
        "country_name": "United Kingdom",
        "latitude": "53.61323000",
        "longitude": "-2.60676000",
        "timezone": null,
        "wikiDataId": "Q2293656"
    },
    {
        "id": 48199,
        "name": "Adwick le Street",
        "state_id": 2336,
        "state_code": "ENG",
        "state_name": "England",
        "country_id": 232,
        "country_code": "GB",
        "country_name": "United Kingdom",
        "latitude": "53.57077000",
        "longitude": "-1.18454000",
        "timezone": null,
        "wikiDataId": "Q3605914"
    },
    {
        "id": 48202,
        "name": "Airmyn",
        "state_id": 2336,
        "state_code": "ENG",
        "state_name": "England",
        "country_id": 232,
        "country_code": "GB",
        "country_name": "United Kingdom",
        "latitude": "53.72074000",
        "longitude": "-0.89959000",
        "timezone": null,
        "wikiDataId": "Q2075602"
    },
    {
        "id": 48204,
        "name": "Albrighton",
        "state_id": 2336,
        "state_code": "ENG",
        "state_name": "England",
        "country_id": 232,
        "country_code": "GB",
        "country_name": "United Kingdom",
        "latitude": "52.63640000",
        "longitude": "-2.27966000",
        "timezone": null,
        "wikiDataId": "Q728994"
    },
    {
        "id": 48205,
        "name": "Alcester",
        "state_id": 2336,
        "state_code": "ENG",
        "state_name": "England",
        "country_id": 232,
        "country_code": "GB",
        "country_name": "United Kingdom",
        "latitude": "52.21667000",
        "longitude": "-1.86667000",
        "timezone": null,
        "wikiDataId": "Q1012025"
    },
    {
        "id": 48206,
        "name": "Alconbury",
        "state_id": 2336,
        "state_code": "ENG",
        "state_name": "England",
        "country_id": 232,
        "country_code": "GB",
        "country_name": "United Kingdom",
        "latitude": "52.36900000",
        "longitude": "-0.26009000",
        "timezone": null,
        "wikiDataId": "Q4713355"
    },
    {
        "id": 48207,
        "name": "Aldbourne",
        "state_id": 2336,
        "state_code": "ENG",
        "state_name": "England",
        "country_id": 232,
        "country_code": "GB",
        "country_name": "United Kingdom",
        "latitude": "51.48098000",
        "longitude": "-1.61827000",
        "timezone": null,
        "wikiDataId": "Q1215829"
    },
    {
        "id": 48208,
        "name": "Aldbrough",
        "state_id": 2336,
        "state_code": "ENG",
        "state_name": "England",
        "country_id": 232,
        "country_code": "GB",
        "country_name": "United Kingdom",
        "latitude": "53.82893000",
        "longitude": "-0.11467000",
        "timezone": null,
        "wikiDataId": "Q2651619"
    },
    {
        "id": 48209,
        "name": "Aldeburgh",
        "state_id": 2336,
        "state_code": "ENG",
        "state_name": "England",
        "country_id": 232,
        "country_code": "GB",
        "country_name": "United Kingdom",
        "latitude": "52.15259000",
        "longitude": "1.60124000",
        "timezone": null,
        "wikiDataId": "Q2077402"
    },
    {
        "id": 48210,
        "name": "Alderbury",
        "state_id": 2336,
        "state_code": "ENG",
        "state_name": "England",
        "country_id": 232,
        "country_code": "GB",
        "country_name": "United Kingdom",
        "latitude": "51.04354000",
        "longitude": "-1.73382000",
        "timezone": null,
        "wikiDataId": "Q2491329"
    },
    {
        "id": 48211,
        "name": "Alderholt",
        "state_id": 2336,
        "state_code": "ENG",
        "state_name": "England",
        "country_id": 232,
        "country_code": "GB",
        "country_name": "United Kingdom",
        "latitude": "50.91195000",
        "longitude": "-1.83083000",
        "timezone": null,
        "wikiDataId": "Q4713675"
    },
    {
        "id": 48212,
        "name": "Alderley Edge",
        "state_id": 2336,
        "state_code": "ENG",
        "state_name": "England",
        "country_id": 232,
        "country_code": "GB",
        "country_name": "United Kingdom",
        "latitude": "53.30393000",
        "longitude": "-2.23773000",
        "timezone": null,
        "wikiDataId": "Q986046"
    },
    {
        "id": 48213,
        "name": "Aldershot",
        "state_id": 2336,
        "state_code": "ENG",
        "state_name": "England",
        "country_id": 232,
        "country_code": "GB",
        "country_name": "United Kingdom",
        "latitude": "51.24827000",
        "longitude": "-0.76389000",
        "timezone": null,
        "wikiDataId": "Q646980"
    },
    {
        "id": 48214,
        "name": "Aldford",
        "state_id": 2336,
        "state_code": "ENG",
        "state_name": "England",
        "country_id": 232,
        "country_code": "GB",
        "country_name": "United Kingdom",
        "latitude": "53.12762000",
        "longitude": "-2.86812000",
        "timezone": null,
        "wikiDataId": "Q1866463"
    },
    {
        "id": 48215,
        "name": "Aldridge",
        "state_id": 2336,
        "state_code": "ENG",
        "state_name": "England",
        "country_id": 232,
        "country_code": "GB",
        "country_name": "United Kingdom",
        "latitude": "52.60549000",
        "longitude": "-1.91715000",
        "timezone": null,
        "wikiDataId": "Q1807596"
    },
    {
        "id": 48217,
        "name": "Alford",
        "state_id": 2336,
        "state_code": "ENG",
        "state_name": "England",
        "country_id": 232,
        "country_code": "GB",
        "country_name": "United Kingdom",
        "latitude": "53.25943000",
        "longitude": "0.17625000",
        "timezone": null,
        "wikiDataId": "Q1876378"
    },
    {
        "id": 48219,
        "name": "Alfreton",
        "state_id": 2336,
        "state_code": "ENG",
        "state_name": "England",
        "country_id": 232,
        "country_code": "GB",
        "country_name": "United Kingdom",
        "latitude": "53.09766000",
        "longitude": "-1.38376000",
        "timezone": null,
        "wikiDataId": "Q2462661"
    },
    {
        "id": 48221,
        "name": "Allhallows",
        "state_id": 2336,
        "state_code": "ENG",
        "state_name": "England",
        "country_id": 232,
        "country_code": "GB",
        "country_name": "United Kingdom",
        "latitude": "51.46866000",
        "longitude": "0.63686000",
        "timezone": null,
        "wikiDataId": "Q2927534"
    },
    {
        "id": 48224,
        "name": "Almondsbury",
        "state_id": 2336,
        "state_code": "ENG",
        "state_name": "England",
        "country_id": 232,
        "country_code": "GB",
        "country_name": "United Kingdom",
        "latitude": "51.55407000",
        "longitude": "-2.57114000",
        "timezone": null,
        "wikiDataId": "Q2665491"
    },
    {
        "id": 48226,
        "name": "Alnwick",
        "state_id": 2336,
        "state_code": "ENG",
        "state_name": "England",
        "country_id": 232,
        "country_code": "GB",
        "country_name": "United Kingdom",
        "latitude": "55.41318000",
        "longitude": "-1.70563000",
        "timezone": null,
        "wikiDataId": "Q1002826"
    },
    {
        "id": 48227,
        "name": "Alresford",
        "state_id": 2336,
        "state_code": "ENG",
        "state_name": "England",
        "country_id": 232,
        "country_code": "GB",
        "country_name": "United Kingdom",
        "latitude": "51.85389000",
        "longitude": "1.00203000",
        "timezone": null,
        "wikiDataId": "Q2397236"
    },
    {
        "id": 48228,
        "name": "Alrewas",
        "state_id": 2336,
        "state_code": "ENG",
        "state_name": "England",
        "country_id": 232,
        "country_code": "GB",
        "country_name": "United Kingdom",
        "latitude": "52.73278000",
        "longitude": "-1.74968000",
        "timezone": null,
        "wikiDataId": "Q2507226"
    },
    {
        "id": 48229,
        "name": "Alsager",
        "state_id": 2336,
        "state_code": "ENG",
        "state_name": "England",
        "country_id": 232,
        "country_code": "GB",
        "country_name": "United Kingdom",
        "latitude": "53.09617000",
        "longitude": "-2.30649000",
        "timezone": null,
        "wikiDataId": "Q2388660"
    },
    {
        "id": 48230,
        "name": "Alston",
        "state_id": 2336,
        "state_code": "ENG",
        "state_name": "England",
        "country_id": 232,
        "country_code": "GB",
        "country_name": "United Kingdom",
        "latitude": "54.80900000",
        "longitude": "-2.43931000",
        "timezone": null,
        "wikiDataId": "Q2560190"
    },
    {
        "id": 48231,
        "name": "Althorne",
        "state_id": 2336,
        "state_code": "ENG",
        "state_name": "England",
        "country_id": 232,
        "country_code": "GB",
        "country_name": "United Kingdom",
        "latitude": "51.65722000",
        "longitude": "0.76085000",
        "timezone": null,
        "wikiDataId": "Q653906"
    },
    {
        "id": 48232,
        "name": "Alton",
        "state_id": 2336,
        "state_code": "ENG",
        "state_name": "England",
        "country_id": 232,
        "country_code": "GB",
        "country_name": "United Kingdom",
        "latitude": "51.14931000",
        "longitude": "-0.97469000",
        "timezone": null,
        "wikiDataId": "Q443840"
    },
    {
        "id": 48233,
        "name": "Altrincham",
        "state_id": 2336,
        "state_code": "ENG",
        "state_name": "England",
        "country_id": 232,
        "country_code": "GB",
        "country_name": "United Kingdom",
        "latitude": "53.38752000",
        "longitude": "-2.34848000",
        "timezone": null,
        "wikiDataId": "Q445058"
    },
    {
        "id": 48235,
        "name": "Alvechurch",
        "state_id": 2336,
        "state_code": "ENG",
        "state_name": "England",
        "country_id": 232,
        "country_code": "GB",
        "country_name": "United Kingdom",
        "latitude": "52.35173000",
        "longitude": "-1.96531000",
        "timezone": null,
        "wikiDataId": "Q1639867"
    },
    {
        "id": 48236,
        "name": "Alveley",
        "state_id": 2336,
        "state_code": "ENG",
        "state_name": "England",
        "country_id": 232,
        "country_code": "GB",
        "country_name": "United Kingdom",
        "latitude": "52.45709000",
        "longitude": "-2.35434000",
        "timezone": null,
        "wikiDataId": "Q3811322"
    },
    {
        "id": 48237,
        "name": "Alveston",
        "state_id": 2336,
        "state_code": "ENG",
        "state_name": "England",
        "country_id": 232,
        "country_code": "GB",
        "country_name": "United Kingdom",
        "latitude": "51.58806000",
        "longitude": "-2.53139000",
        "timezone": null,
        "wikiDataId": "Q4738005"
    },
    {
        "id": 48239,
        "name": "Amble",
        "state_id": 2336,
        "state_code": "ENG",
        "state_name": "England",
        "country_id": 232,
        "country_code": "GB",
        "country_name": "United Kingdom",
        "latitude": "55.33333000",
        "longitude": "-1.58333000",
        "timezone": null,
        "wikiDataId": "Q1940839"
    },
    {
        "id": 48240,
        "name": "Ambleside",
        "state_id": 2336,
        "state_code": "ENG",
        "state_name": "England",
        "country_id": 232,
        "country_code": "GB",
        "country_name": "United Kingdom",
        "latitude": "54.43261000",
        "longitude": "-2.96167000",
        "timezone": null,
        "wikiDataId": "Q391805"
    },
    {
        "id": 48241,
        "name": "Ambrosden",
        "state_id": 2336,
        "state_code": "ENG",
        "state_name": "England",
        "country_id": 232,
        "country_code": "GB",
        "country_name": "United Kingdom",
        "latitude": "51.87087000",
        "longitude": "-1.12129000",
        "timezone": null,
        "wikiDataId": "Q2692883"
    },
    {
        "id": 48242,
        "name": "Amersham",
        "state_id": 2336,
        "state_code": "ENG",
        "state_name": "England",
        "country_id": 232,
        "country_code": "GB",
        "country_name": "United Kingdom",
        "latitude": "51.66667000",
        "longitude": "-0.61667000",
        "timezone": null,
        "wikiDataId": "Q470188"
    },
    {
        "id": 48243,
        "name": "Amersham on the Hill",
        "state_id": 2336,
        "state_code": "ENG",
        "state_name": "England",
        "country_id": 232,
        "country_code": "GB",
        "country_name": "United Kingdom",
        "latitude": "51.67468000",
        "longitude": "-0.60742000",
        "timezone": null,
        "wikiDataId": "Q470188"
    },
    {
        "id": 48244,
        "name": "Amesbury",
        "state_id": 2336,
        "state_code": "ENG",
        "state_name": "England",
        "country_id": 232,
        "country_code": "GB",
        "country_name": "United Kingdom",
        "latitude": "51.17509000",
        "longitude": "-1.78064000",
        "timezone": null,
        "wikiDataId": "Q470299"
    },
    {
        "id": 48247,
        "name": "Ampthill",
        "state_id": 2336,
        "state_code": "ENG",
        "state_name": "England",
        "country_id": 232,
        "country_code": "GB",
        "country_name": "United Kingdom",
        "latitude": "52.02694000",
        "longitude": "-0.49567000",
        "timezone": null,
        "wikiDataId": "Q477350"
    },
    {
        "id": 48248,
        "name": "Ancaster",
        "state_id": 2336,
        "state_code": "ENG",
        "state_name": "England",
        "country_id": 232,
        "country_code": "GB",
        "country_name": "United Kingdom",
        "latitude": "52.98276000",
        "longitude": "-0.53593000",
        "timezone": null,
        "wikiDataId": "Q2636096"
    },
    {
        "id": 48249,
        "name": "Andover",
        "state_id": 2336,
        "state_code": "ENG",
        "state_name": "England",
        "country_id": 232,
        "country_code": "GB",
        "country_name": "United Kingdom",
        "latitude": "51.21135000",
        "longitude": "-1.49393000",
        "timezone": null,
        "wikiDataId": "Q492805"
    },
    {
        "id": 48252,
        "name": "Anna Valley",
        "state_id": 2336,
        "state_code": "ENG",
        "state_name": "England",
        "country_id": 232,
        "country_code": "GB",
        "country_name": "United Kingdom",
        "latitude": "51.19317000",
        "longitude": "-1.50719000",
        "timezone": null,
        "wikiDataId": "Q4767578"
    },
    {
        "id": 48256,
        "name": "Annfield Plain",
        "state_id": 2336,
        "state_code": "ENG",
        "state_name": "England",
        "country_id": 232,
        "country_code": "GB",
        "country_name": "United Kingdom",
        "latitude": "54.85749000",
        "longitude": "-1.73827000",
        "timezone": null,
        "wikiDataId": "Q4769155"
    },
    {
        "id": 48257,
        "name": "Anstey",
        "state_id": 2336,
        "state_code": "ENG",
        "state_name": "England",
        "country_id": 232,
        "country_code": "GB",
        "country_name": "United Kingdom",
        "latitude": "52.67368000",
        "longitude": "-1.18841000",
        "timezone": null,
        "wikiDataId": "Q1613213"
    },
    {
        "id": 48261,
        "name": "Appleby",
        "state_id": 2336,
        "state_code": "ENG",
        "state_name": "England",
        "country_id": 232,
        "country_code": "GB",
        "country_name": "United Kingdom",
        "latitude": "53.62198000",
        "longitude": "-0.56612000",
        "timezone": null,
        "wikiDataId": "Q4781302"
    },
    {
        "id": 48262,
        "name": "Appleby-in-Westmorland",
        "state_id": 2336,
        "state_code": "ENG",
        "state_name": "England",
        "country_id": 232,
        "country_code": "GB",
        "country_name": "United Kingdom",
        "latitude": "54.57704000",
        "longitude": "-2.48978000",
        "timezone": null,
        "wikiDataId": "Q621540"
    },
    {
        "id": 48263,
        "name": "Appledore",
        "state_id": 2336,
        "state_code": "ENG",
        "state_name": "England",
        "country_id": 232,
        "country_code": "GB",
        "country_name": "United Kingdom",
        "latitude": "51.05000000",
        "longitude": "-4.20000000",
        "timezone": null,
        "wikiDataId": "Q1229094"
    },
    {
        "id": 48264,
        "name": "Appleton Thorn",
        "state_id": 2336,
        "state_code": "ENG",
        "state_name": "England",
        "country_id": 232,
        "country_code": "GB",
        "country_name": "United Kingdom",
        "latitude": "53.35045000",
        "longitude": "-2.54488000",
        "timezone": null,
        "wikiDataId": "Q621563"
    },
    {
        "id": 48265,
        "name": "Appley Bridge",
        "state_id": 2336,
        "state_code": "ENG",
        "state_name": "England",
        "country_id": 232,
        "country_code": "GB",
        "country_name": "United Kingdom",
        "latitude": "53.57781000",
        "longitude": "-2.72090000",
        "timezone": null,
        "wikiDataId": "Q4781442"
    },
    {
        "id": 48267,
        "name": "Archway",
        "state_id": 2336,
        "state_code": "ENG",
        "state_name": "England",
        "country_id": 232,
        "country_code": "GB",
        "country_name": "United Kingdom",
        "latitude": "51.56733000",
        "longitude": "-0.13415000",
        "timezone": null,
        "wikiDataId": "Q630668"
    },
    {
        "id": 48270,
        "name": "Ardingly",
        "state_id": 2336,
        "state_code": "ENG",
        "state_name": "England",
        "country_id": 232,
        "country_code": "GB",
        "country_name": "United Kingdom",
        "latitude": "51.04865000",
        "longitude": "-0.07716000",
        "timezone": null,
        "wikiDataId": "Q639397"
    },
    {
        "id": 48275,
        "name": "Arlesey",
        "state_id": 2336,
        "state_code": "ENG",
        "state_name": "England",
        "country_id": 232,
        "country_code": "GB",
        "country_name": "United Kingdom",
        "latitude": "52.00713000",
        "longitude": "-0.26565000",
        "timezone": null,
        "wikiDataId": "Q777460"
    },
    {
        "id": 48279,
        "name": "Armitage",
        "state_id": 2336,
        "state_code": "ENG",
        "state_name": "England",
        "country_id": 232,
        "country_code": "GB",
        "country_name": "United Kingdom",
        "latitude": "52.74193000",
        "longitude": "-1.88266000",
        "timezone": null,
        "wikiDataId": "Q4793618"
    },
    {
        "id": 48280,
        "name": "Armthorpe",
        "state_id": 2336,
        "state_code": "ENG",
        "state_name": "England",
        "country_id": 232,
        "country_code": "GB",
        "country_name": "United Kingdom",
        "latitude": "53.53518000",
        "longitude": "-1.05341000",
        "timezone": null,
        "wikiDataId": "Q2339006"
    },
    {
        "id": 48281,
        "name": "Arnold",
        "state_id": 2336,
        "state_code": "ENG",
        "state_name": "England",
        "country_id": 232,
        "country_code": "GB",
        "country_name": "United Kingdom",
        "latitude": "53.00000000",
        "longitude": "-1.13333000",
        "timezone": null,
        "wikiDataId": "Q694780"
    },
    {
        "id": 48282,
        "name": "Arnside",
        "state_id": 2336,
        "state_code": "ENG",
        "state_name": "England",
        "country_id": 232,
        "country_code": "GB",
        "country_name": "United Kingdom",
        "latitude": "54.20179000",
        "longitude": "-2.83374000",
        "timezone": null,
        "wikiDataId": "Q697494"
    },
    {
        "id": 48283,
        "name": "Arundel",
        "state_id": 2336,
        "state_code": "ENG",
        "state_name": "England",
        "country_id": 232,
        "country_code": "GB",
        "country_name": "United Kingdom",
        "latitude": "50.85423000",
        "longitude": "-0.55393000",
        "timezone": null,
        "wikiDataId": "Q716658"
    },
    {
        "id": 48284,
        "name": "Ascot",
        "state_id": 2336,
        "state_code": "ENG",
        "state_name": "England",
        "country_id": 232,
        "country_code": "GB",
        "country_name": "United Kingdom",
        "latitude": "51.41082000",
        "longitude": "-0.67480000",
        "timezone": null,
        "wikiDataId": "Q723329"
    },
    {
        "id": 48285,
        "name": "Asfordby",
        "state_id": 2336,
        "state_code": "ENG",
        "state_name": "England",
        "country_id": 232,
        "country_code": "GB",
        "country_name": "United Kingdom",
        "latitude": "52.76331000",
        "longitude": "-0.95856000",
        "timezone": null,
        "wikiDataId": "Q2298445"
    },
    {
        "id": 48286,
        "name": "Ash",
        "state_id": 2336,
        "state_code": "ENG",
        "state_name": "England",
        "country_id": 232,
        "country_code": "GB",
        "country_name": "United Kingdom",
        "latitude": "51.27883000",
        "longitude": "1.27974000",
        "timezone": null,
        "wikiDataId": "Q4804328"
    },
    {
        "id": 48287,
        "name": "Ashbourne",
        "state_id": 2336,
        "state_code": "ENG",
        "state_name": "England",
        "country_id": 232,
        "country_code": "GB",
        "country_name": "United Kingdom",
        "latitude": "53.01667000",
        "longitude": "-1.73333000",
        "timezone": null,
        "wikiDataId": "Q2190607"
    },
    {
        "id": 48288,
        "name": "Ashburton",
        "state_id": 2336,
        "state_code": "ENG",
        "state_name": "England",
        "country_id": 232,
        "country_code": "GB",
        "country_name": "United Kingdom",
        "latitude": "50.51559000",
        "longitude": "-3.75572000",
        "timezone": null,
        "wikiDataId": "Q724915"
    },
    {
        "id": 48289,
        "name": "Ashby de la Zouch",
        "state_id": 2336,
        "state_code": "ENG",
        "state_name": "England",
        "country_id": 232,
        "country_code": "GB",
        "country_name": "United Kingdom",
        "latitude": "52.74632000",
        "longitude": "-1.47320000",
        "timezone": null,
        "wikiDataId": "Q2046537"
    },
    {
        "id": 48290,
        "name": "Ashford",
        "state_id": 2336,
        "state_code": "ENG",
        "state_name": "England",
        "country_id": 232,
        "country_code": "GB",
        "country_name": "United Kingdom",
        "latitude": "51.14648000",
        "longitude": "0.87376000",
        "timezone": null,
        "wikiDataId": "Q725261"
    },
    {
        "id": 48292,
        "name": "Ashill",
        "state_id": 2336,
        "state_code": "ENG",
        "state_name": "England",
        "country_id": 232,
        "country_code": "GB",
        "country_name": "United Kingdom",
        "latitude": "52.60435000",
        "longitude": "0.78574000",
        "timezone": null,
        "wikiDataId": "Q943542"
    },
    {
        "id": 48293,
        "name": "Ashington",
        "state_id": 2336,
        "state_code": "ENG",
        "state_name": "England",
        "country_id": 232,
        "country_code": "GB",
        "country_name": "United Kingdom",
        "latitude": "55.17719000",
        "longitude": "-1.56412000",
        "timezone": null,
        "wikiDataId": "Q202348"
    },
    {
        "id": 48294,
        "name": "Ashtead",
        "state_id": 2336,
        "state_code": "ENG",
        "state_name": "England",
        "country_id": 232,
        "country_code": "GB",
        "country_name": "United Kingdom",
        "latitude": "51.30873000",
        "longitude": "-0.29972000",
        "timezone": null,
        "wikiDataId": "Q2220778"
    },
    {
        "id": 48296,
        "name": "Ashton in Makerfield",
        "state_id": 2336,
        "state_code": "ENG",
        "state_name": "England",
        "country_id": 232,
        "country_code": "GB",
        "country_name": "United Kingdom",
        "latitude": "53.48333000",
        "longitude": "-2.65000000",
        "timezone": null,
        "wikiDataId": "Q2557991"
    },
    {
        "id": 48295,
        "name": "Ashton Keynes",
        "state_id": 2336,
        "state_code": "ENG",
        "state_name": "England",
        "country_id": 232,
        "country_code": "GB",
        "country_name": "United Kingdom",
        "latitude": "51.64521000",
        "longitude": "-1.93232000",
        "timezone": null,
        "wikiDataId": "Q2539726"
    },
    {
        "id": 48297,
        "name": "Ashton-under-Lyne",
        "state_id": 2336,
        "state_code": "ENG",
        "state_name": "England",
        "country_id": 232,
        "country_code": "GB",
        "country_name": "United Kingdom",
        "latitude": "53.48876000",
        "longitude": "-2.09890000",
        "timezone": null,
        "wikiDataId": "Q659803"
    },
    {
        "id": 48298,
        "name": "Ashurst",
        "state_id": 2336,
        "state_code": "ENG",
        "state_name": "England",
        "country_id": 232,
        "country_code": "GB",
        "country_name": "United Kingdom",
        "latitude": "50.93236000",
        "longitude": "-0.32375000",
        "timezone": null,
        "wikiDataId": "Q2658590"
    },
    {
        "id": 48299,
        "name": "Ashwell",
        "state_id": 2336,
        "state_code": "ENG",
        "state_name": "England",
        "country_id": 232,
        "country_code": "GB",
        "country_name": "United Kingdom",
        "latitude": "52.03866000",
        "longitude": "-0.15398000",
        "timezone": null,
        "wikiDataId": "Q778795"
    },
    {
        "id": 48300,
        "name": "Askam in Furness",
        "state_id": 2336,
        "state_code": "ENG",
        "state_name": "England",
        "country_id": 232,
        "country_code": "GB",
        "country_name": "United Kingdom",
        "latitude": "54.18718000",
        "longitude": "-3.20467000",
        "timezone": null,
        "wikiDataId": "Q23309970"
    },
    {
        "id": 48301,
        "name": "Askern",
        "state_id": 2336,
        "state_code": "ENG",
        "state_name": "England",
        "country_id": 232,
        "country_code": "GB",
        "country_name": "United Kingdom",
        "latitude": "53.61639000",
        "longitude": "-1.15237000",
        "timezone": null,
        "wikiDataId": "Q2555402"
    },
    {
        "id": 48302,
        "name": "Aslockton",
        "state_id": 2336,
        "state_code": "ENG",
        "state_name": "England",
        "country_id": 232,
        "country_code": "GB",
        "country_name": "United Kingdom",
        "latitude": "52.95299000",
        "longitude": "-0.89700000",
        "timezone": null,
        "wikiDataId": "Q1957196"
    },
    {
        "id": 48303,
        "name": "Aspatria",
        "state_id": 2336,
        "state_code": "ENG",
        "state_name": "England",
        "country_id": 232,
        "country_code": "GB",
        "country_name": "United Kingdom",
        "latitude": "54.76574000",
        "longitude": "-3.32783000",
        "timezone": null,
        "wikiDataId": "Q1857198"
    },
    {
        "id": 48304,
        "name": "Aston",
        "state_id": 2336,
        "state_code": "ENG",
        "state_name": "England",
        "country_id": 232,
        "country_code": "GB",
        "country_name": "United Kingdom",
        "latitude": "52.50000000",
        "longitude": "-1.88333000",
        "timezone": null,
        "wikiDataId": "Q649838"
    },
    {
        "id": 48305,
        "name": "Aston Clinton",
        "state_id": 2336,
        "state_code": "ENG",
        "state_name": "England",
        "country_id": 232,
        "country_code": "GB",
        "country_name": "United Kingdom",
        "latitude": "51.80020000",
        "longitude": "-0.72540000",
        "timezone": null,
        "wikiDataId": "Q2044251"
    },
    {
        "id": 48306,
        "name": "Aston-on-Trent",
        "state_id": 2336,
        "state_code": "ENG",
        "state_name": "England",
        "country_id": 232,
        "country_code": "GB",
        "country_name": "United Kingdom",
        "latitude": "52.86172000",
        "longitude": "-1.38642000",
        "timezone": null,
        "wikiDataId": "Q2000768"
    },
    {
        "id": 48307,
        "name": "Astwood Bank",
        "state_id": 2336,
        "state_code": "ENG",
        "state_name": "England",
        "country_id": 232,
        "country_code": "GB",
        "country_name": "United Kingdom",
        "latitude": "52.25993000",
        "longitude": "-1.93754000",
        "timezone": null,
        "wikiDataId": "Q4811794"
    },
    {
        "id": 48308,
        "name": "Atherstone",
        "state_id": 2336,
        "state_code": "ENG",
        "state_name": "England",
        "country_id": 232,
        "country_code": "GB",
        "country_name": "United Kingdom",
        "latitude": "52.57536000",
        "longitude": "-1.54693000",
        "timezone": null,
        "wikiDataId": "Q747778"
    },
    {
        "id": 48309,
        "name": "Atherton",
        "state_id": 2336,
        "state_code": "ENG",
        "state_name": "England",
        "country_id": 232,
        "country_code": "GB",
        "country_name": "United Kingdom",
        "latitude": "53.52371000",
        "longitude": "-2.49354000",
        "timezone": null,
        "wikiDataId": "Q755504"
    },
    {
        "id": 48310,
        "name": "Attleborough",
        "state_id": 2336,
        "state_code": "ENG",
        "state_name": "England",
        "country_id": 232,
        "country_code": "GB",
        "country_name": "United Kingdom",
        "latitude": "52.51779000",
        "longitude": "1.01572000",
        "timezone": null,
        "wikiDataId": "Q1975526"
    },
    {
        "id": 48311,
        "name": "Atworth",
        "state_id": 2336,
        "state_code": "ENG",
        "state_name": "England",
        "country_id": 232,
        "country_code": "GB",
        "country_name": "United Kingdom",
        "latitude": "51.39234000",
        "longitude": "-2.19297000",
        "timezone": null,
        "wikiDataId": "Q2199249"
    },
    {
        "id": 48315,
        "name": "Auckley",
        "state_id": 2336,
        "state_code": "ENG",
        "state_name": "England",
        "country_id": 232,
        "country_code": "GB",
        "country_name": "United Kingdom",
        "latitude": "53.50386000",
        "longitude": "-1.02174000",
        "timezone": null,
        "wikiDataId": "Q4819596"
    },
    {
        "id": 48316,
        "name": "Audlem",
        "state_id": 2336,
        "state_code": "ENG",
        "state_name": "England",
        "country_id": 232,
        "country_code": "GB",
        "country_name": "United Kingdom",
        "latitude": "52.98956000",
        "longitude": "-2.50706000",
        "timezone": null,
        "wikiDataId": "Q2870811"
    },
    {
        "id": 48317,
        "name": "Audley",
        "state_id": 2336,
        "state_code": "ENG",
        "state_name": "England",
        "country_id": 232,
        "country_code": "GB",
        "country_name": "United Kingdom",
        "latitude": "53.05000000",
        "longitude": "-2.30000000",
        "timezone": null,
        "wikiDataId": "Q4820049"
    },
    {
        "id": 48318,
        "name": "Aveley",
        "state_id": 2336,
        "state_code": "ENG",
        "state_name": "England",
        "country_id": 232,
        "country_code": "GB",
        "country_name": "United Kingdom",
        "latitude": "51.49987000",
        "longitude": "0.25174000",
        "timezone": null,
        "wikiDataId": "Q2449718"
    },
    {
        "id": 48319,
        "name": "Avening",
        "state_id": 2336,
        "state_code": "ENG",
        "state_name": "England",
        "country_id": 232,
        "country_code": "GB",
        "country_name": "United Kingdom",
        "latitude": "51.68010000",
        "longitude": "-2.16903000",
        "timezone": null,
        "wikiDataId": "Q4828132"
    },
    {
        "id": 48321,
        "name": "Awsworth",
        "state_id": 2336,
        "state_code": "ENG",
        "state_name": "England",
        "country_id": 232,
        "country_code": "GB",
        "country_name": "United Kingdom",
        "latitude": "52.98912000",
        "longitude": "-1.28354000",
        "timezone": null,
        "wikiDataId": "Q2446068"
    },
    {
        "id": 48322,
        "name": "Axbridge",
        "state_id": 2336,
        "state_code": "ENG",
        "state_name": "England",
        "country_id": 232,
        "country_code": "GB",
        "country_name": "United Kingdom",
        "latitude": "51.28466000",
        "longitude": "-2.82078000",
        "timezone": null,
        "wikiDataId": "Q651889"
    },
    {
        "id": 48323,
        "name": "Axminster",
        "state_id": 2336,
        "state_code": "ENG",
        "state_name": "England",
        "country_id": 232,
        "country_code": "GB",
        "country_name": "United Kingdom",
        "latitude": "50.78259000",
        "longitude": "-2.99787000",
        "timezone": null,
        "wikiDataId": "Q792596"
    },
    {
        "id": 48324,
        "name": "Aylesbury",
        "state_id": 2336,
        "state_code": "ENG",
        "state_name": "England",
        "country_id": 232,
        "country_code": "GB",
        "country_name": "United Kingdom",
        "latitude": "51.81665000",
        "longitude": "-0.81458000",
        "timezone": null,
        "wikiDataId": "Q213474"
    },
    {
        "id": 48325,
        "name": "Aylesford",
        "state_id": 2336,
        "state_code": "ENG",
        "state_name": "England",
        "country_id": 232,
        "country_code": "GB",
        "country_name": "United Kingdom",
        "latitude": "51.30374000",
        "longitude": "0.47936000",
        "timezone": null,
        "wikiDataId": "Q793057"
    },
    {
        "id": 48326,
        "name": "Aylesham",
        "state_id": 2336,
        "state_code": "ENG",
        "state_name": "England",
        "country_id": 232,
        "country_code": "GB",
        "country_name": "United Kingdom",
        "latitude": "51.22539000",
        "longitude": "1.20157000",
        "timezone": null,
        "wikiDataId": "Q2485028"
    },
    {
        "id": 48327,
        "name": "Aylsham",
        "state_id": 2336,
        "state_code": "ENG",
        "state_name": "England",
        "country_id": 232,
        "country_code": "GB",
        "country_name": "United Kingdom",
        "latitude": "52.79672000",
        "longitude": "1.25107000",
        "timezone": null,
        "wikiDataId": "Q237625"
    },
    {
        "id": 48329,
        "name": "Babworth",
        "state_id": 2336,
        "state_code": "ENG",
        "state_name": "England",
        "country_id": 232,
        "country_code": "GB",
        "country_name": "United Kingdom",
        "latitude": "53.31799000",
        "longitude": "-0.97583000",
        "timezone": null,
        "wikiDataId": "Q2298437"
    },
    {
        "id": 48330,
        "name": "Backworth",
        "state_id": 2336,
        "state_code": "ENG",
        "state_name": "England",
        "country_id": 232,
        "country_code": "GB",
        "country_name": "United Kingdom",
        "latitude": "55.04229000",
        "longitude": "-1.52779000",
        "timezone": null,
        "wikiDataId": "Q3632663"
    },
    {
        "id": 48331,
        "name": "Bacton",
        "state_id": 2336,
        "state_code": "ENG",
        "state_name": "England",
        "country_id": 232,
        "country_code": "GB",
        "country_name": "United Kingdom",
        "latitude": "52.26667000",
        "longitude": "1.01667000",
        "timezone": null,
        "wikiDataId": "Q2578348"
    },
    {
        "id": 48332,
        "name": "Bacup",
        "state_id": 2336,
        "state_code": "ENG",
        "state_name": "England",
        "country_id": 232,
        "country_code": "GB",
        "country_name": "United Kingdom",
        "latitude": "53.70336000",
        "longitude": "-2.20070000",
        "timezone": null,
        "wikiDataId": "Q2514944"
    },
    {
        "id": 48333,
        "name": "Badsey",
        "state_id": 2336,
        "state_code": "ENG",
        "state_name": "England",
        "country_id": 232,
        "country_code": "GB",
        "country_name": "United Kingdom",
        "latitude": "52.08819000",
        "longitude": "-1.89925000",
        "timezone": null,
        "wikiDataId": "Q4841152"
    },
    {
        "id": 48334,
        "name": "Badsworth",
        "state_id": 2336,
        "state_code": "ENG",
        "state_name": "England",
        "country_id": 232,
        "country_code": "GB",
        "country_name": "United Kingdom",
        "latitude": "53.62876000",
        "longitude": "-1.30128000",
        "timezone": null,
        "wikiDataId": "Q2646554"
    },
    {
        "id": 48336,
        "name": "Bagshot",
        "state_id": 2336,
        "state_code": "ENG",
        "state_name": "England",
        "country_id": 232,
        "country_code": "GB",
        "country_name": "United Kingdom",
        "latitude": "51.36069000",
        "longitude": "-0.68802000",
        "timezone": null,
        "wikiDataId": "Q4842133"
    },
    {
        "id": 48337,
        "name": "Bagworth",
        "state_id": 2336,
        "state_code": "ENG",
        "state_name": "England",
        "country_id": 232,
        "country_code": "GB",
        "country_name": "United Kingdom",
        "latitude": "52.67265000",
        "longitude": "-1.34274000",
        "timezone": null,
        "wikiDataId": "Q4842193"
    },
    {
        "id": 48338,
        "name": "Baildon",
        "state_id": 2336,
        "state_code": "ENG",
        "state_name": "England",
        "country_id": 232,
        "country_code": "GB",
        "country_name": "United Kingdom",
        "latitude": "53.84711000",
        "longitude": "-1.78785000",
        "timezone": null,
        "wikiDataId": "Q2575062"
    },
    {
        "id": 48339,
        "name": "Bakewell",
        "state_id": 2336,
        "state_code": "ENG",
        "state_name": "England",
        "country_id": 232,
        "country_code": "GB",
        "country_name": "United Kingdom",
        "latitude": "53.21338000",
        "longitude": "-1.67481000",
        "timezone": null,
        "wikiDataId": "Q2462719"
    },
    {
        "id": 48341,
        "name": "Balcombe",
        "state_id": 2336,
        "state_code": "ENG",
        "state_name": "England",
        "country_id": 232,
        "country_code": "GB",
        "country_name": "United Kingdom",
        "latitude": "51.05726000",
        "longitude": "-0.13450000",
        "timezone": null,
        "wikiDataId": "Q2880645"
    },
    {
        "id": 48342,
        "name": "Baldock",
        "state_id": 2336,
        "state_code": "ENG",
        "state_name": "England",
        "country_id": 232,
        "country_code": "GB",
        "country_name": "United Kingdom",
        "latitude": "51.98781000",
        "longitude": "-0.18835000",
        "timezone": null,
        "wikiDataId": "Q789348"
    },
    {
        "id": 48362,
        "name": "Balsall Common",
        "state_id": 2336,
        "state_code": "ENG",
        "state_name": "England",
        "country_id": 232,
        "country_code": "GB",
        "country_name": "United Kingdom",
        "latitude": "52.39186000",
        "longitude": "-1.65040000",
        "timezone": null,
        "wikiDataId": "Q3633504"
    },
    {
        "id": 48363,
        "name": "Balsham",
        "state_id": 2336,
        "state_code": "ENG",
        "state_name": "England",
        "country_id": 232,
        "country_code": "GB",
        "country_name": "United Kingdom",
        "latitude": "52.13238000",
        "longitude": "0.31586000",
        "timezone": null,
        "wikiDataId": "Q4852574"
    },
    {
        "id": 48364,
        "name": "Bamburgh",
        "state_id": 2336,
        "state_code": "ENG",
        "state_name": "England",
        "country_id": 232,
        "country_code": "GB",
        "country_name": "United Kingdom",
        "latitude": "55.60652000",
        "longitude": "-1.71704000",
        "timezone": null,
        "wikiDataId": "Q805983"
    },
    {
        "id": 48365,
        "name": "Bampton",
        "state_id": 2336,
        "state_code": "ENG",
        "state_name": "England",
        "country_id": 232,
        "country_code": "GB",
        "country_name": "United Kingdom",
        "latitude": "51.72634000",
        "longitude": "-1.54547000",
        "timezone": null,
        "wikiDataId": "Q2012293"
    },
    {
        "id": 48367,
        "name": "Banbury",
        "state_id": 2336,
        "state_code": "ENG",
        "state_name": "England",
        "country_id": 232,
        "country_code": "GB",
        "country_name": "United Kingdom",
        "latitude": "52.06320000",
        "longitude": "-1.34222000",
        "timezone": null,
        "wikiDataId": "Q806160"
    },
    {
        "id": 48372,
        "name": "Banham",
        "state_id": 2336,
        "state_code": "ENG",
        "state_name": "England",
        "country_id": 232,
        "country_code": "GB",
        "country_name": "United Kingdom",
        "latitude": "52.45240000",
        "longitude": "1.03683000",
        "timezone": null,
        "wikiDataId": "Q2700979"
    },
    {
        "id": 48375,
        "name": "Banks",
        "state_id": 2336,
        "state_code": "ENG",
        "state_name": "England",
        "country_id": 232,
        "country_code": "GB",
        "country_name": "United Kingdom",
        "latitude": "53.68333000",
        "longitude": "-2.91667000",
        "timezone": null,
        "wikiDataId": "Q4856470"
    },
    {
        "id": 48377,
        "name": "Banstead",
        "state_id": 2336,
        "state_code": "ENG",
        "state_name": "England",
        "country_id": 232,
        "country_code": "GB",
        "country_name": "United Kingdom",
        "latitude": "51.32233000",
        "longitude": "-0.20685000",
        "timezone": null,
        "wikiDataId": "Q2280322"
    },
    {
        "id": 48378,
        "name": "Banwell",
        "state_id": 2336,
        "state_code": "ENG",
        "state_name": "England",
        "country_id": 232,
        "country_code": "GB",
        "country_name": "United Kingdom",
        "latitude": "51.32894000",
        "longitude": "-2.86914000",
        "timezone": null,
        "wikiDataId": "Q2229524"
    },
    {
        "id": 48379,
        "name": "Bar Hill",
        "state_id": 2336,
        "state_code": "ENG",
        "state_name": "England",
        "country_id": 232,
        "country_code": "GB",
        "country_name": "United Kingdom",
        "latitude": "52.24899000",
        "longitude": "0.02883000",
        "timezone": null,
        "wikiDataId": "Q2028934"
    },
    {
        "id": 48380,
        "name": "Barbican",
        "state_id": 2336,
        "state_code": "ENG",
        "state_name": "England",
        "country_id": 232,
        "country_code": "GB",
        "country_name": "United Kingdom",
        "latitude": "51.51988000",
        "longitude": "-0.09446000",
        "timezone": null,
        "wikiDataId": "Q2028934"
    },
    {
        "id": 48381,
        "name": "Bardney",
        "state_id": 2336,
        "state_code": "ENG",
        "state_name": "England",
        "country_id": 232,
        "country_code": "GB",
        "country_name": "United Kingdom",
        "latitude": "53.21005000",
        "longitude": "-0.32371000",
        "timezone": null,
        "wikiDataId": "Q808025"
    },
    {
        "id": 48382,
        "name": "Bardsey",
        "state_id": 2336,
        "state_code": "ENG",
        "state_name": "England",
        "country_id": 232,
        "country_code": "GB",
        "country_name": "United Kingdom",
        "latitude": "53.88492000",
        "longitude": "-1.44539000",
        "timezone": null,
        "wikiDataId": "Q4860222"
    },
    {
        "id": 48385,
        "name": "Barham",
        "state_id": 2336,
        "state_code": "ENG",
        "state_name": "England",
        "country_id": 232,
        "country_code": "GB",
        "country_name": "United Kingdom",
        "latitude": "51.20570000",
        "longitude": "1.15734000",
        "timezone": null,
        "wikiDataId": "Q1836548"
    },
    {
        "id": 48386,
        "name": "Barking",
        "state_id": 2336,
        "state_code": "ENG",
        "state_name": "England",
        "country_id": 232,
        "country_code": "GB",
        "country_name": "United Kingdom",
        "latitude": "51.53333000",
        "longitude": "0.08333000",
        "timezone": null,
        "wikiDataId": "Q377720"
    },
    {
        "id": 48387,
        "name": "Barkisland",
        "state_id": 2336,
        "state_code": "ENG",
        "state_name": "England",
        "country_id": 232,
        "country_code": "GB",
        "country_name": "United Kingdom",
        "latitude": "53.67614000",
        "longitude": "-1.91840000",
        "timezone": null,
        "wikiDataId": "Q4861069"
    },
    {
        "id": 48388,
        "name": "Barlaston",
        "state_id": 2336,
        "state_code": "ENG",
        "state_name": "England",
        "country_id": 232,
        "country_code": "GB",
        "country_name": "United Kingdom",
        "latitude": "52.94200000",
        "longitude": "-2.17050000",
        "timezone": null,
        "wikiDataId": "Q2353329"
    },
    {
        "id": 48389,
        "name": "Barlborough",
        "state_id": 2336,
        "state_code": "ENG",
        "state_name": "England",
        "country_id": 232,
        "country_code": "GB",
        "country_name": "United Kingdom",
        "latitude": "53.28795000",
        "longitude": "-1.28815000",
        "timezone": null,
        "wikiDataId": "Q4425599"
    },
    {
        "id": 48390,
        "name": "Barlby",
        "state_id": 2336,
        "state_code": "ENG",
        "state_name": "England",
        "country_id": 232,
        "country_code": "GB",
        "country_name": "United Kingdom",
        "latitude": "53.79964000",
        "longitude": "-1.04061000",
        "timezone": null,
        "wikiDataId": "Q693142"
    },
    {
        "id": 48391,
        "name": "Barlestone",
        "state_id": 2336,
        "state_code": "ENG",
        "state_name": "England",
        "country_id": 232,
        "country_code": "GB",
        "country_name": "United Kingdom",
        "latitude": "52.64718000",
        "longitude": "-1.37013000",
        "timezone": null,
        "wikiDataId": "Q2175610"
    },
    {
        "id": 48392,
        "name": "Barmby on the Marsh",
        "state_id": 2336,
        "state_code": "ENG",
        "state_name": "England",
        "country_id": 232,
        "country_code": "GB",
        "country_name": "United Kingdom",
        "latitude": "53.74896000",
        "longitude": "-0.95607000",
        "timezone": null,
        "wikiDataId": "Q2415035"
    },
    {
        "id": 48394,
        "name": "Barnack",
        "state_id": 2336,
        "state_code": "ENG",
        "state_name": "England",
        "country_id": 232,
        "country_code": "GB",
        "country_name": "United Kingdom",
        "latitude": "52.63181000",
        "longitude": "-0.40821000",
        "timezone": null,
        "wikiDataId": "Q3355527"
    },
    {
        "id": 48395,
        "name": "Barnard Castle",
        "state_id": 2336,
        "state_code": "ENG",
        "state_name": "England",
        "country_id": 232,
        "country_code": "GB",
        "country_name": "United Kingdom",
        "latitude": "54.54150000",
        "longitude": "-1.91900000",
        "timezone": null,
        "wikiDataId": "Q808437"
    },
    {
        "id": 48396,
        "name": "Barnburgh",
        "state_id": 2336,
        "state_code": "ENG",
        "state_name": "England",
        "country_id": 232,
        "country_code": "GB",
        "country_name": "United Kingdom",
        "latitude": "53.52408000",
        "longitude": "-1.27300000",
        "timezone": null,
        "wikiDataId": "Q2786745"
    },
    {
        "id": 48397,
        "name": "Barnet",
        "state_id": 2336,
        "state_code": "ENG",
        "state_name": "England",
        "country_id": 232,
        "country_code": "GB",
        "country_name": "United Kingdom",
        "latitude": "51.65000000",
        "longitude": "-0.20000000",
        "timezone": null,
        "wikiDataId": "Q2786745"
    },
    {
        "id": 48398,
        "name": "Barnetby le Wold",
        "state_id": 2336,
        "state_code": "ENG",
        "state_name": "England",
        "country_id": 232,
        "country_code": "GB",
        "country_name": "United Kingdom",
        "latitude": "53.57480000",
        "longitude": "-0.40607000",
        "timezone": null,
        "wikiDataId": "Q602355"
    },
    {
        "id": 48399,
        "name": "Barnham",
        "state_id": 2336,
        "state_code": "ENG",
        "state_name": "England",
        "country_id": 232,
        "country_code": "GB",
        "country_name": "United Kingdom",
        "latitude": "50.83120000",
        "longitude": "-0.63789000",
        "timezone": null,
        "wikiDataId": "Q962567"
    },
    {
        "id": 48400,
        "name": "Barnoldswick",
        "state_id": 2336,
        "state_code": "ENG",
        "state_name": "England",
        "country_id": 232,
        "country_code": "GB",
        "country_name": "United Kingdom",
        "latitude": "53.91711000",
        "longitude": "-2.18705000",
        "timezone": null,
        "wikiDataId": "Q2049578"
    },
    {
        "id": 48401,
        "name": "Barnsbury",
        "state_id": 2336,
        "state_code": "ENG",
        "state_name": "England",
        "country_id": 232,
        "country_code": "GB",
        "country_name": "United Kingdom",
        "latitude": "51.54067000",
        "longitude": "-0.11675000",
        "timezone": null,
        "wikiDataId": "Q2049578"
    },
    {
        "id": 48402,
        "name": "Barnsley",
        "state_id": 2336,
        "state_code": "ENG",
        "state_name": "England",
        "country_id": 232,
        "country_code": "GB",
        "country_name": "United Kingdom",
        "latitude": "53.53333000",
        "longitude": "-1.50000000",
        "timezone": null,
        "wikiDataId": "Q1857382"
    },
    {
        "id": 48403,
        "name": "Barnstaple",
        "state_id": 2336,
        "state_code": "ENG",
        "state_name": "England",
        "country_id": 232,
        "country_code": "GB",
        "country_name": "United Kingdom",
        "latitude": "51.08022000",
        "longitude": "-4.05808000",
        "timezone": null,
        "wikiDataId": "Q808532"
    },
    {
        "id": 48404,
        "name": "Barnt Green",
        "state_id": 2336,
        "state_code": "ENG",
        "state_name": "England",
        "country_id": 232,
        "country_code": "GB",
        "country_name": "United Kingdom",
        "latitude": "52.35902000",
        "longitude": "-2.00715000",
        "timezone": null,
        "wikiDataId": "Q582689"
    },
    {
        "id": 48405,
        "name": "Barnwood",
        "state_id": 2336,
        "state_code": "ENG",
        "state_name": "England",
        "country_id": 232,
        "country_code": "GB",
        "country_name": "United Kingdom",
        "latitude": "51.86393000",
        "longitude": "-2.20087000",
        "timezone": null,
        "wikiDataId": "Q4862033"
    },
    {
        "id": 48408,
        "name": "Barrow in Furness",
        "state_id": 2336,
        "state_code": "ENG",
        "state_name": "England",
        "country_id": 232,
        "country_code": "GB",
        "country_name": "United Kingdom",
        "latitude": "54.11094000",
        "longitude": "-3.22758000",
        "timezone": null,
        "wikiDataId": "Q671892"
    },
    {
        "id": 48409,
        "name": "Barrow upon Humber",
        "state_id": 2336,
        "state_code": "ENG",
        "state_name": "England",
        "country_id": 232,
        "country_code": "GB",
        "country_name": "United Kingdom",
        "latitude": "53.67550000",
        "longitude": "-0.38062000",
        "timezone": null,
        "wikiDataId": "Q1787722"
    },
    {
        "id": 48410,
        "name": "Barrow upon Soar",
        "state_id": 2336,
        "state_code": "ENG",
        "state_name": "England",
        "country_id": 232,
        "country_code": "GB",
        "country_name": "United Kingdom",
        "latitude": "52.75178000",
        "longitude": "-1.14601000",
        "timezone": null,
        "wikiDataId": "Q808993"
    },
    {
        "id": 48411,
        "name": "Barrowby",
        "state_id": 2336,
        "state_code": "ENG",
        "state_name": "England",
        "country_id": 232,
        "country_code": "GB",
        "country_name": "United Kingdom",
        "latitude": "52.91636000",
        "longitude": "-0.69094000",
        "timezone": null,
        "wikiDataId": "Q2491304"
    },
    {
        "id": 48412,
        "name": "Barrowford",
        "state_id": 2336,
        "state_code": "ENG",
        "state_name": "England",
        "country_id": 232,
        "country_code": "GB",
        "country_name": "United Kingdom",
        "latitude": "53.84650000",
        "longitude": "-2.21838000",
        "timezone": null,
        "wikiDataId": "Q303243"
    },
    {
        "id": 48414,
        "name": "Bartley Green",
        "state_id": 2336,
        "state_code": "ENG",
        "state_name": "England",
        "country_id": 232,
        "country_code": "GB",
        "country_name": "United Kingdom",
        "latitude": "52.43532000",
        "longitude": "-1.99707000",
        "timezone": null,
        "wikiDataId": "Q809009"
    },
    {
        "id": 48415,
        "name": "Barton under Needwood",
        "state_id": 2336,
        "state_code": "ENG",
        "state_name": "England",
        "country_id": 232,
        "country_code": "GB",
        "country_name": "United Kingdom",
        "latitude": "52.76268000",
        "longitude": "-1.72400000",
        "timezone": null,
        "wikiDataId": "Q4865583"
    },
    {
        "id": 48416,
        "name": "Barton upon Humber",
        "state_id": 2336,
        "state_code": "ENG",
        "state_name": "England",
        "country_id": 232,
        "country_code": "GB",
        "country_name": "United Kingdom",
        "latitude": "53.68915000",
        "longitude": "-0.44377000",
        "timezone": null,
        "wikiDataId": "Q809550"
    },
    {
        "id": 48417,
        "name": "Barton-le-Clay",
        "state_id": 2336,
        "state_code": "ENG",
        "state_name": "England",
        "country_id": 232,
        "country_code": "GB",
        "country_name": "United Kingdom",
        "latitude": "51.96598000",
        "longitude": "-0.42731000",
        "timezone": null,
        "wikiDataId": "Q790951"
    },
    {
        "id": 48418,
        "name": "Baschurch",
        "state_id": 2336,
        "state_code": "ENG",
        "state_name": "England",
        "country_id": 232,
        "country_code": "GB",
        "country_name": "United Kingdom",
        "latitude": "52.78848000",
        "longitude": "-2.85284000",
        "timezone": null,
        "wikiDataId": "Q3812274"
    },
    {
        "id": 48419,
        "name": "Basford",
        "state_id": 2336,
        "state_code": "ENG",
        "state_name": "England",
        "country_id": 232,
        "country_code": "GB",
        "country_name": "United Kingdom",
        "latitude": "52.96667000",
        "longitude": "-1.18333000",
        "timezone": null,
        "wikiDataId": "Q4866737"
    },
    {
        "id": 48420,
        "name": "Basildon",
        "state_id": 2336,
        "state_code": "ENG",
        "state_name": "England",
        "country_id": 232,
        "country_code": "GB",
        "country_name": "United Kingdom",
        "latitude": "51.56844000",
        "longitude": "0.45782000",
        "timezone": null,
        "wikiDataId": "Q216649"
    },
    {
        "id": 48421,
        "name": "Basingstoke",
        "state_id": 2336,
        "state_code": "ENG",
        "state_name": "England",
        "country_id": 232,
        "country_code": "GB",
        "country_name": "United Kingdom",
        "latitude": "51.26249000",
        "longitude": "-1.08708000",
        "timezone": null,
        "wikiDataId": "Q810196"
    },
    {
        "id": 48422,
        "name": "Baslow",
        "state_id": 2336,
        "state_code": "ENG",
        "state_name": "England",
        "country_id": 232,
        "country_code": "GB",
        "country_name": "United Kingdom",
        "latitude": "53.24811000",
        "longitude": "-1.62246000",
        "timezone": null,
        "wikiDataId": "Q4867787"
    },
    {
        "id": 48423,
        "name": "Bassingbourn",
        "state_id": 2336,
        "state_code": "ENG",
        "state_name": "England",
        "country_id": 232,
        "country_code": "GB",
        "country_name": "United Kingdom",
        "latitude": "52.07821000",
        "longitude": "-0.05390000",
        "timezone": null,
        "wikiDataId": "Q23900657"
    },
    {
        "id": 48424,
        "name": "Bassingham",
        "state_id": 2336,
        "state_code": "ENG",
        "state_name": "England",
        "country_id": 232,
        "country_code": "GB",
        "country_name": "United Kingdom",
        "latitude": "53.12881000",
        "longitude": "-0.63765000",
        "timezone": null,
        "wikiDataId": "Q927842"
    },
    {
        "id": 48425,
        "name": "Baston",
        "state_id": 2336,
        "state_code": "ENG",
        "state_name": "England",
        "country_id": 232,
        "country_code": "GB",
        "country_name": "United Kingdom",
        "latitude": "52.71311000",
        "longitude": "-0.35173000",
        "timezone": null,
        "wikiDataId": "Q4868365"
    },
    {
        "id": 48426,
        "name": "Bath",
        "state_id": 2336,
        "state_code": "ENG",
        "state_name": "England",
        "country_id": 232,
        "country_code": "GB",
        "country_name": "United Kingdom",
        "latitude": "51.37510000",
        "longitude": "-2.36172000",
        "timezone": null,
        "wikiDataId": "Q22889"
    },
    {
        "id": 48427,
        "name": "Bath and North East Somerset",
        "state_id": 2336,
        "state_code": "ENG",
        "state_name": "England",
        "country_id": 232,
        "country_code": "GB",
        "country_name": "United Kingdom",
        "latitude": "51.33333000",
        "longitude": "-2.50000000",
        "timezone": null,
        "wikiDataId": "Q810793"
    },
    {
        "id": 48429,
        "name": "Batley",
        "state_id": 2336,
        "state_code": "ENG",
        "state_name": "England",
        "country_id": 232,
        "country_code": "GB",
        "country_name": "United Kingdom",
        "latitude": "53.70291000",
        "longitude": "-1.63370000",
        "timezone": null,
        "wikiDataId": "Q810847"
    },
    {
        "id": 48430,
        "name": "Battersea",
        "state_id": 2336,
        "state_code": "ENG",
        "state_name": "England",
        "country_id": 232,
        "country_code": "GB",
        "country_name": "United Kingdom",
        "latitude": "51.47475000",
        "longitude": "-0.15547000",
        "timezone": null,
        "wikiDataId": "Q810847"
    },
    {
        "id": 48431,
        "name": "Battle",
        "state_id": 2336,
        "state_code": "ENG",
        "state_name": "England",
        "country_id": 232,
        "country_code": "GB",
        "country_name": "United Kingdom",
        "latitude": "50.91732000",
        "longitude": "0.48417000",
        "timezone": null,
        "wikiDataId": "Q737593"
    },
    {
        "id": 48432,
        "name": "Bawtry",
        "state_id": 2336,
        "state_code": "ENG",
        "state_name": "England",
        "country_id": 232,
        "country_code": "GB",
        "country_name": "United Kingdom",
        "latitude": "53.43146000",
        "longitude": "-1.01878000",
        "timezone": null,
        "wikiDataId": "Q586090"
    },
    {
        "id": 48433,
        "name": "Bay Horse",
        "state_id": 2336,
        "state_code": "ENG",
        "state_name": "England",
        "country_id": 232,
        "country_code": "GB",
        "country_name": "United Kingdom",
        "latitude": "53.96867000",
        "longitude": "-2.77603000",
        "timezone": null,
        "wikiDataId": "Q4874018"
    },
    {
        "id": 48434,
        "name": "Bayston Hill",
        "state_id": 2336,
        "state_code": "ENG",
        "state_name": "England",
        "country_id": 232,
        "country_code": "GB",
        "country_name": "United Kingdom",
        "latitude": "52.67550000",
        "longitude": "-2.76156000",
        "timezone": null,
        "wikiDataId": "Q3811893"
    },
    {
        "id": 48435,
        "name": "Bayswater",
        "state_id": 2336,
        "state_code": "ENG",
        "state_name": "England",
        "country_id": 232,
        "country_code": "GB",
        "country_name": "United Kingdom",
        "latitude": "51.51116000",
        "longitude": "-0.18426000",
        "timezone": null,
        "wikiDataId": "Q41890"
    },
    {
        "id": 48436,
        "name": "Beaconsfield",
        "state_id": 2336,
        "state_code": "ENG",
        "state_name": "England",
        "country_id": 232,
        "country_code": "GB",
        "country_name": "United Kingdom",
        "latitude": "51.61219000",
        "longitude": "-0.64732000",
        "timezone": null,
        "wikiDataId": "Q812906"
    },
    {
        "id": 48437,
        "name": "Beadnell",
        "state_id": 2336,
        "state_code": "ENG",
        "state_name": "England",
        "country_id": 232,
        "country_code": "GB",
        "country_name": "United Kingdom",
        "latitude": "55.55670000",
        "longitude": "-1.63250000",
        "timezone": null,
        "wikiDataId": "Q2689370"
    },
    {
        "id": 48438,
        "name": "Beaminster",
        "state_id": 2336,
        "state_code": "ENG",
        "state_name": "England",
        "country_id": 232,
        "country_code": "GB",
        "country_name": "United Kingdom",
        "latitude": "50.80900000",
        "longitude": "-2.73910000",
        "timezone": null,
        "wikiDataId": "Q812945"
    },
    {
        "id": 48442,
        "name": "Bebington",
        "state_id": 2336,
        "state_code": "ENG",
        "state_name": "England",
        "country_id": 232,
        "country_code": "GB",
        "country_name": "United Kingdom",
        "latitude": "53.35000000",
        "longitude": "-3.01667000",
        "timezone": null,
        "wikiDataId": "Q813552"
    },
    {
        "id": 48443,
        "name": "Beccles",
        "state_id": 2336,
        "state_code": "ENG",
        "state_name": "England",
        "country_id": 232,
        "country_code": "GB",
        "country_name": "United Kingdom",
        "latitude": "52.45936000",
        "longitude": "1.56465000",
        "timezone": null,
        "wikiDataId": "Q813574"
    },
    {
        "id": 48444,
        "name": "Beckenham",
        "state_id": 2336,
        "state_code": "ENG",
        "state_name": "England",
        "country_id": 232,
        "country_code": "GB",
        "country_name": "United Kingdom",
        "latitude": "51.40878000",
        "longitude": "-0.02526000",
        "timezone": null,
        "wikiDataId": "Q813574"
    },
    {
        "id": 48445,
        "name": "Beckingham",
        "state_id": 2336,
        "state_code": "ENG",
        "state_name": "England",
        "country_id": 232,
        "country_code": "GB",
        "country_name": "United Kingdom",
        "latitude": "53.40000000",
        "longitude": "-0.83333000",
        "timezone": null,
        "wikiDataId": "Q2568462"
    },
    {
        "id": 48446,
        "name": "Becontree",
        "state_id": 2336,
        "state_code": "ENG",
        "state_name": "England",
        "country_id": 232,
        "country_code": "GB",
        "country_name": "United Kingdom",
        "latitude": "51.55290000",
        "longitude": "0.12900000",
        "timezone": null,
        "wikiDataId": "Q2568462"
    },
    {
        "id": 48447,
        "name": "Bedale",
        "state_id": 2336,
        "state_code": "ENG",
        "state_name": "England",
        "country_id": 232,
        "country_code": "GB",
        "country_name": "United Kingdom",
        "latitude": "54.28811000",
        "longitude": "-1.59181000",
        "timezone": null,
        "wikiDataId": "Q813810"
    },
    {
        "id": 48449,
        "name": "Bedford",
        "state_id": 2336,
        "state_code": "ENG",
        "state_name": "England",
        "country_id": 232,
        "country_code": "GB",
        "country_name": "United Kingdom",
        "latitude": "52.18831000",
        "longitude": "-0.45316000",
        "timezone": null,
        "wikiDataId": "Q894077"
    },
    {
        "id": 48450,
        "name": "Bedlington",
        "state_id": 2336,
        "state_code": "ENG",
        "state_name": "England",
        "country_id": 232,
        "country_code": "GB",
        "country_name": "United Kingdom",
        "latitude": "55.13061000",
        "longitude": "-1.59319000",
        "timezone": null,
        "wikiDataId": "Q2249694"
    },
    {
        "id": 48453,
        "name": "Bedworth",
        "state_id": 2336,
        "state_code": "ENG",
        "state_name": "England",
        "country_id": 232,
        "country_code": "GB",
        "country_name": "United Kingdom",
        "latitude": "52.47910000",
        "longitude": "-1.46909000",
        "timezone": null,
        "wikiDataId": "Q813962"
    },
    {
        "id": 48454,
        "name": "Beeford",
        "state_id": 2336,
        "state_code": "ENG",
        "state_name": "England",
        "country_id": 232,
        "country_code": "GB",
        "country_name": "United Kingdom",
        "latitude": "53.96999000",
        "longitude": "-0.28913000",
        "timezone": null,
        "wikiDataId": "Q2395998"
    },
    {
        "id": 48455,
        "name": "Beighton",
        "state_id": 2336,
        "state_code": "ENG",
        "state_name": "England",
        "country_id": 232,
        "country_code": "GB",
        "country_name": "United Kingdom",
        "latitude": "53.33333000",
        "longitude": "-1.33333000",
        "timezone": null,
        "wikiDataId": "Q56660379"
    },
    {
        "id": 48457,
        "name": "Belbroughton",
        "state_id": 2336,
        "state_code": "ENG",
        "state_name": "England",
        "country_id": 232,
        "country_code": "GB",
        "country_name": "United Kingdom",
        "latitude": "52.39177000",
        "longitude": "-2.11884000",
        "timezone": null,
        "wikiDataId": "Q2268622"
    },
    {
        "id": 48459,
        "name": "Belford",
        "state_id": 2336,
        "state_code": "ENG",
        "state_name": "England",
        "country_id": 232,
        "country_code": "GB",
        "country_name": "United Kingdom",
        "latitude": "55.60000000",
        "longitude": "-1.83333000",
        "timezone": null,
        "wikiDataId": "Q1617115"
    },
    {
        "id": 48461,
        "name": "Bellingham",
        "state_id": 2336,
        "state_code": "ENG",
        "state_name": "England",
        "country_id": 232,
        "country_code": "GB",
        "country_name": "United Kingdom",
        "latitude": "55.14464000",
        "longitude": "-2.25383000",
        "timezone": null,
        "wikiDataId": "Q451687"
    },
    {
        "id": 48464,
        "name": "Belmont",
        "state_id": 2336,
        "state_code": "ENG",
        "state_name": "England",
        "country_id": 232,
        "country_code": "GB",
        "country_name": "United Kingdom",
        "latitude": "52.04272000",
        "longitude": "-2.74169000",
        "timezone": null,
        "wikiDataId": "Q680984"
    },
    {
        "id": 48465,
        "name": "Belper",
        "state_id": 2336,
        "state_code": "ENG",
        "state_name": "England",
        "country_id": 232,
        "country_code": "GB",
        "country_name": "United Kingdom",
        "latitude": "53.02330000",
        "longitude": "-1.48119000",
        "timezone": null,
        "wikiDataId": "Q2080375"
    },
    {
        "id": 48466,
        "name": "Belsize Park",
        "state_id": 2336,
        "state_code": "ENG",
        "state_name": "England",
        "country_id": 232,
        "country_code": "GB",
        "country_name": "United Kingdom",
        "latitude": "51.54767000",
        "longitude": "-0.17228000",
        "timezone": null,
        "wikiDataId": "Q2080375"
    },
    {
        "id": 48467,
        "name": "Belton",
        "state_id": 2336,
        "state_code": "ENG",
        "state_name": "England",
        "country_id": 232,
        "country_code": "GB",
        "country_name": "United Kingdom",
        "latitude": "53.55000000",
        "longitude": "-0.81667000",
        "timezone": null,
        "wikiDataId": "Q4884762"
    },
    {
        "id": 48468,
        "name": "Belvedere",
        "state_id": 2336,
        "state_code": "ENG",
        "state_name": "England",
        "country_id": 232,
        "country_code": "GB",
        "country_name": "United Kingdom",
        "latitude": "51.49114000",
        "longitude": "0.15136000",
        "timezone": null,
        "wikiDataId": "Q4884762"
    },
    {
        "id": 48469,
        "name": "Bembridge",
        "state_id": 2336,
        "state_code": "ENG",
        "state_name": "England",
        "country_id": 232,
        "country_code": "GB",
        "country_name": "United Kingdom",
        "latitude": "50.68634000",
        "longitude": "-1.08275000",
        "timezone": null,
        "wikiDataId": "Q2624470"
    },
    {
        "id": 48470,
        "name": "Bempton",
        "state_id": 2336,
        "state_code": "ENG",
        "state_name": "England",
        "country_id": 232,
        "country_code": "GB",
        "country_name": "United Kingdom",
        "latitude": "54.13036000",
        "longitude": "-0.17853000",
        "timezone": null,
        "wikiDataId": "Q2225262"
    },
    {
        "id": 48473,
        "name": "Benson",
        "state_id": 2336,
        "state_code": "ENG",
        "state_name": "England",
        "country_id": 232,
        "country_code": "GB",
        "country_name": "United Kingdom",
        "latitude": "51.62073000",
        "longitude": "-1.10979000",
        "timezone": null,
        "wikiDataId": "Q2351343"
    },
    {
        "id": 48474,
        "name": "Bentley",
        "state_id": 2336,
        "state_code": "ENG",
        "state_name": "England",
        "country_id": 232,
        "country_code": "GB",
        "country_name": "United Kingdom",
        "latitude": "53.53333000",
        "longitude": "-1.15000000",
        "timezone": null,
        "wikiDataId": "Q3638330"
    },
    {
        "id": 48475,
        "name": "Benwell",
        "state_id": 2336,
        "state_code": "ENG",
        "state_name": "England",
        "country_id": 232,
        "country_code": "GB",
        "country_name": "United Kingdom",
        "latitude": "54.97296000",
        "longitude": "-1.66926000",
        "timezone": null,
        "wikiDataId": "Q3638330"
    },
    {
        "id": 48476,
        "name": "Bere Alston",
        "state_id": 2336,
        "state_code": "ENG",
        "state_name": "England",
        "country_id": 232,
        "country_code": "GB",
        "country_name": "United Kingdom",
        "latitude": "50.48233000",
        "longitude": "-4.19034000",
        "timezone": null,
        "wikiDataId": "Q1241007"
    },
    {
        "id": 48477,
        "name": "Bere Regis",
        "state_id": 2336,
        "state_code": "ENG",
        "state_name": "England",
        "country_id": 232,
        "country_code": "GB",
        "country_name": "United Kingdom",
        "latitude": "50.75371000",
        "longitude": "-2.21553000",
        "timezone": null,
        "wikiDataId": "Q1215902"
    },
    {
        "id": 48478,
        "name": "Berkeley",
        "state_id": 2336,
        "state_code": "ENG",
        "state_name": "England",
        "country_id": 232,
        "country_code": "GB",
        "country_name": "United Kingdom",
        "latitude": "51.69111000",
        "longitude": "-2.45917000",
        "timezone": null,
        "wikiDataId": "Q584443"
    },
    {
        "id": 48479,
        "name": "Berkhamsted",
        "state_id": 2336,
        "state_code": "ENG",
        "state_name": "England",
        "country_id": 232,
        "country_code": "GB",
        "country_name": "United Kingdom",
        "latitude": "51.76040000",
        "longitude": "-0.56528000",
        "timezone": null,
        "wikiDataId": "Q19784"
    },
    {
        "id": 48480,
        "name": "Berwick-Upon-Tweed",
        "state_id": 2336,
        "state_code": "ENG",
        "state_name": "England",
        "country_id": 232,
        "country_code": "GB",
        "country_name": "United Kingdom",
        "latitude": "55.76536000",
        "longitude": "-2.01186000",
        "timezone": null,
        "wikiDataId": "Q504678"
    },
    {
        "id": 48482,
        "name": "Bethnal Green",
        "state_id": 2336,
        "state_code": "ENG",
        "state_name": "England",
        "country_id": 232,
        "country_code": "GB",
        "country_name": "United Kingdom",
        "latitude": "51.52718000",
        "longitude": "-0.06109000",
        "timezone": null,
        "wikiDataId": "Q124204"
    },
    {
        "id": 48483,
        "name": "Betley",
        "state_id": 2336,
        "state_code": "ENG",
        "state_name": "England",
        "country_id": 232,
        "country_code": "GB",
        "country_name": "United Kingdom",
        "latitude": "53.03439000",
        "longitude": "-2.36865000",
        "timezone": null,
        "wikiDataId": "Q4898150"
    },
    {
        "id": 48486,
        "name": "Beverley",
        "state_id": 2336,
        "state_code": "ENG",
        "state_name": "England",
        "country_id": 232,
        "country_code": "GB",
        "country_name": "United Kingdom",
        "latitude": "53.84587000",
        "longitude": "-0.42332000",
        "timezone": null,
        "wikiDataId": "Q851718"
    },
    {
        "id": 48487,
        "name": "Bewbush",
        "state_id": 2336,
        "state_code": "ENG",
        "state_name": "England",
        "country_id": 232,
        "country_code": "GB",
        "country_name": "United Kingdom",
        "latitude": "51.10329000",
        "longitude": "-0.22312000",
        "timezone": null,
        "wikiDataId": "Q851718"
    },
    {
        "id": 48488,
        "name": "Bewdley",
        "state_id": 2336,
        "state_code": "ENG",
        "state_name": "England",
        "country_id": 232,
        "country_code": "GB",
        "country_name": "United Kingdom",
        "latitude": "52.37570000",
        "longitude": "-2.31833000",
        "timezone": null,
        "wikiDataId": "Q766594"
    },
    {
        "id": 48489,
        "name": "Bexhill-on-Sea",
        "state_id": 2336,
        "state_code": "ENG",
        "state_name": "England",
        "country_id": 232,
        "country_code": "GB",
        "country_name": "United Kingdom",
        "latitude": "50.85023000",
        "longitude": "0.47095000",
        "timezone": null,
        "wikiDataId": "Q853012"
    },
    {
        "id": 48490,
        "name": "Bexley",
        "state_id": 2336,
        "state_code": "ENG",
        "state_name": "England",
        "country_id": 232,
        "country_code": "GB",
        "country_name": "United Kingdom",
        "latitude": "51.44162000",
        "longitude": "0.14866000",
        "timezone": null,
        "wikiDataId": "Q853012"
    },
    {
        "id": 48491,
        "name": "Bicester",
        "state_id": 2336,
        "state_code": "ENG",
        "state_name": "England",
        "country_id": 232,
        "country_code": "GB",
        "country_name": "United Kingdom",
        "latitude": "51.89998000",
        "longitude": "-1.15357000",
        "timezone": null,
        "wikiDataId": "Q251903"
    },
    {
        "id": 48492,
        "name": "Bicknacre",
        "state_id": 2336,
        "state_code": "ENG",
        "state_name": "England",
        "country_id": 232,
        "country_code": "GB",
        "country_name": "United Kingdom",
        "latitude": "51.69403000",
        "longitude": "0.58519000",
        "timezone": null,
        "wikiDataId": "Q4903690"
    },
    {
        "id": 48493,
        "name": "Bicton",
        "state_id": 2336,
        "state_code": "ENG",
        "state_name": "England",
        "country_id": 232,
        "country_code": "GB",
        "country_name": "United Kingdom",
        "latitude": "52.72829000",
        "longitude": "-2.81649000",
        "timezone": null,
        "wikiDataId": "Q3811572"
    },
    {
        "id": 48494,
        "name": "Biddenden",
        "state_id": 2336,
        "state_code": "ENG",
        "state_name": "England",
        "country_id": 232,
        "country_code": "GB",
        "country_name": "United Kingdom",
        "latitude": "51.11489000",
        "longitude": "0.63819000",
        "timezone": null,
        "wikiDataId": "Q663588"
    },
    {
        "id": 48495,
        "name": "Biddestone",
        "state_id": 2336,
        "state_code": "ENG",
        "state_name": "England",
        "country_id": 232,
        "country_code": "GB",
        "country_name": "United Kingdom",
        "latitude": "51.46083000",
        "longitude": "-2.19833000",
        "timezone": null,
        "wikiDataId": "Q2405546"
    },
    {
        "id": 48496,
        "name": "Biddulph",
        "state_id": 2336,
        "state_code": "ENG",
        "state_name": "England",
        "country_id": 232,
        "country_code": "GB",
        "country_name": "United Kingdom",
        "latitude": "53.11724000",
        "longitude": "-2.17584000",
        "timezone": null,
        "wikiDataId": "Q1109566"
    },
    {
        "id": 48497,
        "name": "Bideford",
        "state_id": 2336,
        "state_code": "ENG",
        "state_name": "England",
        "country_id": 232,
        "country_code": "GB",
        "country_name": "United Kingdom",
        "latitude": "51.01678000",
        "longitude": "-4.20832000",
        "timezone": null,
        "wikiDataId": "Q1234840"
    },
    {
        "id": 48498,
        "name": "Bidford-on-Avon",
        "state_id": 2336,
        "state_code": "ENG",
        "state_name": "England",
        "country_id": 232,
        "country_code": "GB",
        "country_name": "United Kingdom",
        "latitude": "52.16964000",
        "longitude": "-1.85955000",
        "timezone": null,
        "wikiDataId": "Q1770280"
    },
    {
        "id": 48500,
        "name": "Biggin Hill",
        "state_id": 2336,
        "state_code": "ENG",
        "state_name": "England",
        "country_id": 232,
        "country_code": "GB",
        "country_name": "United Kingdom",
        "latitude": "51.31329000",
        "longitude": "0.03433000",
        "timezone": null,
        "wikiDataId": "Q3250089"
    },
    {
        "id": 48501,
        "name": "Biggleswade",
        "state_id": 2336,
        "state_code": "ENG",
        "state_name": "England",
        "country_id": 232,
        "country_code": "GB",
        "country_name": "United Kingdom",
        "latitude": "52.08652000",
        "longitude": "-0.26493000",
        "timezone": null,
        "wikiDataId": "Q2224167"
    },
    {
        "id": 48502,
        "name": "Bildeston",
        "state_id": 2336,
        "state_code": "ENG",
        "state_name": "England",
        "country_id": 232,
        "country_code": "GB",
        "country_name": "United Kingdom",
        "latitude": "52.10658000",
        "longitude": "0.90916000",
        "timezone": null,
        "wikiDataId": "Q860798"
    },
    {
        "id": 48503,
        "name": "Billericay",
        "state_id": 2336,
        "state_code": "ENG",
        "state_name": "England",
        "country_id": 232,
        "country_code": "GB",
        "country_name": "United Kingdom",
        "latitude": "51.62867000",
        "longitude": "0.41963000",
        "timezone": null,
        "wikiDataId": "Q862832"
    },
    {
        "id": 48504,
        "name": "Billingborough",
        "state_id": 2336,
        "state_code": "ENG",
        "state_name": "England",
        "country_id": 232,
        "country_code": "GB",
        "country_name": "United Kingdom",
        "latitude": "52.89384000",
        "longitude": "-0.34186000",
        "timezone": null,
        "wikiDataId": "Q1748350"
    },
    {
        "id": 48505,
        "name": "Billinge",
        "state_id": 2336,
        "state_code": "ENG",
        "state_name": "England",
        "country_id": 232,
        "country_code": "GB",
        "country_name": "United Kingdom",
        "latitude": "53.49795000",
        "longitude": "-2.70810000",
        "timezone": null,
        "wikiDataId": "Q4911915"
    },
    {
        "id": 48506,
        "name": "Billingham",
        "state_id": 2336,
        "state_code": "ENG",
        "state_name": "England",
        "country_id": 232,
        "country_code": "GB",
        "country_name": "United Kingdom",
        "latitude": "54.58881000",
        "longitude": "-1.29034000",
        "timezone": null,
        "wikiDataId": "Q862891"
    },
    {
        "id": 48507,
        "name": "Billinghay",
        "state_id": 2336,
        "state_code": "ENG",
        "state_name": "England",
        "country_id": 232,
        "country_code": "GB",
        "country_name": "United Kingdom",
        "latitude": "53.07959000",
        "longitude": "-0.27689000",
        "timezone": null,
        "wikiDataId": "Q628445"
    },
    {
        "id": 48508,
        "name": "Billingshurst",
        "state_id": 2336,
        "state_code": "ENG",
        "state_name": "England",
        "country_id": 232,
        "country_code": "GB",
        "country_name": "United Kingdom",
        "latitude": "51.02312000",
        "longitude": "-0.45359000",
        "timezone": null,
        "wikiDataId": "Q2148483"
    },
    {
        "id": 48509,
        "name": "Billington",
        "state_id": 2336,
        "state_code": "ENG",
        "state_name": "England",
        "country_id": 232,
        "country_code": "GB",
        "country_name": "United Kingdom",
        "latitude": "53.81570000",
        "longitude": "-2.42360000",
        "timezone": null,
        "wikiDataId": "Q4911982"
    },
    {
        "id": 48510,
        "name": "Bilsdale",
        "state_id": 2336,
        "state_code": "ENG",
        "state_name": "England",
        "country_id": 232,
        "country_code": "GB",
        "country_name": "United Kingdom",
        "latitude": "54.37356000",
        "longitude": "-1.11923000",
        "timezone": null,
        "wikiDataId": "Q4911982"
    },
    {
        "id": 48511,
        "name": "Bilsthorpe",
        "state_id": 2336,
        "state_code": "ENG",
        "state_name": "England",
        "country_id": 232,
        "country_code": "GB",
        "country_name": "United Kingdom",
        "latitude": "53.14024000",
        "longitude": "-1.03392000",
        "timezone": null,
        "wikiDataId": "Q4913610"
    },
    {
        "id": 48512,
        "name": "Bilston",
        "state_id": 2336,
        "state_code": "ENG",
        "state_name": "England",
        "country_id": 232,
        "country_code": "GB",
        "country_name": "United Kingdom",
        "latitude": "52.56568000",
        "longitude": "-2.07367000",
        "timezone": null,
        "wikiDataId": "Q1015967"
    },
    {
        "id": 48514,
        "name": "Bingham",
        "state_id": 2336,
        "state_code": "ENG",
        "state_name": "England",
        "country_id": 232,
        "country_code": "GB",
        "country_name": "United Kingdom",
        "latitude": "52.94978000",
        "longitude": "-0.95907000",
        "timezone": null,
        "wikiDataId": "Q783269"
    },
    {
        "id": 48515,
        "name": "Bingley",
        "state_id": 2336,
        "state_code": "ENG",
        "state_name": "England",
        "country_id": 232,
        "country_code": "GB",
        "country_name": "United Kingdom",
        "latitude": "53.84861000",
        "longitude": "-1.83857000",
        "timezone": null,
        "wikiDataId": "Q863832"
    },
    {
        "id": 48516,
        "name": "Birchington-on-Sea",
        "state_id": 2336,
        "state_code": "ENG",
        "state_name": "England",
        "country_id": 232,
        "country_code": "GB",
        "country_name": "United Kingdom",
        "latitude": "51.37575000",
        "longitude": "1.30480000",
        "timezone": null,
        "wikiDataId": "Q865021"
    },
    {
        "id": 48517,
        "name": "Bircotes",
        "state_id": 2336,
        "state_code": "ENG",
        "state_name": "England",
        "country_id": 232,
        "country_code": "GB",
        "country_name": "United Kingdom",
        "latitude": "53.41933000",
        "longitude": "-1.04905000",
        "timezone": null,
        "wikiDataId": "Q4454217"
    },
    {
        "id": 48518,
        "name": "Birdham",
        "state_id": 2336,
        "state_code": "ENG",
        "state_name": "England",
        "country_id": 232,
        "country_code": "GB",
        "country_name": "United Kingdom",
        "latitude": "50.79606000",
        "longitude": "-0.83067000",
        "timezone": null,
        "wikiDataId": "Q2193499"
    },
    {
        "id": 48519,
        "name": "Birdwell",
        "state_id": 2336,
        "state_code": "ENG",
        "state_name": "England",
        "country_id": 232,
        "country_code": "GB",
        "country_name": "United Kingdom",
        "latitude": "53.51398000",
        "longitude": "-1.47929000",
        "timezone": null,
        "wikiDataId": "Q3640308"
    },
    {
        "id": 48520,
        "name": "Birkenhead",
        "state_id": 2336,
        "state_code": "ENG",
        "state_name": "England",
        "country_id": 232,
        "country_code": "GB",
        "country_name": "United Kingdom",
        "latitude": "53.39337000",
        "longitude": "-3.01479000",
        "timezone": null,
        "wikiDataId": "Q746718"
    },
    {
        "id": 48521,
        "name": "Birmingham",
        "state_id": 2336,
        "state_code": "ENG",
        "state_name": "England",
        "country_id": 232,
        "country_code": "GB",
        "country_name": "United Kingdom",
        "latitude": "52.48142000",
        "longitude": "-1.89983000",
        "timezone": null,
        "wikiDataId": "Q2256"
    },
    {
        "id": 48522,
        "name": "Bishop Auckland",
        "state_id": 2336,
        "state_code": "ENG",
        "state_name": "England",
        "country_id": 232,
        "country_code": "GB",
        "country_name": "United Kingdom",
        "latitude": "54.65554000",
        "longitude": "-1.67706000",
        "timezone": null,
        "wikiDataId": "Q866339"
    },
    {
        "id": 48523,
        "name": "Bishop Middleham",
        "state_id": 2336,
        "state_code": "ENG",
        "state_name": "England",
        "country_id": 232,
        "country_code": "GB",
        "country_name": "United Kingdom",
        "latitude": "54.67778000",
        "longitude": "-1.48826000",
        "timezone": null,
        "wikiDataId": "Q4917659"
    },
    {
        "id": 48524,
        "name": "Bishop Sutton",
        "state_id": 2336,
        "state_code": "ENG",
        "state_name": "England",
        "country_id": 232,
        "country_code": "GB",
        "country_name": "United Kingdom",
        "latitude": "51.33444000",
        "longitude": "-2.59472000",
        "timezone": null,
        "wikiDataId": "Q2183623"
    },
    {
        "id": 48525,
        "name": "Bishop's Castle",
        "state_id": 2336,
        "state_code": "ENG",
        "state_name": "England",
        "country_id": 232,
        "country_code": "GB",
        "country_name": "United Kingdom",
        "latitude": "52.49208000",
        "longitude": "-3.00210000",
        "timezone": null,
        "wikiDataId": "Q2469037"
    },
    {
        "id": 48527,
        "name": "Bishops Cleeve",
        "state_id": 2336,
        "state_code": "ENG",
        "state_name": "England",
        "country_id": 232,
        "country_code": "GB",
        "country_name": "United Kingdom",
        "latitude": "51.94749000",
        "longitude": "-2.06277000",
        "timezone": null,
        "wikiDataId": "Q4917406"
    },
    {
        "id": 48528,
        "name": "Bishops Lydeard",
        "state_id": 2336,
        "state_code": "ENG",
        "state_name": "England",
        "country_id": 232,
        "country_code": "GB",
        "country_name": "United Kingdom",
        "latitude": "51.05917000",
        "longitude": "-3.18778000",
        "timezone": null,
        "wikiDataId": "Q2739695"
    },
    {
        "id": 48529,
        "name": "Bishops Stortford",
        "state_id": 2336,
        "state_code": "ENG",
        "state_name": "England",
        "country_id": 232,
        "country_code": "GB",
        "country_name": "United Kingdom",
        "latitude": "51.87113000",
        "longitude": "0.15868000",
        "timezone": null,
        "wikiDataId": "Q19797"
    },
    {
        "id": 48530,
        "name": "Bishops Waltham",
        "state_id": 2336,
        "state_code": "ENG",
        "state_name": "England",
        "country_id": 232,
        "country_code": "GB",
        "country_name": "United Kingdom",
        "latitude": "50.95595000",
        "longitude": "-1.21476000",
        "timezone": null,
        "wikiDataId": "Q1248930"
    },
    {
        "id": 48531,
        "name": "Bishopsteignton",
        "state_id": 2336,
        "state_code": "ENG",
        "state_name": "England",
        "country_id": 232,
        "country_code": "GB",
        "country_name": "United Kingdom",
        "latitude": "50.55193000",
        "longitude": "-3.53852000",
        "timezone": null,
        "wikiDataId": "Q1217742"
    },
    {
        "id": 48532,
        "name": "Bishopstoke",
        "state_id": 2336,
        "state_code": "ENG",
        "state_name": "England",
        "country_id": 232,
        "country_code": "GB",
        "country_name": "United Kingdom",
        "latitude": "50.96643000",
        "longitude": "-1.32832000",
        "timezone": null,
        "wikiDataId": "Q2482964"
    },
    {
        "id": 48534,
        "name": "Bishopstone",
        "state_id": 2336,
        "state_code": "ENG",
        "state_name": "England",
        "country_id": 232,
        "country_code": "GB",
        "country_name": "United Kingdom",
        "latitude": "51.55130000",
        "longitude": "-1.64701000",
        "timezone": null,
        "wikiDataId": "Q4918101"
    },
    {
        "id": 48535,
        "name": "Bishopsworth",
        "state_id": 2336,
        "state_code": "ENG",
        "state_name": "England",
        "country_id": 232,
        "country_code": "GB",
        "country_name": "United Kingdom",
        "latitude": "51.41479000",
        "longitude": "-2.62080000",
        "timezone": null,
        "wikiDataId": "Q4918101"
    },
    {
        "id": 48536,
        "name": "Bishopthorpe",
        "state_id": 2336,
        "state_code": "ENG",
        "state_name": "England",
        "country_id": 232,
        "country_code": "GB",
        "country_name": "United Kingdom",
        "latitude": "53.91910000",
        "longitude": "-1.09915000",
        "timezone": null,
        "wikiDataId": "Q2918572"
    },