[
    {
        "id": 149071,
        "name": "Asunafo South",
        "state_id": 53,
        "state_code": "AF",
        "state_name": "Ahafo",
        "country_id": 83,
        "country_code": "GH",
        "country_name": "Ghana",
        "latitude": "6.68210000",
        "longitude": "-2.43997530",
        "timezone": null,
        "wikiDataId": "Q752420"
    },
    {
        "id": 149072,
        "name": "Asutifi North",
        "state_id": 53,
        "state_code": "AF",
        "state_name": "Ahafo",
        "country_id": 83,
        "country_code": "GH",
        "country_name": "Ghana",
        "latitude": "6.94774860",
        "longitude": "-2.76757160",
        "timezone": null,
        "wikiDataId": "Q55555112"
    },
    {
        "id": 149073,
        "name": "Asutifi South",
        "state_id": 53,
        "state_code": "AF",
        "state_name": "Ahafo",
        "country_id": 83,
        "country_code": "GH",
        "country_name": "Ghana",
        "latitude": "6.93215810",
        "longitude": "-2.35521890",
        "timezone": null,
        "wikiDataId": "Q55555134"
    },
    {
        "id": 149069,
        "name": "Tano North",
        "state_id": 53,
        "state_code": "AF",
        "state_name": "Ahafo",
        "country_id": 83,
        "country_code": "GH",
        "country_name": "Ghana",
        "latitude": "7.22603010",
        "longitude": "-2.30456560",
        "timezone": null,
        "wikiDataId": "Q373327"
    },
    {
        "id": 149068,
        "name": "Tano South",
        "state_id": 53,
        "state_code": "AF",
        "state_name": "Ahafo",
        "country_id": 83,
        "country_code": "GH",
        "country_name": "Ghana",
        "latitude": "7.19537930",
        "longitude": "-2.12586610",
        "timezone": null,
        "wikiDataId": "Q960302"
    },
    {
        "id": 52151,
        "name": "Agogo",
        "state_id": 48,
        "state_code": "AH",
        "state_name": "Ashanti",
        "country_id": 83,
        "country_code": "GH",
        "country_name": "Ghana",
        "latitude": "6.80004000",
        "longitude": "-1.08193000",
        "timezone": null,
        "wikiDataId": "Q395201"
    },
    {
        "id": 52164,
        "name": "Bekwai",
        "state_id": 48,
        "state_code": "AH",
        "state_name": "Ashanti",
        "country_id": 83,
        "country_code": "GH",
        "country_name": "Ghana",
        "latitude": "6.45195000",
        "longitude": "-1.57866000",
        "timezone": null,
        "wikiDataId": "Q815055"
    },
    {
        "id": 52172,
        "name": "Ejura",
        "state_id": 48,
        "state_code": "AH",
        "state_name": "Ashanti",
        "country_id": 83,
        "country_code": "GH",
        "country_name": "Ghana",
        "latitude": "7.38558000",
        "longitude": "-1.35617000",
        "timezone": null,
        "wikiDataId": "Q1322026"
    },
    {
        "id": 52185,
        "name": "Konongo",
        "state_id": 48,
        "state_code": "AH",
        "state_name": "Ashanti",
        "country_id": 83,
        "country_code": "GH",
        "country_name": "Ghana",
        "latitude": "6.61667000",
        "longitude": "-1.21667000",
        "timezone": null,
        "wikiDataId": "Q1016732"
    },
    {
        "id": 52188,
        "name": "Kumasi",
        "state_id": 48,
        "state_code": "AH",
        "state_name": "Ashanti",
        "country_id": 83,
        "country_code": "GH",
        "country_name": "Ghana",
        "latitude": "6.68848000",
        "longitude": "-1.62443000",
        "timezone": null,
        "wikiDataId": "Q182059"
    },
    {
        "id": 52189,
        "name": "Mampong",
        "state_id": 48,
        "state_code": "AH",
        "state_name": "Ashanti",
        "country_id": 83,
        "country_code": "GH",
        "country_name": "Ghana",
        "latitude": "7.06273000",
        "longitude": "-1.40010000",
        "timezone": null,
        "wikiDataId": "Q992747"
    },
    {
        "id": 52196,
        "name": "Obuase",
        "state_id": 48,
        "state_code": "AH",
        "state_name": "Ashanti",
        "country_id": 83,
        "country_code": "GH",
        "country_name": "Ghana",
        "latitude": "6.20228000",
        "longitude": "-1.66796000",
        "timezone": null,
        "wikiDataId": "Q1020901"
    },
    {
        "id": 52206,
        "name": "Tafo",
        "state_id": 48,
        "state_code": "AH",
        "state_name": "Ashanti",
        "country_id": 83,
        "country_code": "GH",
        "country_name": "Ghana",
        "latitude": "6.73156000",
        "longitude": "-1.61370000",
        "timezone": null,
        "wikiDataId": "Q7674984"
    },
    {
        "id": 149086,
        "name": "Banda",
        "state_id": 4959,
        "state_code": "BO",
        "state_name": "Bono",
        "country_id": 83,
        "country_code": "GH",
        "country_name": "Ghana",
        "latitude": "8.14956710",
        "longitude": "-2.36639500",
        "timezone": null,
        "wikiDataId": "Q20312309"
    },
    {
        "id": 149087,
        "name": "Berekum East",
        "state_id": 4959,
        "state_code": "BO",
        "state_name": "Bono",
        "country_id": 83,
        "country_code": "GH",
        "country_name": "Ghana",
        "latitude": "7.43846190",
        "longitude": "-2.60295780",
        "timezone": null,
        "wikiDataId": "Q55555195"
    },
    {
        "id": 149088,
        "name": "Berekum West",
        "state_id": 4959,
        "state_code": "BO",
        "state_name": "Bono",
        "country_id": 83,
        "country_code": "GH",
        "country_name": "Ghana",
        "latitude": "7.43934160",
        "longitude": "-2.65497050",
        "timezone": null,
        "wikiDataId": "Q104822488"
    },
    {
        "id": 149089,
        "name": "Dormaa Central",
        "state_id": 4959,
        "state_code": "BO",
        "state_name": "Bono",
        "country_id": 83,
        "country_code": "GH",
        "country_name": "Ghana",
        "latitude": "7.27750000",
        "longitude": "-2.87833300",
        "timezone": null,
        "wikiDataId": "Q692883"
    },
    {
        "id": 149090,
        "name": "Dormaa East",
        "state_id": 4959,
        "state_code": "BO",
        "state_name": "Bono",
        "country_id": 83,
        "country_code": "GH",
        "country_name": "Ghana",
        "latitude": "7.30000000",
        "longitude": "-2.70000000",
        "timezone": null,
        "wikiDataId": "Q5298060"
    },
    {
        "id": 149091,
        "name": "Dormaa West",
        "state_id": 4959,
        "state_code": "BO",
        "state_name": "Bono",
        "country_id": 83,
        "country_code": "GH",
        "country_name": "Ghana",
        "latitude": "7.01666700",
        "longitude": "-3.05000000",
        "timezone": null,
        "wikiDataId": "Q55555259"
    },
    {
        "id": 149092,
        "name": "Jaman North",
        "state_id": 4959,
        "state_code": "BO",
        "state_name": "Bono",
        "country_id": 83,
        "country_code": "GH",
        "country_name": "Ghana",
        "latitude": "7.98832340",
        "longitude": "-2.96858690",
        "timezone": null,
        "wikiDataId": "Q1504034"
    },
    {
        "id": 149093,
        "name": "Jaman South",
        "state_id": 4959,
        "state_code": "BO",
        "state_name": "Bono",
        "country_id": 83,
        "country_code": "GH",
        "country_name": "Ghana",
        "latitude": "7.70843750",
        "longitude": "-3.07501700",
        "timezone": null,
        "wikiDataId": "Q1504079"
    },
    {
        "id": 149094,
        "name": "Sunyani",
        "state_id": 4959,
        "state_code": "BO",
        "state_name": "Bono",
        "country_id": 83,
        "country_code": "GH",
        "country_name": "Ghana",
        "latitude": "7.33803320",
        "longitude": "-2.34871460",
        "timezone": null,
        "wikiDataId": "Q1786388"
    },
    {
        "id": 149095,
        "name": "Sunyani West",
        "state_id": 4959,
        "state_code": "BO",
        "state_name": "Bono",
        "country_id": 83,
        "country_code": "GH",
        "country_name": "Ghana",
        "latitude": "7.35660520",
        "longitude": "-2.44618620",
        "timezone": null,
        "wikiDataId": "Q7641761"
    },
    {
        "id": 149096,
        "name": "Tain",
        "state_id": 4959,
        "state_code": "BO",
        "state_name": "Bono",
        "country_id": 83,
        "country_code": "GH",
        "country_name": "Ghana",
        "latitude": "8.18114110",
        "longitude": "-2.86487620",
        "timezone": null,
        "wikiDataId": "Q695048"
    },
    {
        "id": 149097,
        "name": "Wenchi",
        "state_id": 4959,
        "state_code": "BO",
        "state_name": "Bono",
        "country_id": 83,
        "country_code": "GH",
        "country_name": "Ghana",
        "latitude": "7.74059920",
        "longitude": "-2.12267880",
        "timezone": null,
        "wikiDataId": "Q1504094"
    },
    {
        "id": 149076,
        "name": "Atebubu-Amantin",
        "state_id": 4958,
        "state_code": "BE",
        "state_name": "Bono East",
        "country_id": 83,
        "country_code": "GH",
        "country_name": "Ghana",
        "latitude": "7.70237000",
        "longitude": "-1.21979430",
        "timezone": null,
        "wikiDataId": "Q117446"
    },
    {
        "id": 149077,
        "name": "Kintampo North",
        "state_id": 4958,
        "state_code": "BE",
        "state_name": "Bono East",
        "country_id": 83,
        "country_code": "GH",
        "country_name": "Ghana",
        "latitude": "8.39635790",
        "longitude": "-1.82000070",
        "timezone": null,
        "wikiDataId": "Q1665763"
    },
    {
        "id": 149078,
        "name": "Kintampo South",
        "state_id": 4958,
        "state_code": "BE",
        "state_name": "Bono East",
        "country_id": 83,
        "country_code": "GH",
        "country_name": "Ghana",
        "latitude": "7.98971320",
        "longitude": "-2.00711150",
        "timezone": null,
        "wikiDataId": "Q1504020"
    },
    {
        "id": 149079,
        "name": "Nkoranza North",
        "state_id": 4958,
        "state_code": "BE",
        "state_name": "Bono East",
        "country_id": 83,
        "country_code": "GH",
        "country_name": "Ghana",
        "latitude": "7.56603310",
        "longitude": "-1.72365200",
        "timezone": null,
        "wikiDataId": "Q3342359"
    },
    {
        "id": 149080,
        "name": "Nkoranza South",
        "state_id": 4958,
        "state_code": "BE",
        "state_name": "Bono East",
        "country_id": 83,
        "country_code": "GH",
        "country_name": "Ghana",
        "latitude": "7.62405120",
        "longitude": "-1.79974460",
        "timezone": null,
        "wikiDataId": "Q7042619"
    },
    {
        "id": 149082,
        "name": "Pru East",
        "state_id": 4958,
        "state_code": "BE",
        "state_name": "Bono East",
        "country_id": 83,
        "country_code": "GH",
        "country_name": "Ghana",
        "latitude": "8.22620000",
        "longitude": "-0.65360000",
        "timezone": null,
        "wikiDataId": "Q105081992"
    },
    {
        "id": 149081,
        "name": "Pru West",
        "state_id": 4958,
        "state_code": "BE",
        "state_name": "Bono East",
        "country_id": 83,
        "country_code": "GH",
        "country_name": "Ghana",
        "latitude": "8.07359930",
        "longitude": "-1.29055410",
        "timezone": null,
        "wikiDataId": "Q105063588"
    },
    {
        "id": 149083,
        "name": "Sene East",
        "state_id": 4958,
        "state_code": "BE",
        "state_name": "Bono East",
        "country_id": 83,
        "country_code": "GH",
        "country_name": "Ghana",
        "latitude": "7.78300000",
        "longitude": "-0.21700000",
        "timezone": null,
        "wikiDataId": "Q55555336"
    },
    {
        "id": 149084,
        "name": "Sene West",
        "state_id": 4958,
        "state_code": "BE",
        "state_name": "Bono East",
        "country_id": 83,
        "country_code": "GH",
        "country_name": "Ghana",
        "latitude": "7.73420000",
        "longitude": "-0.68180000",
        "timezone": null,
        "wikiDataId": "Q55555352"
    },
    {
        "id": 149074,
        "name": "Techiman",
        "state_id": 4958,
        "state_code": "BE",
        "state_name": "Bono East",
        "country_id": 83,
        "country_code": "GH",
        "country_name": "Ghana",
        "latitude": "7.58968560",
        "longitude": "-1.95122140",
        "timezone": null,
        "wikiDataId": "Q957996"
    },
    {
        "id": 149075,
        "name": "Techiman North",
        "state_id": 4958,
        "state_code": "BE",
        "state_name": "Bono East",
        "country_id": 83,
        "country_code": "GH",
        "country_name": "Ghana",
        "latitude": "7.70428020",
        "longitude": "-2.08140570",
        "timezone": null,
        "wikiDataId": "Q20855212"
    },
    {
        "id": 52157,
        "name": "Apam",
        "state_id": 52,
        "state_code": "CP",
        "state_name": "Central",
        "country_id": 83,
        "country_code": "GH",
        "country_name": "Ghana",
        "latitude": "5.28483000",
        "longitude": "-0.73711000",
        "timezone": null,
        "wikiDataId": "Q617438"
    },
    {
        "id": 52168,
        "name": "Cape Coast",
        "state_id": 52,
        "state_code": "CP",
        "state_name": "Central",
        "country_id": 83,
        "country_code": "GH",
        "country_name": "Ghana",
        "latitude": "5.10535000",
        "longitude": "-1.24660000",
        "timezone": null,
        "wikiDataId": "Q221283"
    },
    {
        "id": 52171,
        "name": "Dunkwa",
        "state_id": 52,
        "state_code": "CP",
        "state_name": "Central",
        "country_id": 83,
        "country_code": "GH",
        "country_name": "Ghana",
        "latitude": "5.95996000",
        "longitude": "-1.77792000",
        "timezone": null,
        "wikiDataId": "Q5315398"
    },
    {
        "id": 52173,
        "name": "Elmina",
        "state_id": 52,
        "state_code": "CP",
        "state_name": "Central",
        "country_id": 83,
        "country_code": "GH",
        "country_name": "Ghana",
        "latitude": "5.08470000",
        "longitude": "-1.35093000",
        "timezone": null,
        "wikiDataId": "Q968662"
    },
    {
        "id": 52174,
        "name": "Foso",
        "state_id": 52,
        "state_code": "CP",
        "state_name": "Central",
        "country_id": 83,
        "country_code": "GH",
        "country_name": "Ghana",
        "latitude": "5.70119000",
        "longitude": "-1.28657000",
        "timezone": null,
        "wikiDataId": "Q4808889"
    },
    {
        "id": 52179,
        "name": "Kasoa",
        "state_id": 52,
        "state_code": "CP",
        "state_name": "Central",
        "country_id": 83,
        "country_code": "GH",
        "country_name": "Ghana",
        "latitude": "5.53449000",
        "longitude": "-0.41679000",
        "timezone": null,
        "wikiDataId": "Q656652"
    },
    {
        "id": 52192,
        "name": "Mumford",
        "state_id": 52,
        "state_code": "CP",
        "state_name": "Central",
        "country_id": 83,
        "country_code": "GH",
        "country_name": "Ghana",
        "latitude": "5.26176000",
        "longitude": "-0.75897000",
        "timezone": null,
        "wikiDataId": "Q1316141"
    },
    {
        "id": 52199,
        "name": "Saltpond",
        "state_id": 52,
        "state_code": "CP",
        "state_name": "Central",
        "country_id": 83,
        "country_code": "GH",
        "country_name": "Ghana",
        "latitude": "5.20913000",
        "longitude": "-1.06058000",
        "timezone": null,
        "wikiDataId": "Q340149"
    },
    {
        "id": 52205,
        "name": "Swedru",
        "state_id": 52,
        "state_code": "CP",
        "state_name": "Central",
        "country_id": 83,
        "country_code": "GH",
        "country_name": "Ghana",
        "latitude": "5.53711000",
        "longitude": "-0.69984000",
        "timezone": null,
        "wikiDataId": "Q395265"
    },
    {
        "id": 52215,
        "name": "Winneba",
        "state_id": 52,
        "state_code": "CP",
        "state_name": "Central",
        "country_id": 83,
        "country_code": "GH",
        "country_name": "Ghana",
        "latitude": "5.35113000",
        "longitude": "-0.62313000",
        "timezone": null,
        "wikiDataId": "Q1188560"
    },
    {
        "id": 52148,
        "name": "Aburi",
        "state_id": 50,
        "state_code": "EP",
        "state_name": "Eastern",
        "country_id": 83,
        "country_code": "GH",
        "country_name": "Ghana",
        "latitude": "5.84802000",
        "longitude": "-0.17449000",
        "timezone": null,
        "wikiDataId": "Q336029"
    },
    {
        "id": 52152,
        "name": "Akim Oda",
        "state_id": 50,
        "state_code": "EP",
        "state_name": "Eastern",
        "country_id": 83,
        "country_code": "GH",
        "country_name": "Ghana",
        "latitude": "5.92665000",
        "longitude": "-0.98577000",
        "timezone": null,
        "wikiDataId": "Q418402"
    },
    {
        "id": 52153,
        "name": "Akim Swedru",
        "state_id": 50,
        "state_code": "EP",
        "state_name": "Eastern",
        "country_id": 83,
        "country_code": "GH",
        "country_name": "Ghana",
        "latitude": "5.89380000",
        "longitude": "-1.01636000",
        "timezone": null,
        "wikiDataId": "Q4701024"
    },
    {
        "id": 52154,
        "name": "Akropong",
        "state_id": 50,
        "state_code": "EP",
        "state_name": "Eastern",
        "country_id": 83,
        "country_code": "GH",
        "country_name": "Ghana",
        "latitude": "5.97462000",
        "longitude": "-0.08542000",
        "timezone": null,
        "wikiDataId": "Q4701024"
    },
    {
        "id": 52155,
        "name": "Akwatia",
        "state_id": 50,
        "state_code": "EP",
        "state_name": "Eastern",
        "country_id": 83,
        "country_code": "GH",
        "country_name": "Ghana",
        "latitude": "6.04024000",
        "longitude": "-0.80876000",
        "timezone": null,
        "wikiDataId": "Q4702013"
    },
    {
        "id": 52158,
        "name": "Asamankese",
        "state_id": 50,
        "state_code": "EP",
        "state_name": "Eastern",
        "country_id": 83,
        "country_code": "GH",
        "country_name": "Ghana",
        "latitude": "5.86006000",
        "longitude": "-0.66350000",
        "timezone": null,
        "wikiDataId": "Q720732"
    },
    {
        "id": 52163,
        "name": "Begoro",
        "state_id": 50,
        "state_code": "EP",
        "state_name": "Eastern",
        "country_id": 83,
        "country_code": "GH",
        "country_name": "Ghana",
        "latitude": "6.38706000",
        "longitude": "-0.37738000",
        "timezone": null,
        "wikiDataId": "Q813582"
    },
    {
        "id": 52182,
        "name": "Kibi",
        "state_id": 50,
        "state_code": "EP",
        "state_name": "Eastern",
        "country_id": 83,
        "country_code": "GH",
        "country_name": "Ghana",
        "latitude": "6.16494000",
        "longitude": "-0.55376000",
        "timezone": null,
        "wikiDataId": "Q6404011"
    },
    {
        "id": 52184,
        "name": "Koforidua",
        "state_id": 50,
        "state_code": "EP",
        "state_name": "Eastern",
        "country_id": 83,
        "country_code": "GH",
        "country_name": "Ghana",
        "latitude": "6.09408000",
        "longitude": "-0.25913000",
        "timezone": null,
        "wikiDataId": "Q406358"
    },
    {
        "id": 52191,
        "name": "Mpraeso",
        "state_id": 50,
        "state_code": "EP",
        "state_name": "Eastern",
        "country_id": 83,
        "country_code": "GH",
        "country_name": "Ghana",
        "latitude": "6.59321000",
        "longitude": "-0.73462000",
        "timezone": null,
        "wikiDataId": "Q1316141"
    },
    {
        "id": 52194,
        "name": "Nsawam",
        "state_id": 50,
        "state_code": "EP",
        "state_name": "Eastern",
        "country_id": 83,
        "country_code": "GH",
        "country_name": "Ghana",
        "latitude": "5.80893000",
        "longitude": "-0.35026000",
        "timezone": null,
        "wikiDataId": "Q2724141"
    },
    {
        "id": 52203,
        "name": "Suhum",
        "state_id": 50,
        "state_code": "EP",
        "state_name": "Eastern",
        "country_id": 83,
        "country_code": "GH",
        "country_name": "Ghana",
        "latitude": "6.04089000",
        "longitude": "-0.45004000",
        "timezone": null,
        "wikiDataId": "Q1450481"
    },
    {
        "id": 52149,
        "name": "Accra",
        "state_id": 54,
        "state_code": "AA",
        "state_name": "Greater Accra",
        "country_id": 83,
        "country_code": "GH",
        "country_name": "Ghana",
        "latitude": "5.55602000",
        "longitude": "-0.19690000",
        "timezone": null,
        "wikiDataId": "Q3761"
    },
    {
        "id": 52159,
        "name": "Atsiaman",
        "state_id": 54,
        "state_code": "AA",
        "state_name": "Greater Accra",
        "country_id": 83,
        "country_code": "GH",
        "country_name": "Ghana",
        "latitude": "5.69775000",
        "longitude": "-0.32824000",
        "timezone": null,
        "wikiDataId": "Q720732"
    },
    {
        "id": 52169,
        "name": "Dome",
        "state_id": 54,
        "state_code": "AA",
        "state_name": "Greater Accra",
        "country_id": 83,
        "country_code": "GH",
        "country_name": "Ghana",
        "latitude": "5.65003000",
        "longitude": "-0.23610000",
        "timezone": null,
        "wikiDataId": "Q1236987"
    },
    {
        "id": 52175,
        "name": "Gbawe",
        "state_id": 54,
        "state_code": "AA",
        "state_name": "Greater Accra",
        "country_id": 83,
        "country_code": "GH",
        "country_name": "Ghana",
        "latitude": "5.57692000",
        "longitude": "-0.31038000",
        "timezone": null,
        "wikiDataId": "Q1496746"
    },
    {
        "id": 52190,
        "name": "Medina Estates",
        "state_id": 54,
        "state_code": "AA",
        "state_name": "Greater Accra",
        "country_id": 83,
        "country_code": "GH",
        "country_name": "Ghana",
        "latitude": "5.66580000",
        "longitude": "-0.16307000",
        "timezone": null,
        "wikiDataId": "Q1316141"
    },
    {
        "id": 52195,
        "name": "Nungua",
        "state_id": 54,
        "state_code": "AA",
        "state_name": "Greater Accra",
        "country_id": 83,
        "country_code": "GH",
        "country_name": "Ghana",
        "latitude": "5.60105000",
        "longitude": "-0.07713000",
        "timezone": null,
        "wikiDataId": "Q493990"
    },
    {
        "id": 52211,
        "name": "Tema",
        "state_id": 54,
        "state_code": "AA",
        "state_name": "Greater Accra",
        "country_id": 83,
        "country_code": "GH",
        "country_name": "Ghana",
        "latitude": "5.66980000",
        "longitude": "-0.01657000",
        "timezone": null,
        "wikiDataId": "Q726143"
    },
    {
        "id": 52212,
        "name": "Teshi Old Town",
        "state_id": 54,
        "state_code": "AA",
        "state_name": "Greater Accra",
        "country_id": 83,
        "country_code": "GH",
        "country_name": "Ghana",
        "latitude": "5.58365000",
        "longitude": "-0.10722000",
        "timezone": null,
        "wikiDataId": "Q1062602"
    },
    {
        "id": 149098,
        "name": "Bunkpurugu-Nyakpanduri",
        "state_id": 4960,
        "state_code": "NE",
        "state_name": "North East",
        "country_id": 83,
        "country_code": "GH",
        "country_name": "Ghana",
        "latitude": "10.46609170",
        "longitude": "-0.22711950",
        "timezone": null,
        "wikiDataId": "Q631255"
    },
    {
        "id": 149099,
        "name": "Chereponi",
        "state_id": 4960,
        "state_code": "NE",
        "state_name": "North East",
        "country_id": 83,
        "country_code": "GH",
        "country_name": "Ghana",
        "latitude": "10.13827720",
        "longitude": "0.28242580",
        "timezone": null,
        "wikiDataId": "Q5091888"
    },
    {
        "id": 149100,
        "name": "East Mamprusi",
        "state_id": 4960,
        "state_code": "NE",
        "state_name": "North East",
        "country_id": 83,
        "country_code": "GH",
        "country_name": "Ghana",
        "latitude": "10.42931860",
        "longitude": "-0.53078850",
        "timezone": null,
        "wikiDataId": "Q824725"
    },
    {
        "id": 149101,
        "name": "Mamprugu-Moagduri",
        "state_id": 4960,
        "state_code": "NE",
        "state_name": "North East",
        "country_id": 83,
        "country_code": "GH",
        "country_name": "Ghana",
        "latitude": "10.23290000",
        "longitude": "-1.28360000",
        "timezone": null,
        "wikiDataId": "Q24698175"
    },
    {
        "id": 149102,
        "name": "West Mamprusi",
        "state_id": 4960,
        "state_code": "NE",
        "state_name": "North East",
        "country_id": 83,
        "country_code": "GH",
        "country_name": "Ghana",
        "latitude": "10.29906060",
        "longitude": "-1.36750100",
        "timezone": null,
        "wikiDataId": "Q3285080"
    },
    {
        "id": 149103,
        "name": "Yunyoo-Nasuan",
        "state_id": 4960,
        "state_code": "NE",
        "state_name": "North East",
        "country_id": 83,
        "country_code": "GH",
        "country_name": "Ghana",
        "latitude": "10.48400000",
        "longitude": "-0.00900000",
        "timezone": null,
        "wikiDataId": "Q107070876"
    },
    {
        "id": 52186,
        "name": "Kpandae",
        "state_id": 51,
        "state_code": "NP",
        "state_name": "Northern",
        "country_id": 83,
        "country_code": "GH",
        "country_name": "Ghana",
        "latitude": "8.46885000",
        "longitude": "-0.01127000",
        "timezone": null,
        "wikiDataId": "Q1016732"
    },
    {
        "id": 52198,
        "name": "Salaga",
        "state_id": 51,
        "state_code": "NP",
        "state_name": "Northern",
        "country_id": 83,
        "country_code": "GH",
        "country_name": "Ghana",
        "latitude": "8.55083000",
        "longitude": "-0.51875000",
        "timezone": null,
        "wikiDataId": "Q995578"
    },
    {
        "id": 52200,
        "name": "Savelugu",
        "state_id": 51,
        "state_code": "NP",
        "state_name": "Northern",
        "country_id": 83,
        "country_code": "GH",
        "country_name": "Ghana",
        "latitude": "9.62441000",
        "longitude": "-0.82530000",
        "timezone": null,
        "wikiDataId": "Q2228059"
    },
    {
        "id": 52208,
        "name": "Tamale",
        "state_id": 51,
        "state_code": "NP",
        "state_name": "Northern",
        "country_id": 83,
        "country_code": "GH",
        "country_name": "Ghana",
        "latitude": "9.40079000",
        "longitude": "-0.83930000",
        "timezone": null,
        "wikiDataId": "Q7674984"
    },
    {
        "id": 52216,
        "name": "Yendi",
        "state_id": 51,
        "state_code": "NP",
        "state_name": "Northern",
        "country_id": 83,
        "country_code": "GH",
        "country_name": "Ghana",
        "latitude": "9.44272000",
        "longitude": "-0.00991000",
        "timezone": null,
        "wikiDataId": "Q639066"
    },
    {
        "id": 149104,
        "name": "Biakoye",
        "state_id": 4961,
        "state_code": "OT",
        "state_name": "Oti",
        "country_id": 83,
        "country_code": "GH",
        "country_name": "Ghana",
        "latitude": "7.11698690",
        "longitude": "0.32324300",
        "timezone": null,
        "wikiDataId": "Q2900789"
    },
    {
        "id": 149105,
        "name": "Jasikan",
        "state_id": 4961,
        "state_code": "OT",
        "state_name": "Oti",
        "country_id": 83,
        "country_code": "GH",
        "country_name": "Ghana",
        "latitude": "7.40940880",
        "longitude": "0.44301500",
        "timezone": null,
        "wikiDataId": "Q1432676"
    },
    {
        "id": 149106,
        "name": "Kadjebi",
        "state_id": 4961,
        "state_code": "OT",
        "state_name": "Oti",
        "country_id": 83,
        "country_code": "GH",
        "country_name": "Ghana",
        "latitude": "7.52631920",
        "longitude": "0.46704770",
        "timezone": null,
        "wikiDataId": "Q3191794"
    },
    {
        "id": 149107,
        "name": "Krachi East",
        "state_id": 4961,
        "state_code": "OT",
        "state_name": "Oti",
        "country_id": 83,
        "country_code": "GH",
        "country_name": "Ghana",
        "latitude": "7.77196980",
        "longitude": "-0.07763760",
        "timezone": null,
        "wikiDataId": "Q3199542"
    },
    {
        "id": 149108,
        "name": "Krachi Nchumuru",
        "state_id": 4961,
        "state_code": "OT",
        "state_name": "Oti",
        "country_id": 83,
        "country_code": "GH",
        "country_name": "Ghana",
        "latitude": "8.14849800",
        "longitude": "-0.16349880",
        "timezone": null,
        "wikiDataId": "Q55589875"
    },
    {
        "id": 149109,
        "name": "Krachi West",
        "state_id": 4961,
        "state_code": "OT",
        "state_name": "Oti",
        "country_id": 83,
        "country_code": "GH",
        "country_name": "Ghana",
        "latitude": "7.98282160",
        "longitude": "-0.34886270",
        "timezone": null,
        "wikiDataId": "Q3199541"
    },
    {
        "id": 149110,
        "name": "Nkwanta North",
        "state_id": 4961,
        "state_code": "OT",
        "state_name": "Oti",
        "country_id": 83,
        "country_code": "GH",
        "country_name": "Ghana",
        "latitude": "8.35180760",
        "longitude": "0.12217620",
        "timezone": null,
        "wikiDataId": "Q3342368"
    },
    {
        "id": 149111,
        "name": "Nkwanta South",
        "state_id": 4961,
        "state_code": "OT",
        "state_name": "Oti",
        "country_id": 83,
        "country_code": "GH",
        "country_name": "Ghana",
        "latitude": "8.25931340",
        "longitude": "0.50185190",
        "timezone": null,
        "wikiDataId": "Q977886"
    },
    {
        "id": 149112,
        "name": "Bole",
        "state_id": 4962,
        "state_code": "SV",
        "state_name": "Savannah",
        "country_id": 83,
        "country_code": "GH",
        "country_name": "Ghana",
        "latitude": "9.02996640",
        "longitude": "-2.50694300",
        "timezone": null,
        "wikiDataId": "Q820344"
    },
    {
        "id": 149113,
        "name": "Central Gonja",
        "state_id": 4962,
        "state_code": "SV",
        "state_name": "Savannah",
        "country_id": 83,
        "country_code": "GH",
        "country_name": "Ghana",
        "latitude": "8.92784320",
        "longitude": "-1.95369720",
        "timezone": null,
        "wikiDataId": "Q225577"
    },
    {
        "id": 149115,
        "name": "East Gonja",
        "state_id": 4962,
        "state_code": "SV",
        "state_name": "Savannah",
        "country_id": 83,
        "country_code": "GH",
        "country_name": "Ghana",
        "latitude": "8.72568400",
        "longitude": "-1.07135790",
        "timezone": null,
        "wikiDataId": "Q825097"
    },
    {
        "id": 149116,
        "name": "North East Gonja",
        "state_id": 4962,
        "state_code": "SV",
        "state_name": "Savannah",
        "country_id": 83,
        "country_code": "GH",
        "country_name": "Ghana",
        "latitude": "9.11746690",
        "longitude": "-0.55579360",
        "timezone": null,
        "wikiDataId": "Q105555666"
    },
    {
        "id": 149114,
        "name": "North Gonja",
        "state_id": 4962,
        "state_code": "SV",
        "state_name": "Savannah",
        "country_id": 83,
        "country_code": "GH",
        "country_name": "Ghana",
        "latitude": "9.54130850",
        "longitude": "-1.39766920",
        "timezone": null,
        "wikiDataId": "Q55570015"
    },
    {
        "id": 149117,
        "name": "Sawla-Tuna-Kalba",
        "state_id": 4962,
        "state_code": "SV",
        "state_name": "Savannah",
        "country_id": 83,
        "country_code": "GH",
        "country_name": "Ghana",
        "latitude": "9.39114570",
        "longitude": "-2.70611660",
        "timezone": null,
        "wikiDataId": "Q3474659"
    },
    {
        "id": 149118,
        "name": "West Gonja",
        "state_id": 4962,
        "state_code": "SV",
        "state_name": "Savannah",
        "country_id": 83,
        "country_code": "GH",
        "country_name": "Ghana",
        "latitude": "9.57513170",
        "longitude": "-2.26440410",
        "timezone": null,
        "wikiDataId": "Q3110546"
    },
    {
        "id": 52161,
        "name": "Bawku",
        "state_id": 55,
        "state_code": "UE",
        "state_name": "Upper East",
        "country_id": 83,
        "country_code": "GH",
        "country_name": "Ghana",
        "latitude": "11.06160000",
        "longitude": "-0.24169000",
        "timezone": null,
        "wikiDataId": "Q812036"
    },
    {
        "id": 52167,
        "name": "Bolgatanga",
        "state_id": 55,
        "state_code": "UE",
        "state_name": "Upper East",
        "country_id": 83,
        "country_code": "GH",
        "country_name": "Ghana",
        "latitude": "10.78556000",
        "longitude": "-0.85139000",
        "timezone": null,
        "wikiDataId": "Q166513"
    },
    {
        "id": 52193,
        "name": "Navrongo",
        "state_id": 55,
        "state_code": "UE",
        "state_name": "Upper East",
        "country_id": 83,
        "country_code": "GH",
        "country_name": "Ghana",
        "latitude": "10.89557000",
        "longitude": "-1.09210000",
        "timezone": null,
        "wikiDataId": "Q995548"
    },
    {
        "id": 52213,
        "name": "Wa",
        "state_id": 57,
        "state_code": "UW",
        "state_name": "Upper West",
        "country_id": 83,
        "country_code": "GH",
        "country_name": "Ghana",
        "latitude": "10.06069000",
        "longitude": "-2.50192000",
        "timezone": null,
        "wikiDataId": "Q250733"
    },
    {
        "id": 52150,
        "name": "Aflao",
        "state_id": 56,
        "state_code": "TV",
        "state_name": "Volta",
        "country_id": 83,
        "country_code": "GH",
        "country_name": "Ghana",
        "latitude": "6.11982000",
        "longitude": "1.19012000",
        "timezone": null,
        "wikiDataId": "Q383333"
    },
    {
        "id": 52156,
        "name": "Anloga",
        "state_id": 56,
        "state_code": "TV",
        "state_name": "Volta",
        "country_id": 83,
        "country_code": "GH",
        "country_name": "Ghana",
        "latitude": "5.79473000",
        "longitude": "0.89728000",
        "timezone": null,
        "wikiDataId": "Q557912"
    },
    {
        "id": 52176,
        "name": "Ho",
        "state_id": 56,
        "state_code": "TV",
        "state_name": "Volta",
        "country_id": 83,
        "country_code": "GH",
        "country_name": "Ghana",
        "latitude": "6.60084000",
        "longitude": "0.47130000",
        "timezone": null,
        "wikiDataId": "Q615006"
    },
    {
        "id": 52177,
        "name": "Hohoe",
        "state_id": 56,
        "state_code": "TV",
        "state_name": "Volta",
        "country_id": 83,
        "country_code": "GH",
        "country_name": "Ghana",
        "latitude": "7.15181000",
        "longitude": "0.47362000",
        "timezone": null,
        "wikiDataId": "Q1017008"
    },
    {
        "id": 52180,
        "name": "Keta",
        "state_id": 56,
        "state_code": "TV",
        "state_name": "Volta",
        "country_id": 83,
        "country_code": "GH",
        "country_name": "Ghana",
        "latitude": "5.91793000",
        "longitude": "0.98789000",
        "timezone": null,
        "wikiDataId": "Q1471408"
    },
    {
        "id": 52181,
        "name": "Kete Krachi",
        "state_id": 56,
        "state_code": "TV",
        "state_name": "Volta",
        "country_id": 83,
        "country_code": "GH",
        "country_name": "Ghana",
        "latitude": "7.79391000",
        "longitude": "-0.04980000",
        "timezone": null,
        "wikiDataId": "Q1739861"
    },
    {
        "id": 52187,
        "name": "Kpandu",
        "state_id": 56,
        "state_code": "TV",
        "state_name": "Volta",
        "country_id": 83,
        "country_code": "GH",
        "country_name": "Ghana",
        "latitude": "6.99536000",
        "longitude": "0.29306000",
        "timezone": null,
        "wikiDataId": "Q1785891"
    },
    {
        "id": 52147,
        "name": "Aboso",
        "state_id": 49,
        "state_code": "WP",
        "state_name": "Western",
        "country_id": 83,
        "country_code": "GH",
        "country_name": "Ghana",
        "latitude": "5.36073000",
        "longitude": "-1.94856000",
        "timezone": null,
        "wikiDataId": "Q185336"
    },
    {
        "id": 52160,
        "name": "Axim",
        "state_id": 49,
        "state_code": "WP",
        "state_name": "Western",
        "country_id": 83,
        "country_code": "GH",
        "country_name": "Ghana",
        "latitude": "4.86641000",
        "longitude": "-2.24181000",
        "timezone": null,
        "wikiDataId": "Q792509"
    },
    {
        "id": 52166,
        "name": "Bibiani",
        "state_id": 49,
        "state_code": "WP",
        "state_name": "Western",
        "country_id": 83,
        "country_code": "GH",
        "country_name": "Ghana",
        "latitude": "6.46346000",
        "longitude": "-2.31938000",
        "timezone": null,
        "wikiDataId": "Q4903040"
    },
    {
        "id": 52197,
        "name": "Prestea",
        "state_id": 49,
        "state_code": "WP",
        "state_name": "Western",
        "country_id": 83,
        "country_code": "GH",
        "country_name": "Ghana",
        "latitude": "5.43385000",
        "longitude": "-2.14295000",
        "timezone": null,
        "wikiDataId": "Q2109005"
    },
    {
        "id": 52201,
        "name": "Sekondi-Takoradi",
        "state_id": 49,
        "state_code": "WP",
        "state_name": "Western",
        "country_id": 83,
        "country_code": "GH",
        "country_name": "Ghana",
        "latitude": "4.92678000",
        "longitude": "-1.75773000",
        "timezone": null,
        "wikiDataId": "Q243293"
    },
    {
        "id": 52202,
        "name": "Shama Junction",
        "state_id": 49,
        "state_code": "WP",
        "state_name": "Western",
        "country_id": 83,
        "country_code": "GH",
        "country_name": "Ghana",
        "latitude": "5.01806000",
        "longitude": "-1.66437000",
        "timezone": null,
        "wikiDataId": "Q243293"
    },
    {
        "id": 52207,
        "name": "Takoradi",
        "state_id": 49,
        "state_code": "WP",
        "state_name": "Western",
        "country_id": 83,
        "country_code": "GH",
        "country_name": "Ghana",
        "latitude": "4.89816000",
        "longitude": "-1.76029000",
        "timezone": null,
        "wikiDataId": "Q7674984"
    },
    {
        "id": 52209,
        "name": "Tarkwa",
        "state_id": 49,
        "state_code": "WP",
        "state_name": "Western",
        "country_id": 83,
        "country_code": "GH",
        "country_name": "Ghana",
        "latitude": "5.30383000",
        "longitude": "-1.98956000",
        "timezone": null,
        "wikiDataId": "Q995439"
    },
    {
        "id": 149119,
        "name": "Aowin",
        "state_id": 4963,
        "state_code": "WN",
        "state_name": "Western North",
        "country_id": 83,
        "country_code": "GH",
        "country_name": "Ghana",
        "latitude": "5.82143850",
        "longitude": "-2.82360430",
        "timezone": null,
        "wikiDataId": "Q105985843"
    },
    {
        "id": 149120,
        "name": "Bia East",
        "state_id": 4963,
        "state_code": "WN",
        "state_name": "Western North",
        "country_id": 83,
        "country_code": "GH",
        "country_name": "Ghana",
        "latitude": "6.81614450",
        "longitude": "-3.00383950",
        "timezone": null,
        "wikiDataId": "Q16841443"
    },
    {
        "id": 149121,
        "name": "Bia West",
        "state_id": 4963,
        "state_code": "WN",
        "state_name": "Western North",
        "country_id": 83,
        "country_code": "GH",
        "country_name": "Ghana",
        "latitude": "6.56894170",
        "longitude": "-3.06628880",
        "timezone": null,
        "wikiDataId": "Q17155822"
    },
    {
        "id": 149122,
        "name": "Bibiani-Anhwiaso-Bekwai",
        "state_id": 4963,
        "state_code": "WN",
        "state_name": "Western North",
        "country_id": 83,
        "country_code": "GH",
        "country_name": "Ghana",
        "latitude": "6.30210040",
        "longitude": "-2.35675070",
        "timezone": null,
        "wikiDataId": "Q856281"
    },
    {
        "id": 149123,
        "name": "Bodi",
        "state_id": 4963,
        "state_code": "WN",
        "state_name": "Western North",
        "country_id": 83,
        "country_code": "GH",
        "country_name": "Ghana",
        "latitude": "6.22240910",
        "longitude": "-2.76615150",
        "timezone": null,
        "wikiDataId": "Q55589892"
    },
    {
        "id": 149124,
        "name": "Juaboso",
        "state_id": 4963,
        "state_code": "WN",
        "state_name": "Western North",
        "country_id": 83,
        "country_code": "GH",
        "country_name": "Ghana",
        "latitude": "6.33331570",
        "longitude": "-2.84206140",
        "timezone": null,
        "wikiDataId": "Q683109"
    },
    {
        "id": 149125,
        "name": "Sefwi-Akontombra",
        "state_id": 4963,
        "state_code": "WN",
        "state_name": "Western North",
        "country_id": 83,
        "country_code": "GH",
        "country_name": "Ghana",
        "latitude": "6.04285480",
        "longitude": "-2.88133620",
        "timezone": null,
        "wikiDataId": "Q24698107"
    },
    {
        "id": 149126,
        "name": "Sefwi-Wiawso",
        "state_id": 4963,
        "state_code": "WN",
        "state_name": "Western North",
        "country_id": 83,
        "country_code": "GH",
        "country_name": "Ghana",
        "latitude": "6.21965670",
        "longitude": "-2.50059150",
        "timezone": null,
        "wikiDataId": "Q2265854"
    },
    {
        "id": 149127,
        "name": "Suaman",
        "state_id": 4963,
        "state_code": "WN",
        "state_name": "Western North",
        "country_id": 83,
        "country_code": "GH",
        "country_name": "Ghana",
        "latitude": "6.10824160",
        "longitude": "-3.00869710",
        "timezone": null,
        "wikiDataId": "Q55593456"
    }
]