[
    {
        "id": 53444,
        "name": "Chahal Guatemala",
        "state_id": 3671,
        "state_code": "16",
        "state_name": "Alta Verapaz ",
        "country_id": 90,
        "country_code": "GT",
        "country_name": "Guatemala",
        "latitude": "15.79122000",
        "longitude": "-89.60518000",
        "timezone": null,
        "wikiDataId": "Q275804"
    },
    {
        "id": 53457,
        "name": "Chisec",
        "state_id": 3671,
        "state_code": "16",
        "state_name": "Alta Verapaz ",
        "country_id": 90,
        "country_code": "GT",
        "country_name": "Guatemala",
        "latitude": "15.81667000",
        "longitude": "-90.28333000",
        "timezone": null,
        "wikiDataId": "Q275980"
    },
    {
        "id": 53462,
        "name": "Cobán",
        "state_id": 3671,
        "state_code": "16",
        "state_name": "Alta Verapaz ",
        "country_id": 90,
        "country_code": "GT",
        "country_name": "Guatemala",
        "latitude": "15.47083000",
        "longitude": "-90.37083000",
        "timezone": null,
        "wikiDataId": "Q867077"
    },
    {
        "id": 53523,
        "name": "La Tinta",
        "state_id": 3671,
        "state_code": "16",
        "state_name": "Alta Verapaz ",
        "country_id": 90,
        "country_code": "GT",
        "country_name": "Guatemala",
        "latitude": "15.31667000",
        "longitude": "-89.88333000",
        "timezone": null,
        "wikiDataId": "Q590722"
    },
    {
        "id": 53524,
        "name": "Lanquín",
        "state_id": 3671,
        "state_code": "16",
        "state_name": "Alta Verapaz ",
        "country_id": 90,
        "country_code": "GT",
        "country_name": "Guatemala",
        "latitude": "15.56667000",
        "longitude": "-89.96667000",
        "timezone": null,
        "wikiDataId": "Q275883"
    },
    {
        "id": 53620,
        "name": "Panzós",
        "state_id": 3671,
        "state_code": "16",
        "state_name": "Alta Verapaz ",
        "country_id": 90,
        "country_code": "GT",
        "country_name": "Guatemala",
        "latitude": "15.40000000",
        "longitude": "-89.66667000",
        "timezone": null,
        "wikiDataId": "Q2050264"
    },
    {
        "id": 53671,
        "name": "San Cristóbal Verapaz",
        "state_id": 3671,
        "state_code": "16",
        "state_name": "Alta Verapaz ",
        "country_id": 90,
        "country_code": "GT",
        "country_name": "Guatemala",
        "latitude": "15.39632000",
        "longitude": "-90.56513000",
        "timezone": null,
        "wikiDataId": "Q284529"
    },
    {
        "id": 53693,
        "name": "San Juan Chamelco",
        "state_id": 3671,
        "state_code": "16",
        "state_name": "Alta Verapaz ",
        "country_id": 90,
        "country_code": "GT",
        "country_name": "Guatemala",
        "latitude": "15.43333000",
        "longitude": "-90.33333000",
        "timezone": null,
        "wikiDataId": "Q325793"
    },
    {
        "id": 53725,
        "name": "San Pedro Carchá",
        "state_id": 3671,
        "state_code": "16",
        "state_name": "Alta Verapaz ",
        "country_id": 90,
        "country_code": "GT",
        "country_name": "Guatemala",
        "latitude": "15.48333000",
        "longitude": "-90.26667000",
        "timezone": null,
        "wikiDataId": "Q325586"
    },
    {
        "id": 53758,
        "name": "Santa Cruz Verapaz",
        "state_id": 3671,
        "state_code": "16",
        "state_name": "Alta Verapaz ",
        "country_id": 90,
        "country_code": "GT",
        "country_name": "Guatemala",
        "latitude": "15.36667000",
        "longitude": "-90.43333000",
        "timezone": null,
        "wikiDataId": "Q332059"
    },
    {
        "id": 53777,
        "name": "Senahú",
        "state_id": 3671,
        "state_code": "16",
        "state_name": "Alta Verapaz ",
        "country_id": 90,
        "country_code": "GT",
        "country_name": "Guatemala",
        "latitude": "15.40000000",
        "longitude": "-89.83333000",
        "timezone": null,
        "wikiDataId": "Q332072"
    },
    {
        "id": 53786,
        "name": "Tactic",
        "state_id": 3671,
        "state_code": "16",
        "state_name": "Alta Verapaz ",
        "country_id": 90,
        "country_code": "GT",
        "country_name": "Guatemala",
        "latitude": "15.32218000",
        "longitude": "-90.35448000",
        "timezone": null,
        "wikiDataId": "Q348201"
    },
    {
        "id": 53788,
        "name": "Tamahú",
        "state_id": 3671,
        "state_code": "16",
        "state_name": "Alta Verapaz ",
        "country_id": 90,
        "country_code": "GT",
        "country_name": "Guatemala",
        "latitude": "15.30890000",
        "longitude": "-90.23599000",
        "timezone": null,
        "wikiDataId": "Q348216"
    },
    {
        "id": 53796,
        "name": "Tucurú",
        "state_id": 3671,
        "state_code": "16",
        "state_name": "Alta Verapaz ",
        "country_id": 90,
        "country_code": "GT",
        "country_name": "Guatemala",
        "latitude": "15.30000000",
        "longitude": "-90.06667000",
        "timezone": null,
        "wikiDataId": "Q391295"
    },
    {
        "id": 53474,
        "name": "Cubulco",
        "state_id": 3674,
        "state_code": "15",
        "state_name": "Baja Verapaz ",
        "country_id": 90,
        "country_code": "GT",
        "country_name": "Guatemala",
        "latitude": "15.10452000",
        "longitude": "-90.62871000",
        "timezone": null,
        "wikiDataId": "Q2034094"
    },
    {
        "id": 53482,
        "name": "El Chol",
        "state_id": 3674,
        "state_code": "15",
        "state_name": "Baja Verapaz ",
        "country_id": 90,
        "country_code": "GT",
        "country_name": "Guatemala",
        "latitude": "14.96055000",
        "longitude": "-90.48799000",
        "timezone": null,
        "wikiDataId": "Q2402509"
    },
    {
        "id": 53497,
        "name": "Granados",
        "state_id": 3674,
        "state_code": "15",
        "state_name": "Baja Verapaz ",
        "country_id": 90,
        "country_code": "GT",
        "country_name": "Guatemala",
        "latitude": "14.91649000",
        "longitude": "-90.52292000",
        "timezone": null,
        "wikiDataId": "Q611941"
    },
    {
        "id": 53636,
        "name": "Purulhá",
        "state_id": 3674,
        "state_code": "15",
        "state_name": "Baja Verapaz ",
        "country_id": 90,
        "country_code": "GT",
        "country_name": "Guatemala",
        "latitude": "15.26667000",
        "longitude": "-90.20000000",
        "timezone": null,
        "wikiDataId": "Q536249"
    },
    {
        "id": 53640,
        "name": "Rabinal",
        "state_id": 3674,
        "state_code": "15",
        "state_name": "Baja Verapaz ",
        "country_id": 90,
        "country_code": "GT",
        "country_name": "Guatemala",
        "latitude": "15.08530000",
        "longitude": "-90.49255000",
        "timezone": null,
        "wikiDataId": "Q1246149"
    },
    {
        "id": 53645,
        "name": "Salamá",
        "state_id": 3674,
        "state_code": "15",
        "state_name": "Baja Verapaz ",
        "country_id": 90,
        "country_code": "GT",
        "country_name": "Guatemala",
        "latitude": "15.10278000",
        "longitude": "-90.31806000",
        "timezone": null,
        "wikiDataId": "Q1023655"
    },
    {
        "id": 53680,
        "name": "San Jerónimo",
        "state_id": 3674,
        "state_code": "15",
        "state_name": "Baja Verapaz ",
        "country_id": 90,
        "country_code": "GT",
        "country_name": "Guatemala",
        "latitude": "15.06032000",
        "longitude": "-90.24050000",
        "timezone": null,
        "wikiDataId": "Q962529"
    },
    {
        "id": 53716,
        "name": "San Miguel Chicaj",
        "state_id": 3674,
        "state_code": "15",
        "state_name": "Baja Verapaz ",
        "country_id": 90,
        "country_code": "GT",
        "country_name": "Guatemala",
        "latitude": "15.09472000",
        "longitude": "-90.39442000",
        "timezone": null,
        "wikiDataId": "Q1517461"
    },
    {
        "id": 53425,
        "name": "Acatenango",
        "state_id": 3675,
        "state_code": "04",
        "state_name": "Chimaltenango ",
        "country_id": 90,
        "country_code": "GT",
        "country_name": "Guatemala",
        "latitude": "14.55451000",
        "longitude": "-90.94368000",
        "timezone": null,
        "wikiDataId": "Q1523949"
    },
    {
        "id": 53452,
        "name": "Chimaltenango",
        "state_id": 3675,
        "state_code": "04",
        "state_name": "Chimaltenango ",
        "country_id": 90,
        "country_code": "GT",
        "country_name": "Guatemala",
        "latitude": "14.66111000",
        "longitude": "-90.81944000",
        "timezone": null,
        "wikiDataId": "Q1002552"
    },
    {
        "id": 53465,
        "name": "Comalapa",
        "state_id": 3675,
        "state_code": "04",
        "state_name": "Chimaltenango ",
        "country_id": 90,
        "country_code": "GT",
        "country_name": "Guatemala",
        "latitude": "14.74086000",
        "longitude": "-90.88761000",
        "timezone": null,
        "wikiDataId": "Q1254234"
    },
    {
        "id": 53489,
        "name": "El Tejar",
        "state_id": 3675,
        "state_code": "04",
        "state_name": "Chimaltenango ",
        "country_id": 90,
        "country_code": "GT",
        "country_name": "Guatemala",
        "latitude": "14.64683000",
        "longitude": "-90.79122000",
        "timezone": null,
        "wikiDataId": "Q1573447"
    },
    {
        "id": 53621,
        "name": "Parramos",
        "state_id": 3675,
        "state_code": "04",
        "state_name": "Chimaltenango ",
        "country_id": 90,
        "country_code": "GT",
        "country_name": "Guatemala",
        "latitude": "14.60891000",
        "longitude": "-90.80303000",
        "timezone": null,
        "wikiDataId": "Q509612"
    },
    {
        "id": 53625,
        "name": "Patzicía",
        "state_id": 3675,
        "state_code": "04",
        "state_name": "Chimaltenango ",
        "country_id": 90,
        "country_code": "GT",
        "country_name": "Guatemala",
        "latitude": "14.63194000",
        "longitude": "-90.92659000",
        "timezone": null,
        "wikiDataId": "Q1523943"
    },
    {
        "id": 53627,
        "name": "Patzún",
        "state_id": 3675,
        "state_code": "04",
        "state_name": "Chimaltenango ",
        "country_id": 90,
        "country_code": "GT",
        "country_name": "Guatemala",
        "latitude": "14.68189000",
        "longitude": "-91.01397000",
        "timezone": null,
        "wikiDataId": "Q2574268"
    },
    {
        "id": 53630,
        "name": "Pochuta",
        "state_id": 3675,
        "state_code": "04",
        "state_name": "Chimaltenango ",
        "country_id": 90,
        "country_code": "GT",
        "country_name": "Guatemala",
        "latitude": "14.54450000",
        "longitude": "-91.08904000",
        "timezone": null,
        "wikiDataId": "Q1254201"
    },
    {
        "id": 53650,
        "name": "San Andrés Itzapa",
        "state_id": 3675,
        "state_code": "04",
        "state_name": "Chimaltenango ",
        "country_id": 90,
        "country_code": "GT",
        "country_name": "Guatemala",
        "latitude": "14.62222000",
        "longitude": "-90.84314000",
        "timezone": null,
        "wikiDataId": "Q1573465"
    },
    {
        "id": 53689,
        "name": "San José Poaquil",
        "state_id": 3675,
        "state_code": "04",
        "state_name": "Chimaltenango ",
        "country_id": 90,
        "country_code": "GT",
        "country_name": "Guatemala",
        "latitude": "14.81808000",
        "longitude": "-90.91248000",
        "timezone": null,
        "wikiDataId": "Q1254233"
    },
    {
        "id": 53710,
        "name": "San Martín Jilotepeque",
        "state_id": 3675,
        "state_code": "04",
        "state_name": "Chimaltenango ",
        "country_id": 90,
        "country_code": "GT",
        "country_name": "Guatemala",
        "latitude": "14.78008000",
        "longitude": "-90.79259000",
        "timezone": null,
        "wikiDataId": "Q2607954"
    },
    {
        "id": 53745,
        "name": "Santa Apolonia",
        "state_id": 3675,
        "state_code": "04",
        "state_name": "Chimaltenango ",
        "country_id": 90,
        "country_code": "GT",
        "country_name": "Guatemala",
        "latitude": "14.79049000",
        "longitude": "-90.97267000",
        "timezone": null,
        "wikiDataId": "Q1254653"
    },
    {
        "id": 53754,
        "name": "Santa Cruz Balanyá",
        "state_id": 3675,
        "state_code": "04",
        "state_name": "Chimaltenango ",
        "country_id": 90,
        "country_code": "GT",
        "country_name": "Guatemala",
        "latitude": "14.68522000",
        "longitude": "-90.91906000",
        "timezone": null,
        "wikiDataId": "Q1523955"
    },
    {
        "id": 53790,
        "name": "Tecpán Guatemala",
        "state_id": 3675,
        "state_code": "04",
        "state_name": "Chimaltenango ",
        "country_id": 90,
        "country_code": "GT",
        "country_name": "Guatemala",
        "latitude": "14.76181000",
        "longitude": "-90.99247000",
        "timezone": null,
        "wikiDataId": "Q2400650"
    },
    {
        "id": 53800,
        "name": "Yepocapa",
        "state_id": 3675,
        "state_code": "04",
        "state_name": "Chimaltenango ",
        "country_id": 90,
        "country_code": "GT",
        "country_name": "Guatemala",
        "latitude": "14.50195000",
        "longitude": "-90.95396000",
        "timezone": null,
        "wikiDataId": "Q1523937"
    },
    {
        "id": 53804,
        "name": "Zaragoza",
        "state_id": 3675,
        "state_code": "04",
        "state_name": "Chimaltenango ",
        "country_id": 90,
        "country_code": "GT",
        "country_name": "Guatemala",
        "latitude": "14.64968000",
        "longitude": "-90.89034000",
        "timezone": null,
        "wikiDataId": "Q1572856"
    },
    {
        "id": 53439,
        "name": "Camotán",
        "state_id": 3666,
        "state_code": "20",
        "state_name": "Chiquimula ",
        "country_id": 90,
        "country_code": "GT",
        "country_name": "Guatemala",
        "latitude": "14.82017000",
        "longitude": "-89.37224000",
        "timezone": null,
        "wikiDataId": "Q388686"
    },
    {
        "id": 53455,
        "name": "Chiquimula",
        "state_id": 3666,
        "state_code": "20",
        "state_name": "Chiquimula ",
        "country_id": 90,
        "country_code": "GT",
        "country_name": "Guatemala",
        "latitude": "14.80000000",
        "longitude": "-89.54583000",
        "timezone": null,
        "wikiDataId": "Q1025536"
    },
    {
        "id": 53471,
        "name": "Concepción Las Minas",
        "state_id": 3666,
        "state_code": "20",
        "state_name": "Chiquimula ",
        "country_id": 90,
        "country_code": "GT",
        "country_name": "Guatemala",
        "latitude": "14.52173000",
        "longitude": "-89.45717000",
        "timezone": null,
        "wikiDataId": "Q1954363"
    },
    {
        "id": 53492,
        "name": "Esquipulas",
        "state_id": 3666,
        "state_code": "20",
        "state_name": "Chiquimula ",
        "country_id": 90,
        "country_code": "GT",
        "country_name": "Guatemala",
        "latitude": "14.56571000",
        "longitude": "-89.35166000",
        "timezone": null,
        "wikiDataId": "Q3058634"
    },
    {
        "id": 53505,
        "name": "Ipala",
        "state_id": 3666,
        "state_code": "20",
        "state_name": "Chiquimula ",
        "country_id": 90,
        "country_code": "GT",
        "country_name": "Guatemala",
        "latitude": "14.61667000",
        "longitude": "-89.61667000",
        "timezone": null,
        "wikiDataId": "Q1748611"
    },
    {
        "id": 53514,
        "name": "Jocotán",
        "state_id": 3666,
        "state_code": "20",
        "state_name": "Chiquimula ",
        "country_id": 90,
        "country_code": "GT",
        "country_name": "Guatemala",
        "latitude": "14.82072000",
        "longitude": "-89.38991000",
        "timezone": null,
        "wikiDataId": "Q1954342"
    },
    {
        "id": 53611,
        "name": "Olopa",
        "state_id": 3666,
        "state_code": "20",
        "state_name": "Chiquimula ",
        "country_id": 90,
        "country_code": "GT",
        "country_name": "Guatemala",
        "latitude": "14.69229000",
        "longitude": "-89.35003000",
        "timezone": null,
        "wikiDataId": "Q2025333"
    },
    {
        "id": 53639,
        "name": "Quezaltepeque",
        "state_id": 3666,
        "state_code": "20",
        "state_name": "Chiquimula ",
        "country_id": 90,
        "country_code": "GT",
        "country_name": "Guatemala",
        "latitude": "14.63553000",
        "longitude": "-89.44241000",
        "timezone": null,
        "wikiDataId": "Q1981325"
    },
    {
        "id": 53679,
        "name": "San Jacinto",
        "state_id": 3666,
        "state_code": "20",
        "state_name": "Chiquimula ",
        "country_id": 90,
        "country_code": "GT",
        "country_name": "Guatemala",
        "latitude": "14.66667000",
        "longitude": "-89.50000000",
        "timezone": null,
        "wikiDataId": "Q978109"
    },
    {
        "id": 53685,
        "name": "San José La Arada",
        "state_id": 3666,
        "state_code": "20",
        "state_name": "Chiquimula ",
        "country_id": 90,
        "country_code": "GT",
        "country_name": "Guatemala",
        "latitude": "14.71667000",
        "longitude": "-89.58333000",
        "timezone": null,
        "wikiDataId": "Q1749098"
    },
    {
        "id": 53695,
        "name": "San Juan Ermita",
        "state_id": 3666,
        "state_code": "20",
        "state_name": "Chiquimula ",
        "country_id": 90,
        "country_code": "GT",
        "country_name": "Guatemala",
        "latitude": "14.76471000",
        "longitude": "-89.43014000",
        "timezone": null,
        "wikiDataId": "Q2025266"
    },
    {
        "id": 53484,
        "name": "El Jícaro",
        "state_id": 3662,
        "state_code": "02",
        "state_name": "El Progreso ",
        "country_id": 90,
        "country_code": "GT",
        "country_name": "Guatemala",
        "latitude": "14.91667000",
        "longitude": "-89.90000000",
        "timezone": null,
        "wikiDataId": "Q1020153"
    },
    {
        "id": 53499,
        "name": "Guastatoya",
        "state_id": 3662,
        "state_code": "02",
        "state_name": "El Progreso ",
        "country_id": 90,
        "country_code": "GT",
        "country_name": "Guatemala",
        "latitude": "14.85417000",
        "longitude": "-90.06944000",
        "timezone": null,
        "wikiDataId": "Q615633"
    },
    {
        "id": 53538,
        "name": "Morazán",
        "state_id": 3662,
        "state_code": "02",
        "state_name": "El Progreso ",
        "country_id": 90,
        "country_code": "GT",
        "country_name": "Guatemala",
        "latitude": "14.93278000",
        "longitude": "-90.14306000",
        "timezone": null,
        "wikiDataId": "Q1020416"
    },
    {
        "id": 53648,
        "name": "San Agustín Acasaguastlán",
        "state_id": 3662,
        "state_code": "02",
        "state_name": "El Progreso ",
        "country_id": 90,
        "country_code": "GT",
        "country_name": "Guatemala",
        "latitude": "14.95000000",
        "longitude": "-89.96667000",
        "timezone": null,
        "wikiDataId": "Q1020409"
    },
    {
        "id": 53658,
        "name": "San Antonio La Paz",
        "state_id": 3662,
        "state_code": "02",
        "state_name": "El Progreso ",
        "country_id": 90,
        "country_code": "GT",
        "country_name": "Guatemala",
        "latitude": "14.75888000",
        "longitude": "-90.28485000",
        "timezone": null,
        "wikiDataId": "Q962852"
    },
    {
        "id": 53668,
        "name": "San Cristóbal Acasaguastlán",
        "state_id": 3662,
        "state_code": "02",
        "state_name": "El Progreso ",
        "country_id": 90,
        "country_code": "GT",
        "country_name": "Guatemala",
        "latitude": "14.91667000",
        "longitude": "-89.88333000",
        "timezone": null,
        "wikiDataId": "Q1020799"
    },
    {
        "id": 53741,
        "name": "Sanarate",
        "state_id": 3662,
        "state_code": "02",
        "state_name": "El Progreso ",
        "country_id": 90,
        "country_code": "GT",
        "country_name": "Guatemala",
        "latitude": "14.78828000",
        "longitude": "-90.19876000",
        "timezone": null,
        "wikiDataId": "Q1757603"
    },
    {
        "id": 53742,
        "name": "Sansare",
        "state_id": 3662,
        "state_code": "02",
        "state_name": "El Progreso ",
        "country_id": 90,
        "country_code": "GT",
        "country_name": "Guatemala",
        "latitude": "14.74572000",
        "longitude": "-90.11615000",
        "timezone": null,
        "wikiDataId": "Q178569"
    },
    {
        "id": 53491,
        "name": "Escuintla",
        "state_id": 3677,
        "state_code": "05",
        "state_name": "Escuintla ",
        "country_id": 90,
        "country_code": "GT",
        "country_name": "Guatemala",
        "latitude": "14.30500000",
        "longitude": "-90.78500000",
        "timezone": null,
        "wikiDataId": "Q780771"
    },
    {
        "id": 53498,
        "name": "Guanagazapa",
        "state_id": 3677,
        "state_code": "05",
        "state_name": "Escuintla ",
        "country_id": 90,
        "country_code": "GT",
        "country_name": "Guatemala",
        "latitude": "14.22528000",
        "longitude": "-90.64333000",
        "timezone": null,
        "wikiDataId": "Q1748573"
    },
    {
        "id": 53508,
        "name": "Iztapa",
        "state_id": 3677,
        "state_code": "05",
        "state_name": "Escuintla ",
        "country_id": 90,
        "country_code": "GT",
        "country_name": "Guatemala",
        "latitude": "13.93333000",
        "longitude": "-90.70750000",
        "timezone": null,
        "wikiDataId": "Q2401869"
    },
    {
        "id": 53517,
        "name": "La Democracia",
        "state_id": 3677,
        "state_code": "05",
        "state_name": "Escuintla ",
        "country_id": 90,
        "country_code": "GT",
        "country_name": "Guatemala",
        "latitude": "14.23083000",
        "longitude": "-90.94722000",
        "timezone": null,
        "wikiDataId": "Q129369"
    },
    {
        "id": 53519,
        "name": "La Gomera",
        "state_id": 3677,
        "state_code": "05",
        "state_name": "Escuintla ",
        "country_id": 90,
        "country_code": "GT",
        "country_name": "Guatemala",
        "latitude": "14.08213000",
        "longitude": "-91.05383000",
        "timezone": null,
        "wikiDataId": "Q2608447"
    },
    {
        "id": 53530,
        "name": "Masagua",
        "state_id": 3677,
        "state_code": "05",
        "state_name": "Escuintla ",
        "country_id": 90,
        "country_code": "GT",
        "country_name": "Guatemala",
        "latitude": "14.20306000",
        "longitude": "-90.84806000",
        "timezone": null,
        "wikiDataId": "Q1748359"
    },
    {
        "id": 53605,
        "name": "Nueva Concepción",
        "state_id": 3677,
        "state_code": "05",
        "state_name": "Escuintla ",
        "country_id": 90,
        "country_code": "GT",
        "country_name": "Guatemala",
        "latitude": "14.20000000",
        "longitude": "-91.30000000",
        "timezone": null,
        "wikiDataId": "Q317414"
    },
    {
        "id": 53618,
        "name": "Palín",
        "state_id": 3677,
        "state_code": "05",
        "state_name": "Escuintla ",
        "country_id": 90,
        "country_code": "GT",
        "country_name": "Guatemala",
        "latitude": "14.40358000",
        "longitude": "-90.69659000",
        "timezone": null,
        "wikiDataId": "Q523244"
    },
    {
        "id": 53635,
        "name": "Puerto San José",
        "state_id": 3677,
        "state_code": "05",
        "state_name": "Escuintla ",
        "country_id": 90,
        "country_code": "GT",
        "country_name": "Guatemala",
        "latitude": "13.92740000",
        "longitude": "-90.82166000",
        "timezone": null,
        "wikiDataId": "Q1266746"
    },
    {
        "id": 53740,
        "name": "San Vicente Pacaya",
        "state_id": 3677,
        "state_code": "05",
        "state_name": "Escuintla ",
        "country_id": 90,
        "country_code": "GT",
        "country_name": "Guatemala",
        "latitude": "14.41466000",
        "longitude": "-90.63613000",
        "timezone": null,
        "wikiDataId": "Q1748582"
    },
    {
        "id": 53762,
        "name": "Santa Lucía Cotzumalguapa",
        "state_id": 3677,
        "state_code": "05",
        "state_name": "Escuintla ",
        "country_id": 90,
        "country_code": "GT",
        "country_name": "Guatemala",
        "latitude": "14.33505000",
        "longitude": "-91.02339000",
        "timezone": null,
        "wikiDataId": "Q404550"
    },
    {
        "id": 53781,
        "name": "Siquinalá",
        "state_id": 3677,
        "state_code": "05",
        "state_name": "Escuintla ",
        "country_id": 90,
        "country_code": "GT",
        "country_name": "Guatemala",
        "latitude": "14.30611000",
        "longitude": "-90.96500000",
        "timezone": null,
        "wikiDataId": "Q1748570"
    },
    {
        "id": 53793,
        "name": "Tiquisate",
        "state_id": 3677,
        "state_code": "05",
        "state_name": "Escuintla ",
        "country_id": 90,
        "country_code": "GT",
        "country_name": "Guatemala",
        "latitude": "14.28356000",
        "longitude": "-91.36063000",
        "timezone": null,
        "wikiDataId": "Q532226"
    },
    {
        "id": 53430,
        "name": "Amatitlán",
        "state_id": 3672,
        "state_code": "01",
        "state_name": "Guatemala ",
        "country_id": 90,
        "country_code": "GT",
        "country_name": "Guatemala",
        "latitude": "14.47740000",
        "longitude": "-90.63489000",
        "timezone": null,
        "wikiDataId": "Q455760"
    },
    {
        "id": 53453,
        "name": "Chinautla",
        "state_id": 3672,
        "state_code": "01",
        "state_name": "Guatemala ",
        "country_id": 90,
        "country_code": "GT",
        "country_name": "Guatemala",
        "latitude": "14.70289000",
        "longitude": "-90.49983000",
        "timezone": null,
        "wikiDataId": "Q1027001"
    },
    {
        "id": 53458,
        "name": "Chuarrancho",
        "state_id": 3672,
        "state_code": "01",
        "state_name": "Guatemala ",
        "country_id": 90,
        "country_code": "GT",
        "country_name": "Guatemala",
        "latitude": "14.81794000",
        "longitude": "-90.51568000",
        "timezone": null,
        "wikiDataId": "Q275678"
    },
    {
        "id": 53496,
        "name": "Fraijanes",
        "state_id": 3672,
        "state_code": "01",
        "state_name": "Guatemala ",
        "country_id": 90,
        "country_code": "GT",
        "country_name": "Guatemala",
        "latitude": "14.46528000",
        "longitude": "-90.44083000",
        "timezone": null,
        "wikiDataId": "Q1440507"
    },
    {
        "id": 53500,
        "name": "Guatemala City",
        "state_id": 3672,
        "state_code": "01",
        "state_name": "Guatemala ",
        "country_id": 90,
        "country_code": "GT",
        "country_name": "Guatemala",
        "latitude": "14.64072000",
        "longitude": "-90.51327000",
        "timezone": null,
        "wikiDataId": "Q1555"
    },
    {
        "id": 53534,
        "name": "Mixco",
        "state_id": 3672,
        "state_code": "01",
        "state_name": "Guatemala ",
        "country_id": 90,
        "country_code": "GT",
        "country_name": "Guatemala",
        "latitude": "14.63077000",
        "longitude": "-90.60711000",
        "timezone": null,
        "wikiDataId": "Q948953"
    },
    {
        "id": 53616,
        "name": "Palencia",
        "state_id": 3672,
        "state_code": "01",
        "state_name": "Guatemala ",
        "country_id": 90,
        "country_code": "GT",
        "country_name": "Guatemala",
        "latitude": "14.66715000",
        "longitude": "-90.35721000",
        "timezone": null,
        "wikiDataId": "Q246164"
    },
    {
        "id": 53628,
        "name": "Petapa",
        "state_id": 3672,
        "state_code": "01",
        "state_name": "Guatemala ",
        "country_id": 90,
        "country_code": "GT",
        "country_name": "Guatemala",
        "latitude": "14.50189000",
        "longitude": "-90.56196000",
        "timezone": null,
        "wikiDataId": "Q921966"
    },
    {
        "id": 53690,
        "name": "San José del Golfo",
        "state_id": 3672,
        "state_code": "01",
        "state_name": "Guatemala ",
        "country_id": 90,
        "country_code": "GT",
        "country_name": "Guatemala",
        "latitude": "14.76414000",
        "longitude": "-90.37228000",
        "timezone": null,
        "wikiDataId": "Q275791"
    },
    {
        "id": 53688,
        "name": "San José Pinula",
        "state_id": 3672,
        "state_code": "01",
        "state_name": "Guatemala ",
        "country_id": 90,
        "country_code": "GT",
        "country_name": "Guatemala",
        "latitude": "14.54600000",
        "longitude": "-90.41288000",
        "timezone": null,
        "wikiDataId": "Q317380"
    },
    {
        "id": 53698,
        "name": "San Juan Sacatepéquez",
        "state_id": 3672,
        "state_code": "01",
        "state_name": "Guatemala ",
        "country_id": 90,
        "country_code": "GT",
        "country_name": "Guatemala",
        "latitude": "14.71889000",
        "longitude": "-90.64417000",
        "timezone": null,
        "wikiDataId": "Q127622"
    },
    {
        "id": 53724,
        "name": "San Pedro Ayampuc",
        "state_id": 3672,
        "state_code": "01",
        "state_name": "Guatemala ",
        "country_id": 90,
        "country_code": "GT",
        "country_name": "Guatemala",
        "latitude": "14.77943000",
        "longitude": "-90.45318000",
        "timezone": null,
        "wikiDataId": "Q275983"
    },
    {
        "id": 53730,
        "name": "San Pedro Sacatepéquez",
        "state_id": 3672,
        "state_code": "01",
        "state_name": "Guatemala ",
        "country_id": 90,
        "country_code": "GT",
        "country_name": "Guatemala",
        "latitude": "14.68612000",
        "longitude": "-90.64253000",
        "timezone": null,
        "wikiDataId": "Q317444"
    },
    {
        "id": 53736,
        "name": "San Raimundo",
        "state_id": 3672,
        "state_code": "01",
        "state_name": "Guatemala ",
        "country_id": 90,
        "country_code": "GT",
        "country_name": "Guatemala",
        "latitude": "14.76462000",
        "longitude": "-90.59493000",
        "timezone": null,
        "wikiDataId": "Q275800"
    },
    {
        "id": 53752,
        "name": "Santa Catarina Pinula",
        "state_id": 3672,
        "state_code": "01",
        "state_name": "Guatemala ",
        "country_id": 90,
        "country_code": "GT",
        "country_name": "Guatemala",
        "latitude": "14.57047000",
        "longitude": "-90.49925000",
        "timezone": null,
        "wikiDataId": "Q1671882"
    },
    {
        "id": 53798,
        "name": "Villa Canales",
        "state_id": 3672,
        "state_code": "01",
        "state_name": "Guatemala ",
        "country_id": 90,
        "country_code": "GT",
        "country_name": "Guatemala",
        "latitude": "14.48285000",
        "longitude": "-90.53425000",
        "timezone": null,
        "wikiDataId": "Q174266"
    },
    {
        "id": 53799,
        "name": "Villa Nueva",
        "state_id": 3672,
        "state_code": "01",
        "state_name": "Guatemala ",
        "country_id": 90,
        "country_code": "GT",
        "country_name": "Guatemala",
        "latitude": "14.52512000",
        "longitude": "-90.58544000",
        "timezone": null,
        "wikiDataId": "Q1018584"
    },
    {
        "id": 53427,
        "name": "Aguacatán",
        "state_id": 3670,
        "state_code": "13",
        "state_name": "Huehuetenango ",
        "country_id": 90,
        "country_code": "GT",
        "country_name": "Guatemala",
        "latitude": "15.34222000",
        "longitude": "-91.31141000",
        "timezone": null,
        "wikiDataId": "Q2402581"
    },
    {
        "id": 53435,
        "name": "Barillas",
        "state_id": 3670,
        "state_code": "13",
        "state_name": "Huehuetenango ",
        "country_id": 90,
        "country_code": "GT",
        "country_name": "Guatemala",
        "latitude": "15.80361000",
        "longitude": "-91.31583000",
        "timezone": null,
        "wikiDataId": "Q2390990"
    },
    {
        "id": 53447,
        "name": "Chiantla",
        "state_id": 3670,
        "state_code": "13",
        "state_name": "Huehuetenango ",
        "country_id": 90,
        "country_code": "GT",
        "country_name": "Guatemala",
        "latitude": "15.35484000",
        "longitude": "-91.45807000",
        "timezone": null,
        "wikiDataId": "Q2608965"
    },
    {
        "id": 53464,
        "name": "Colotenango",
        "state_id": 3670,
        "state_code": "13",
        "state_name": "Huehuetenango ",
        "country_id": 90,
        "country_code": "GT",
        "country_name": "Guatemala",
        "latitude": "15.40602000",
        "longitude": "-91.71267000",
        "timezone": null,
        "wikiDataId": "Q2402611"
    },
    {
        "id": 53470,
        "name": "Concepción Huista",
        "state_id": 3670,
        "state_code": "13",
        "state_name": "Huehuetenango ",
        "country_id": 90,
        "country_code": "GT",
        "country_name": "Guatemala",
        "latitude": "15.62378000",
        "longitude": "-91.66521000",
        "timezone": null,
        "wikiDataId": "Q2401883"
    },
    {
        "id": 53476,
        "name": "Cuilco",
        "state_id": 3670,
        "state_code": "13",
        "state_name": "Huehuetenango ",
        "country_id": 90,
        "country_code": "GT",
        "country_name": "Guatemala",
        "latitude": "15.40719000",
        "longitude": "-91.94667000",
        "timezone": null,
        "wikiDataId": "Q2402387"
    },
    {
        "id": 53503,
        "name": "Huehuetenango",
        "state_id": 3670,
        "state_code": "13",
        "state_name": "Huehuetenango ",
        "country_id": 90,
        "country_code": "GT",
        "country_name": "Guatemala",
        "latitude": "15.31918000",
        "longitude": "-91.47241000",
        "timezone": null,
        "wikiDataId": "Q984863"
    },
    {
        "id": 53507,
        "name": "Ixtahuacán",
        "state_id": 3670,
        "state_code": "13",
        "state_name": "Huehuetenango ",
        "country_id": 90,
        "country_code": "GT",
        "country_name": "Guatemala",
        "latitude": "15.41688000",
        "longitude": "-91.76927000",
        "timezone": null,
        "wikiDataId": "Q2401814"
    },
    {
        "id": 53509,
        "name": "Jacaltenango",
        "state_id": 3670,
        "state_code": "13",
        "state_name": "Huehuetenango ",
        "country_id": 90,
        "country_code": "GT",
        "country_name": "Guatemala",
        "latitude": "15.66662000",
        "longitude": "-91.71177000",
        "timezone": null,
        "wikiDataId": "Q1124580"
    },
    {
        "id": 53521,
        "name": "La Libertad",
        "state_id": 3670,
        "state_code": "13",
        "state_name": "Huehuetenango ",
        "country_id": 90,
        "country_code": "GT",
        "country_name": "Guatemala",
        "latitude": "15.51421000",
        "longitude": "-91.86944000",
        "timezone": null,
        "wikiDataId": "Q1748790"
    },
    {
        "id": 53528,
        "name": "Malacatancito",
        "state_id": 3670,
        "state_code": "13",
        "state_name": "Huehuetenango ",
        "country_id": 90,
        "country_code": "GT",
        "country_name": "Guatemala",
        "latitude": "15.24457000",
        "longitude": "-91.49901000",
        "timezone": null,
        "wikiDataId": "Q539311"
    },
    {
        "id": 53604,
        "name": "Nentón",
        "state_id": 3670,
        "state_code": "13",
        "state_name": "Huehuetenango ",
        "country_id": 90,
        "country_code": "GT",
        "country_name": "Guatemala",
        "latitude": "15.80070000",
        "longitude": "-91.75464000",
        "timezone": null,
        "wikiDataId": "Q2402097"
    },
    {
        "id": 53656,
        "name": "San Antonio Huista",
        "state_id": 3670,
        "state_code": "13",
        "state_name": "Huehuetenango ",
        "country_id": 90,
        "country_code": "GT",
        "country_name": "Guatemala",
        "latitude": "15.65010000",
        "longitude": "-91.77163000",
        "timezone": null,
        "wikiDataId": "Q2609240"
    },
    {
        "id": 53678,
        "name": "San Gaspar Ixchil",
        "state_id": 3670,
        "state_code": "13",
        "state_name": "Huehuetenango ",
        "country_id": 90,
        "country_code": "GT",
        "country_name": "Guatemala",
        "latitude": "15.38796000",
        "longitude": "-91.72564000",
        "timezone": null,
        "wikiDataId": "Q769939"
    },
    {
        "id": 53691,
        "name": "San Juan Atitán",
        "state_id": 3670,
        "state_code": "13",
        "state_name": "Huehuetenango ",
        "country_id": 90,
        "country_code": "GT",
        "country_name": "Guatemala",
        "latitude": "15.42886000",
        "longitude": "-91.62398000",
        "timezone": null,
        "wikiDataId": "Q531288"
    },
    {
        "id": 53696,
        "name": "San Juan Ixcoy",
        "state_id": 3670,
        "state_code": "13",
        "state_name": "Huehuetenango ",
        "country_id": 90,
        "country_code": "GT",
        "country_name": "Guatemala",
        "latitude": "15.60022000",
        "longitude": "-91.44639000",
        "timezone": null,
        "wikiDataId": "Q2401833"
    },
    {
        "id": 53714,
        "name": "San Mateo Ixtatán",
        "state_id": 3670,
        "state_code": "13",
        "state_name": "Huehuetenango ",
        "country_id": 90,
        "country_code": "GT",
        "country_name": "Guatemala",
        "latitude": "15.83194000",
        "longitude": "-91.47806000",
        "timezone": null,
        "wikiDataId": "Q2609270"
    },
    {
        "id": 53715,
        "name": "San Miguel Acatán",
        "state_id": 3670,
        "state_code": "13",
        "state_name": "Huehuetenango ",
        "country_id": 90,
        "country_code": "GT",
        "country_name": "Guatemala",
        "latitude": "15.70401000",
        "longitude": "-91.59771000",
        "timezone": null,
        "wikiDataId": "Q743437"
    },
    {
        "id": 53727,
        "name": "San Pedro Necta",
        "state_id": 3670,
        "state_code": "13",
        "state_name": "Huehuetenango ",
        "country_id": 90,
        "country_code": "GT",
        "country_name": "Guatemala",
        "latitude": "15.49142000",
        "longitude": "-91.76551000",
        "timezone": null,
        "wikiDataId": "Q734440"
    },
    {
        "id": 53732,
        "name": "San Rafael La Independencia",
        "state_id": 3670,
        "state_code": "13",
        "state_name": "Huehuetenango ",
        "country_id": 90,
        "country_code": "GT",
        "country_name": "Guatemala",
        "latitude": "15.70150000",
        "longitude": "-91.53553000",
        "timezone": null,
        "wikiDataId": "Q2401930"
    },
    {
        "id": 53734,
        "name": "San Rafael Petzal",
        "state_id": 3670,
        "state_code": "13",
        "state_name": "Huehuetenango ",
        "country_id": 90,
        "country_code": "GT",
        "country_name": "Guatemala",
        "latitude": "15.40487000",
        "longitude": "-91.66451000",
        "timezone": null,
        "wikiDataId": "Q2402524"
    },
    {
        "id": 53738,
        "name": "San Sebastián Coatán",
        "state_id": 3670,
        "state_code": "13",
        "state_name": "Huehuetenango ",
        "country_id": 90,
        "country_code": "GT",
        "country_name": "Guatemala",
        "latitude": "15.73584000",
        "longitude": "-91.56285000",
        "timezone": null,
        "wikiDataId": "Q2402150"
    },
    {
        "id": 53739,
        "name": "San Sebastián Huehuetenango",
        "state_id": 3670,
        "state_code": "13",
        "state_name": "Huehuetenango ",
        "country_id": 90,
        "country_code": "GT",
        "country_name": "Guatemala",
        "latitude": "15.38768000",
        "longitude": "-91.61530000",
        "timezone": null,
        "wikiDataId": "Q951729"
    },
    {
        "id": 53744,
        "name": "Santa Ana Huista",
        "state_id": 3670,
        "state_code": "13",
        "state_name": "Huehuetenango ",
        "country_id": 90,
        "country_code": "GT",
        "country_name": "Guatemala",
        "latitude": "15.68085000",
        "longitude": "-91.82005000",
        "timezone": null,
        "wikiDataId": "Q2402405"
    },
    {
        "id": 53747,
        "name": "Santa Bárbara",
        "state_id": 3670,
        "state_code": "13",
        "state_name": "Huehuetenango ",
        "country_id": 90,
        "country_code": "GT",
        "country_name": "Guatemala",
        "latitude": "15.31617000",
        "longitude": "-91.63279000",
        "timezone": null,
        "wikiDataId": "Q2401903"
    },
    {
        "id": 53760,
        "name": "Santa Eulalia",
        "state_id": 3670,
        "state_code": "13",
        "state_name": "Huehuetenango ",
        "country_id": 90,
        "country_code": "GT",
        "country_name": "Guatemala",
        "latitude": "15.73060000",
        "longitude": "-91.45846000",
        "timezone": null,
        "wikiDataId": "Q1748868"
    },
    {
        "id": 53771,
        "name": "Santiago Chimaltenango",
        "state_id": 3670,
        "state_code": "13",
        "state_name": "Huehuetenango ",
        "country_id": 90,
        "country_code": "GT",
        "country_name": "Guatemala",
        "latitude": "15.47658000",
        "longitude": "-91.69656000",
        "timezone": null,
        "wikiDataId": "Q2402809"
    },
    {
        "id": 53783,
        "name": "Soloma",
        "state_id": 3670,
        "state_code": "13",
        "state_name": "Huehuetenango ",
        "country_id": 90,
        "country_code": "GT",
        "country_name": "Guatemala",
        "latitude": "15.65841000",
        "longitude": "-91.42994000",
        "timezone": null,
        "wikiDataId": "Q2402459"
    },
    {
        "id": 53791,
        "name": "Tectitán",
        "state_id": 3670,
        "state_code": "13",
        "state_name": "Huehuetenango ",
        "country_id": 90,
        "country_code": "GT",
        "country_name": "Guatemala",
        "latitude": "15.30630000",
        "longitude": "-92.06051000",
        "timezone": null,
        "wikiDataId": "Q2402198"
    },
    {
        "id": 53794,
        "name": "Todos Santos Cuchumatán",
        "state_id": 3670,
        "state_code": "13",
        "state_name": "Huehuetenango ",
        "country_id": 90,
        "country_code": "GT",
        "country_name": "Guatemala",
        "latitude": "15.50846000",
        "longitude": "-91.60382000",
        "timezone": null,
        "wikiDataId": "Q2608975"
    },
    {
        "id": 53483,
        "name": "El Estor",
        "state_id": 3659,
        "state_code": "18",
        "state_name": "Izabal ",
        "country_id": 90,
        "country_code": "GT",
        "country_name": "Guatemala",
        "latitude": "15.53333000",
        "longitude": "-89.35000000",
        "timezone": null,
        "wikiDataId": "Q1020153"
    },
    {
        "id": 53526,
        "name": "Lívingston",
        "state_id": 3659,
        "state_code": "18",
        "state_name": "Izabal ",
        "country_id": 90,
        "country_code": "GT",
        "country_name": "Guatemala",
        "latitude": "15.82826000",
        "longitude": "-88.75039000",
        "timezone": null,
        "wikiDataId": "Q1192713"
    },
    {
        "id": 53525,
        "name": "Los Amates",
        "state_id": 3659,
        "state_code": "18",
        "state_name": "Izabal ",
        "country_id": 90,
        "country_code": "GT",
        "country_name": "Guatemala",
        "latitude": "15.25645000",
        "longitude": "-89.09723000",
        "timezone": null,
        "wikiDataId": "Q1020130"
    },
    {
        "id": 53537,
        "name": "Morales",
        "state_id": 3659,
        "state_code": "18",
        "state_name": "Izabal ",
        "country_id": 90,
        "country_code": "GT",
        "country_name": "Guatemala",
        "latitude": "15.48333000",
        "longitude": "-88.81667000",
        "timezone": null,
        "wikiDataId": "Q41804"
    },
    {
        "id": 53571,
        "name": "Municipio de Morales",
        "state_id": 3659,
        "state_code": "18",
        "state_name": "Izabal ",
        "country_id": 90,
        "country_code": "GT",
        "country_name": "Guatemala",
        "latitude": "15.44494000",
        "longitude": "-88.76646000",
        "timezone": null,
        "wikiDataId": "Q2403612"
    },
    {
        "id": 53577,
        "name": "Municipio de Puerto Barrios",
        "state_id": 3659,
        "state_code": "18",
        "state_name": "Izabal ",
        "country_id": 90,
        "country_code": "GT",
        "country_name": "Guatemala",
        "latitude": "15.71754000",
        "longitude": "-88.58517000",
        "timezone": null,
        "wikiDataId": "Q2403612"
    },
    {
        "id": 53634,
        "name": "Puerto Barrios",
        "state_id": 3659,
        "state_code": "18",
        "state_name": "Izabal ",
        "country_id": 90,
        "country_code": "GT",
        "country_name": "Guatemala",
        "latitude": "15.72778000",
        "longitude": "-88.59444000",
        "timezone": null,
        "wikiDataId": "Q991400"
    },
    {
        "id": 53510,
        "name": "Jalapa",
        "state_id": 3658,
        "state_code": "21",
        "state_name": "Jalapa ",
        "country_id": 90,
        "country_code": "GT",
        "country_name": "Guatemala",
        "latitude": "14.63472000",
        "longitude": "-89.98889000",
        "timezone": null,
        "wikiDataId": "Q1023359"
    },
    {
        "id": 53531,
        "name": "Mataquescuintla",
        "state_id": 3658,
        "state_code": "21",
        "state_name": "Jalapa ",
        "country_id": 90,
        "country_code": "GT",
        "country_name": "Guatemala",
        "latitude": "14.52917000",
        "longitude": "-90.18417000",
        "timezone": null,
        "wikiDataId": "Q1749104"
    },
    {
        "id": 53536,
        "name": "Monjas",
        "state_id": 3658,
        "state_code": "21",
        "state_name": "Jalapa ",
        "country_id": 90,
        "country_code": "GT",
        "country_name": "Guatemala",
        "latitude": "14.50000000",
        "longitude": "-89.86667000",
        "timezone": null,
        "wikiDataId": "Q2608718"
    },
    {
        "id": 53564,
        "name": "Municipio de Jalapa",
        "state_id": 3658,
        "state_code": "21",
        "state_name": "Jalapa ",
        "country_id": 90,
        "country_code": "GT",
        "country_name": "Guatemala",
        "latitude": "14.63275000",
        "longitude": "-90.03301000",
        "timezone": null,
        "wikiDataId": "Q2403612"
    },
    {
        "id": 53569,
        "name": "Municipio de Mataquescuintla",
        "state_id": 3658,
        "state_code": "21",
        "state_name": "Jalapa ",
        "country_id": 90,
        "country_code": "GT",
        "country_name": "Guatemala",
        "latitude": "14.54777000",
        "longitude": "-90.20008000",
        "timezone": null,
        "wikiDataId": "Q2403612"
    },
    {
        "id": 53706,
        "name": "San Luis Jilotepeque",
        "state_id": 3658,
        "state_code": "21",
        "state_name": "Jalapa ",
        "country_id": 90,
        "country_code": "GT",
        "country_name": "Guatemala",
        "latitude": "14.65000000",
        "longitude": "-89.73333000",
        "timezone": null,
        "wikiDataId": "Q568999"
    },
    {
        "id": 53707,
        "name": "San Manuel Chaparrón",
        "state_id": 3658,
        "state_code": "21",
        "state_name": "Jalapa ",
        "country_id": 90,
        "country_code": "GT",
        "country_name": "Guatemala",
        "latitude": "14.51667000",
        "longitude": "-89.76667000",
        "timezone": null,
        "wikiDataId": "Q1749101"
    },
    {
        "id": 53728,
        "name": "San Pedro Pinula",
        "state_id": 3658,
        "state_code": "21",
        "state_name": "Jalapa ",
        "country_id": 90,
        "country_code": "GT",
        "country_name": "Guatemala",
        "latitude": "14.66667000",
        "longitude": "-89.85000000",
        "timezone": null,
        "wikiDataId": "Q739778"
    },
    {
        "id": 53426,
        "name": "Agua Blanca",
        "state_id": 3673,
        "state_code": "22",
        "state_name": "Jutiapa ",
        "country_id": 90,
        "country_code": "GT",
        "country_name": "Guatemala",
        "latitude": "14.50000000",
        "longitude": "-89.65000000",
        "timezone": null,
        "wikiDataId": "Q2403493"
    },
    {
        "id": 53432,
        "name": "Asunción Mita",
        "state_id": 3673,
        "state_code": "22",
        "state_name": "Jutiapa ",
        "country_id": 90,
        "country_code": "GT",
        "country_name": "Guatemala",
        "latitude": "14.33083000",
        "longitude": "-89.71083000",
        "timezone": null,
        "wikiDataId": "Q2608750"
    },
    {
        "id": 53433,
        "name": "Atescatempa",
        "state_id": 3673,
        "state_code": "22",
        "state_name": "Jutiapa ",
        "country_id": 90,
        "country_code": "GT",
        "country_name": "Guatemala",
        "latitude": "14.17444000",
        "longitude": "-89.74250000",
        "timezone": null,
        "wikiDataId": "Q2403627"
    },
    {
        "id": 53466,
        "name": "Comapa",
        "state_id": 3673,
        "state_code": "22",
        "state_name": "Jutiapa ",
        "country_id": 90,
        "country_code": "GT",
        "country_name": "Guatemala",
        "latitude": "14.11667000",
        "longitude": "-89.91667000",
        "timezone": null,
        "wikiDataId": "Q2716888"
    },
    {
        "id": 53473,
        "name": "Conguaco",
        "state_id": 3673,
        "state_code": "22",
        "state_name": "Jutiapa ",
        "country_id": 90,
        "country_code": "GT",
        "country_name": "Guatemala",
        "latitude": "14.04417000",
        "longitude": "-90.03111000",
        "timezone": null,
        "wikiDataId": "Q2403007"
    },
    {
        "id": 53480,
        "name": "El Adelanto",
        "state_id": 3673,
        "state_code": "22",
        "state_name": "Jutiapa ",
        "country_id": 90,
        "country_code": "GT",
        "country_name": "Guatemala",
        "latitude": "14.16667000",
        "longitude": "-89.83333000",
        "timezone": null,
        "wikiDataId": "Q989812"
    },
    {
        "id": 53486,
        "name": "El Progreso",
        "state_id": 3673,
        "state_code": "22",
        "state_name": "Jutiapa ",
        "country_id": 90,
        "country_code": "GT",
        "country_name": "Guatemala",
        "latitude": "14.35000000",
        "longitude": "-89.85000000",
        "timezone": null,
        "wikiDataId": "Q686756"
    },
    {
        "id": 53511,
        "name": "Jalpatagua",
        "state_id": 3673,
        "state_code": "22",
        "state_name": "Jutiapa ",
        "country_id": 90,
        "country_code": "GT",
        "country_name": "Guatemala",
        "latitude": "14.14167000",
        "longitude": "-90.00861000",
        "timezone": null,
        "wikiDataId": "Q676590"
    },
    {
        "id": 53512,
        "name": "Jerez",
        "state_id": 3673,
        "state_code": "22",
        "state_name": "Jutiapa ",
        "country_id": 90,
        "country_code": "GT",
        "country_name": "Guatemala",
        "latitude": "14.10000000",
        "longitude": "-89.75000000",
        "timezone": null,
        "wikiDataId": "Q1749094"
    },
    {
        "id": 53516,
        "name": "Jutiapa",
        "state_id": 3673,
        "state_code": "22",
        "state_name": "Jutiapa ",
        "country_id": 90,
        "country_code": "GT",
        "country_name": "Guatemala",
        "latitude": "14.29167000",
        "longitude": "-89.89583000",
        "timezone": null,
        "wikiDataId": "Q2401953"
    },
    {
        "id": 53539,
        "name": "Moyuta",
        "state_id": 3673,
        "state_code": "22",
        "state_name": "Jutiapa ",
        "country_id": 90,
        "country_code": "GT",
        "country_name": "Guatemala",
        "latitude": "14.03861000",
        "longitude": "-90.08083000",
        "timezone": null,
        "wikiDataId": "Q2403612"
    },
    {
        "id": 53543,
        "name": "Municipio de Asunción Mita",
        "state_id": 3673,
        "state_code": "22",
        "state_name": "Jutiapa ",
        "country_id": 90,
        "country_code": "GT",
        "country_name": "Guatemala",
        "latitude": "14.30330000",
        "longitude": "-89.67623000",
        "timezone": null,
        "wikiDataId": "Q2403612"
    },
    {
        "id": 53622,
        "name": "Pasaco",
        "state_id": 3673,
        "state_code": "22",
        "state_name": "Jutiapa ",
        "country_id": 90,
        "country_code": "GT",
        "country_name": "Guatemala",
        "latitude": "13.97722000",
        "longitude": "-90.20639000",
        "timezone": null,
        "wikiDataId": "Q371987"
    },
    {
        "id": 53637,
        "name": "Quesada",
        "state_id": 3673,
        "state_code": "22",
        "state_name": "Jutiapa ",
        "country_id": 90,
        "country_code": "GT",
        "country_name": "Guatemala",
        "latitude": "14.27028000",
        "longitude": "-90.04028000",
        "timezone": null,
        "wikiDataId": "Q536249"
    },
    {
        "id": 53682,
        "name": "San José Acatempa",
        "state_id": 3673,
        "state_code": "22",
        "state_name": "Jutiapa ",
        "country_id": 90,
        "country_code": "GT",
        "country_name": "Guatemala",
        "latitude": "14.26528000",
        "longitude": "-90.12694000",
        "timezone": null,
        "wikiDataId": "Q2403022"
    },
    {
        "id": 53750,
        "name": "Santa Catarina Mita",
        "state_id": 3673,
        "state_code": "22",
        "state_name": "Jutiapa ",
        "country_id": 90,
        "country_code": "GT",
        "country_name": "Guatemala",
        "latitude": "14.45000000",
        "longitude": "-89.75000000",
        "timezone": null,
        "wikiDataId": "Q1748953"
    },
    {
        "id": 53801,
        "name": "Yupiltepeque",
        "state_id": 3673,
        "state_code": "22",
        "state_name": "Jutiapa ",
        "country_id": 90,
        "country_code": "GT",
        "country_name": "Guatemala",
        "latitude": "14.20000000",
        "longitude": "-89.78333000",
        "timezone": null,
        "wikiDataId": "Q1749697"
    },
    {
        "id": 53803,
        "name": "Zapotitlán",
        "state_id": 3673,
        "state_code": "22",
        "state_name": "Jutiapa ",
        "country_id": 90,
        "country_code": "GT",
        "country_name": "Guatemala",
        "latitude": "14.13333000",
        "longitude": "-89.83333000",
        "timezone": null,
        "wikiDataId": "Q2723903"
    },
    {
        "id": 53479,
        "name": "Dolores",
        "state_id": 3669,
        "state_code": "17",
        "state_name": "Petén ",
        "country_id": 90,
        "country_code": "GT",
        "country_name": "Guatemala",
        "latitude": "16.51178000",
        "longitude": "-89.41704000",
        "timezone": null,
        "wikiDataId": "Q989812"
    },
    {
        "id": 53494,
        "name": "Flores",
        "state_id": 3669,
        "state_code": "17",
        "state_name": "Petén ",
        "country_id": 90,
        "country_code": "GT",
        "country_name": "Guatemala",
        "latitude": "16.92258000",
        "longitude": "-89.89941000",
        "timezone": null,
        "wikiDataId": "Q679383"
    },
    {
        "id": 53520,
        "name": "La Libertad",
        "state_id": 3669,
        "state_code": "17",
        "state_name": "Petén ",
        "country_id": 90,
        "country_code": "GT",
        "country_name": "Guatemala",
        "latitude": "16.78850000",
        "longitude": "-90.11698000",
        "timezone": null,
        "wikiDataId": "Q164481"
    },
    {
        "id": 53533,
        "name": "Melchor de Mencos",
        "state_id": 3669,
        "state_code": "17",
        "state_name": "Petén ",
        "country_id": 90,
        "country_code": "GT",
        "country_name": "Guatemala",
        "latitude": "17.06606000",
        "longitude": "-89.15229000",
        "timezone": null,
        "wikiDataId": "Q599455"
    },
    {
        "id": 53560,
        "name": "Municipio de Flores",
        "state_id": 3669,
        "state_code": "17",
        "state_name": "Petén ",
        "country_id": 90,
        "country_code": "GT",
        "country_name": "Guatemala",
        "latitude": "16.92381000",
        "longitude": "-89.89709000",
        "timezone": null,
        "wikiDataId": "Q2403612"
    },
    {
        "id": 53576,
        "name": "Municipio de Poptún",
        "state_id": 3669,
        "state_code": "17",
        "state_name": "Petén ",
        "country_id": 90,
        "country_code": "GT",
        "country_name": "Guatemala",
        "latitude": "16.35687000",
        "longitude": "-89.58912000",
        "timezone": null,
        "wikiDataId": "Q2403612"
    },
    {
        "id": 53578,
        "name": "Municipio de San Andrés",
        "state_id": 3669,
        "state_code": "17",
        "state_name": "Petén ",
        "country_id": 90,
        "country_code": "GT",
        "country_name": "Guatemala",
        "latitude": "17.49541000",
        "longitude": "-90.39883000",
        "timezone": null,
        "wikiDataId": "Q2403612"
    },
    {
        "id": 53582,
        "name": "Municipio de San Benito",
        "state_id": 3669,
        "state_code": "17",
        "state_name": "Petén ",
        "country_id": 90,
        "country_code": "GT",
        "country_name": "Guatemala",
        "latitude": "16.91289000",
        "longitude": "-89.90979000",
        "timezone": null,
        "wikiDataId": "Q2403612"
    },
    {
        "id": 53584,
        "name": "Municipio de San Francisco",
        "state_id": 3669,
        "state_code": "17",
        "state_name": "Petén ",
        "country_id": 90,
        "country_code": "GT",
        "country_name": "Guatemala",
        "latitude": "16.72425000",
        "longitude": "-89.90877000",
        "timezone": null,
        "wikiDataId": "Q2403612"
    },
    {
        "id": 53589,
        "name": "Municipio de Santa Ana",
        "state_id": 3669,
        "state_code": "17",
        "state_name": "Petén ",
        "country_id": 90,
        "country_code": "GT",
        "country_name": "Guatemala",
        "latitude": "16.77305000",
        "longitude": "-89.66878000",
        "timezone": null,
        "wikiDataId": "Q25175887"
    },
    {
        "id": 53596,
        "name": "Municipio de Sayaxché",
        "state_id": 3669,
        "state_code": "17",
        "state_name": "Petén ",
        "country_id": 90,
        "country_code": "GT",
        "country_name": "Guatemala",
        "latitude": "16.33160000",
        "longitude": "-90.16339000",
        "timezone": null,
        "wikiDataId": "Q119252"
    },
    {
        "id": 53631,
        "name": "Poptún",
        "state_id": 3669,
        "state_code": "17",
        "state_name": "Petén ",
        "country_id": 90,
        "country_code": "GT",
        "country_name": "Guatemala",
        "latitude": "16.33111000",
        "longitude": "-89.41694000",
        "timezone": null,
        "wikiDataId": "Q385588"
    },
    {
        "id": 53649,
        "name": "San Andrés",
        "state_id": 3669,
        "state_code": "17",
        "state_name": "Petén ",
        "country_id": 90,
        "country_code": "GT",
        "country_name": "Guatemala",
        "latitude": "16.96667000",
        "longitude": "-89.91667000",
        "timezone": null,
        "wikiDataId": "Q1005008"
    },
    {
        "id": 53665,
        "name": "San Benito",
        "state_id": 3669,
        "state_code": "17",
        "state_name": "Petén ",
        "country_id": 90,
        "country_code": "GT",
        "country_name": "Guatemala",
        "latitude": "16.91675000",
        "longitude": "-89.91898000",
        "timezone": null,
        "wikiDataId": "Q1113394"
    },
    {
        "id": 53673,
        "name": "San Francisco",
        "state_id": 3669,
        "state_code": "17",
        "state_name": "Petén ",
        "country_id": 90,
        "country_code": "GT",
        "country_name": "Guatemala",
        "latitude": "16.80000000",
        "longitude": "-89.93333000",
        "timezone": null,
        "wikiDataId": "Q796492"
    },
    {
        "id": 53681,
        "name": "San José",
        "state_id": 3669,
        "state_code": "17",
        "state_name": "Petén ",
        "country_id": 90,
        "country_code": "GT",
        "country_name": "Guatemala",
        "latitude": "16.98333000",
        "longitude": "-89.90000000",
        "timezone": null,
        "wikiDataId": "Q741169"
    },
    {
        "id": 53704,
        "name": "San Luis",
        "state_id": 3669,
        "state_code": "17",
        "state_name": "Petén ",
        "country_id": 90,
        "country_code": "GT",
        "country_name": "Guatemala",
        "latitude": "16.19889000",
        "longitude": "-89.44028000",
        "timezone": null,
        "wikiDataId": "Q1020572"
    },
    {
        "id": 53743,
        "name": "Santa Ana",
        "state_id": 3669,
        "state_code": "17",
        "state_name": "Petén ",
        "country_id": 90,
        "country_code": "GT",
        "country_name": "Guatemala",
        "latitude": "16.80000000",
        "longitude": "-89.83333000",
        "timezone": null,
        "wikiDataId": "Q1005733"
    },
    {
        "id": 53776,
        "name": "Sayaxché",
        "state_id": 3669,
        "state_code": "17",
        "state_name": "Petén ",
        "country_id": 90,
        "country_code": "GT",
        "country_name": "Guatemala",
        "latitude": "16.52446000",
        "longitude": "-90.18801000",
        "timezone": null,
        "wikiDataId": "Q796634"
    },
    {
        "id": 53428,
        "name": "Almolonga",
        "state_id": 3668,
        "state_code": "09",
        "state_name": "Quetzaltenango ",
        "country_id": 90,
        "country_code": "GT",
        "country_name": "Guatemala",
        "latitude": "14.81591000",
        "longitude": "-91.49464000",
        "timezone": null,
        "wikiDataId": "Q284830"
    },
    {
        "id": 53436,
        "name": "Cabricán",
        "state_id": 3668,
        "state_code": "09",
        "state_name": "Quetzaltenango ",
        "country_id": 90,
        "country_code": "GT",
        "country_name": "Guatemala",
        "latitude": "15.07485000",
        "longitude": "-91.64800000",
        "timezone": null,
        "wikiDataId": "Q2403031"
    },
    {
        "id": 53438,
        "name": "Cajolá",
        "state_id": 3668,
        "state_code": "09",
        "state_name": "Quetzaltenango ",
        "country_id": 90,
        "country_code": "GT",
        "country_name": "Guatemala",
        "latitude": "14.92205000",
        "longitude": "-91.61478000",
        "timezone": null,
        "wikiDataId": "Q388686"
    },
    {
        "id": 53441,
        "name": "Cantel",
        "state_id": 3668,
        "state_code": "09",
        "state_name": "Quetzaltenango ",
        "country_id": 90,
        "country_code": "GT",
        "country_name": "Guatemala",
        "latitude": "14.81154000",
        "longitude": "-91.45536000",
        "timezone": null,
        "wikiDataId": "Q2548726"
    },
    {
        "id": 53461,
        "name": "Coatepeque",
        "state_id": 3668,
        "state_code": "09",
        "state_name": "Quetzaltenango ",
        "country_id": 90,
        "country_code": "GT",
        "country_name": "Guatemala",
        "latitude": "14.70413000",
        "longitude": "-91.86426000",
        "timezone": null,
        "wikiDataId": "Q2445821"
    },
    {
        "id": 53463,
        "name": "Colomba",
        "state_id": 3668,
        "state_code": "09",
        "state_name": "Quetzaltenango ",
        "country_id": 90,
        "country_code": "GT",
        "country_name": "Guatemala",
        "latitude": "14.70730000",
        "longitude": "-91.73167000",
        "timezone": null,
        "wikiDataId": "Q2426806"
    },
    {
        "id": 53469,
        "name": "Concepción Chiquirichapa",
        "state_id": 3668,
        "state_code": "09",
        "state_name": "Quetzaltenango ",
        "country_id": 90,
        "country_code": "GT",
        "country_name": "Guatemala",
        "latitude": "14.85510000",
        "longitude": "-91.62360000",
        "timezone": null,
        "wikiDataId": "Q2401883"
    },
    {
        "id": 53485,
        "name": "El Palmar",
        "state_id": 3668,
        "state_code": "09",
        "state_name": "Quetzaltenango ",
        "country_id": 90,
        "country_code": "GT",
        "country_name": "Guatemala",
        "latitude": "14.65083000",
        "longitude": "-91.57800000",
        "timezone": null,
        "wikiDataId": "Q2717583"
    },
    {
        "id": 53495,
        "name": "Flores Costa Cuca",
        "state_id": 3668,
        "state_code": "09",
        "state_name": "Quetzaltenango ",
        "country_id": 90,
        "country_code": "GT",
        "country_name": "Guatemala",
        "latitude": "14.65606050",
        "longitude": "-91.82562770",
        "timezone": null,
        "wikiDataId": "Q1981317"
    },
    {
        "id": 53502,
        "name": "Génova",
        "state_id": 3668,
        "state_code": "09",
        "state_name": "Quetzaltenango ",
        "country_id": 90,
        "country_code": "GT",
        "country_name": "Guatemala",
        "latitude": "14.61667000",
        "longitude": "-91.83333000",
        "timezone": null,
        "wikiDataId": "Q3123016"
    },
    {
        "id": 53504,
        "name": "Huitán",
        "state_id": 3668,
        "state_code": "09",
        "state_name": "Quetzaltenango ",
        "country_id": 90,
        "country_code": "GT",
        "country_name": "Guatemala",
        "latitude": "15.04920000",
        "longitude": "-91.63944000",
        "timezone": null,
        "wikiDataId": "Q1748611"
    },
    {
        "id": 53518,
        "name": "La Esperanza",
        "state_id": 3668,
        "state_code": "09",
        "state_name": "Quetzaltenango ",
        "country_id": 90,
        "country_code": "GT",
        "country_name": "Guatemala",
        "latitude": "14.87169000",
        "longitude": "-91.56140000",
        "timezone": null,
        "wikiDataId": "Q2608447"
    },
    {
        "id": 53540,
        "name": "Municipio de Almolonga",
        "state_id": 3668,
        "state_code": "09",
        "state_name": "Quetzaltenango ",
        "country_id": 90,
        "country_code": "GT",
        "country_name": "Guatemala",
        "latitude": "14.81118000",
        "longitude": "-91.48354000",
        "timezone": null,
        "wikiDataId": "Q2403612"
    },
    {
        "id": 53544,
        "name": "Municipio de Cabricán",
        "state_id": 3668,
        "state_code": "09",
        "state_name": "Quetzaltenango ",
        "country_id": 90,
        "country_code": "GT",
        "country_name": "Guatemala",
        "latitude": "15.10305000",
        "longitude": "-91.64918000",
        "timezone": null,
        "wikiDataId": "Q2403612"
    },
    {
        "id": 53546,
        "name": "Municipio de Cantel",
        "state_id": 3668,
        "state_code": "09",
        "state_name": "Quetzaltenango ",
        "country_id": 90,
        "country_code": "GT",
        "country_name": "Guatemala",
        "latitude": "14.81659000",
        "longitude": "-91.43781000",
        "timezone": null,
        "wikiDataId": "Q2403612"
    },
    {
        "id": 53555,
        "name": "Municipio de Coatepeque",
        "state_id": 3668,
        "state_code": "09",
        "state_name": "Quetzaltenango ",
        "country_id": 90,
        "country_code": "GT",
        "country_name": "Guatemala",
        "latitude": "14.64309000",
        "longitude": "-91.97926000",
        "timezone": null,
        "wikiDataId": "Q2403612"
    },
    {
        "id": 53556,
        "name": "Municipio de Colomba",
        "state_id": 3668,
        "state_code": "09",
        "state_name": "Quetzaltenango ",
        "country_id": 90,
        "country_code": "GT",
        "country_name": "Guatemala",
        "latitude": "14.71002000",
        "longitude": "-91.74691000",
        "timezone": null,
        "wikiDataId": "Q2403612"
    },
    {
        "id": 53557,
        "name": "Municipio de Concepción Chiquirichapa",
        "state_id": 3668,
        "state_code": "09",
        "state_name": "Quetzaltenango ",
        "country_id": 90,
        "country_code": "GT",
        "country_name": "Guatemala",
        "latitude": "14.84624000",
        "longitude": "-91.61854000",
        "timezone": null,
        "wikiDataId": "Q2403612"
    },
    {
        "id": 53561,
        "name": "Municipio de Flores Costa Cuca",
        "state_id": 3668,
        "state_code": "09",
        "state_name": "Quetzaltenango ",
        "country_id": 90,
        "country_code": "GT",
        "country_name": "Guatemala",
        "latitude": "14.63238000",
        "longitude": "-91.86341000",
        "timezone": null,
        "wikiDataId": "Q2403612"
    },
    {
        "id": 53586,
        "name": "Municipio de San Juan Ostuncalco",
        "state_id": 3668,
        "state_code": "09",
        "state_name": "Quetzaltenango ",
        "country_id": 90,
        "country_code": "GT",
        "country_name": "Guatemala",
        "latitude": "14.87477000",
        "longitude": "-91.68842000",
        "timezone": null,
        "wikiDataId": "Q2403612"
    },
    {
        "id": 53610,
        "name": "Olintepeque",
        "state_id": 3668,
        "state_code": "09",
        "state_name": "Quetzaltenango ",
        "country_id": 90,
        "country_code": "GT",
        "country_name": "Guatemala",
        "latitude": "14.88605000",
        "longitude": "-91.51472000",
        "timezone": null,
        "wikiDataId": "Q2608428"
    },
    {
        "id": 53613,
        "name": "Ostuncalco",
        "state_id": 3668,
        "state_code": "09",
        "state_name": "Quetzaltenango ",
        "country_id": 90,
        "country_code": "GT",
        "country_name": "Guatemala",
        "latitude": "14.86899000",
        "longitude": "-91.62137000",
        "timezone": null,
        "wikiDataId": "Q2718157"
    },
    {
        "id": 53617,
        "name": "Palestina de los Altos",
        "state_id": 3668,
        "state_code": "09",
        "state_name": "Quetzaltenango ",
        "country_id": 90,
        "country_code": "GT",
        "country_name": "Guatemala",
        "latitude": "14.93338000",
        "longitude": "-91.69403000",
        "timezone": null,
        "wikiDataId": "Q2402624"
    },
    {
        "id": 53638,
        "name": "Quetzaltenango",
        "state_id": 3668,
        "state_code": "09",
        "state_name": "Quetzaltenango ",
        "country_id": 90,
        "country_code": "GT",
        "country_name": "Guatemala",
        "latitude": "14.83472000",
        "longitude": "-91.51806000",
        "timezone": null,
        "wikiDataId": "Q334577"
    },
    {
        "id": 53646,
        "name": "Salcajá",
        "state_id": 3668,
        "state_code": "09",
        "state_name": "Quetzaltenango ",
        "country_id": 90,
        "country_code": "GT",
        "country_name": "Guatemala",
        "latitude": "14.87964000",
        "longitude": "-91.45699000",
        "timezone": null,
        "wikiDataId": "Q2717997"
    },
    {
        "id": 53647,
        "name": "Samayac",
        "state_id": 3668,
        "state_code": "09",
        "state_name": "Quetzaltenango ",
        "country_id": 90,
        "country_code": "GT",
        "country_name": "Guatemala",
        "latitude": "14.58084000",
        "longitude": "-91.46135000",
        "timezone": null,
        "wikiDataId": "Q371216"
    },
    {
        "id": 53667,
        "name": "San Carlos Sija",
        "state_id": 3668,
        "state_code": "09",
        "state_name": "Quetzaltenango ",
        "country_id": 90,
        "country_code": "GT",
        "country_name": "Guatemala",
        "latitude": "14.98436000",
        "longitude": "-91.54912000",
        "timezone": null,
        "wikiDataId": "Q2609256"
    },
    {
        "id": 53676,
        "name": "San Francisco la Unión",
        "state_id": 3668,
        "state_code": "09",
        "state_name": "Quetzaltenango ",
        "country_id": 90,
        "country_code": "GT",
        "country_name": "Guatemala",
        "latitude": "14.92350000",
        "longitude": "-91.54157000",
        "timezone": null,
        "wikiDataId": "Q2402566"
    },
    {
        "id": 53711,
        "name": "San Martín Sacatepéquez",
        "state_id": 3668,
        "state_code": "09",
        "state_name": "Quetzaltenango ",
        "country_id": 90,
        "country_code": "GT",
        "country_name": "Guatemala",
        "latitude": "14.82443000",
        "longitude": "-91.64192000",
        "timezone": null,
        "wikiDataId": "Q2402153"
    },
    {
        "id": 53713,
        "name": "San Mateo",
        "state_id": 3668,
        "state_code": "09",
        "state_name": "Quetzaltenango ",
        "country_id": 90,
        "country_code": "GT",
        "country_name": "Guatemala",
        "latitude": "14.85800000",
        "longitude": "-91.59004000",
        "timezone": null,
        "wikiDataId": "Q938168"
    },
    {
        "id": 53720,
        "name": "San Miguel Sigüilá",
        "state_id": 3668,
        "state_code": "09",
        "state_name": "Quetzaltenango ",
        "country_id": 90,
        "country_code": "GT",
        "country_name": "Guatemala",
        "latitude": "14.89547000",
        "longitude": "-91.61457000",
        "timezone": null,
        "wikiDataId": "Q2401933"
    },
    {
        "id": 53778,
        "name": "Sibilia",
        "state_id": 3668,
        "state_code": "09",
        "state_name": "Quetzaltenango ",
        "country_id": 90,
        "country_code": "GT",
        "country_name": "Guatemala",
        "latitude": "14.99391000",
        "longitude": "-91.62371000",
        "timezone": null,
        "wikiDataId": "Q2402599"
    },
    {
        "id": 53805,
        "name": "Zunil",
        "state_id": 3668,
        "state_code": "09",
        "state_name": "Quetzaltenango ",
        "country_id": 90,
        "country_code": "GT",
        "country_name": "Guatemala",
        "latitude": "14.78463000",
        "longitude": "-91.48345000",
        "timezone": null,
        "wikiDataId": "Q230166"
    },
    {
        "id": 53440,
        "name": "Canillá",
        "state_id": 3657,
        "state_code": "14",
        "state_name": "Quiché ",
        "country_id": 90,
        "country_code": "GT",
        "country_name": "Guatemala",
        "latitude": "15.16549000",
        "longitude": "-90.85256000",
        "timezone": null,
        "wikiDataId": "Q2609266"
    },
    {
        "id": 53445,
        "name": "Chajul",
        "state_id": 3657,
        "state_code": "14",
        "state_name": "Quiché ",
        "country_id": 90,
        "country_code": "GT",
        "country_name": "Guatemala",
        "latitude": "15.48523000",
        "longitude": "-91.03520000",
        "timezone": null,
        "wikiDataId": "Q2717716"
    },
    {
        "id": 53449,
        "name": "Chicamán",
        "state_id": 3657,
        "state_code": "14",
        "state_name": "Quiché ",
        "country_id": 90,
        "country_code": "GT",
        "country_name": "Guatemala",
        "latitude": "15.34786000",
        "longitude": "-90.79968000",
        "timezone": null,
        "wikiDataId": "Q2402199"
    },
    {
        "id": 53451,
        "name": "Chiché",
        "state_id": 3657,
        "state_code": "14",
        "state_name": "Quiché ",
        "country_id": 90,
        "country_code": "GT",
        "country_name": "Guatemala",
        "latitude": "15.00885000",
        "longitude": "-91.06379000",
        "timezone": null,
        "wikiDataId": "Q3177464"
    },
    {
        "id": 53450,
        "name": "Chichicastenango",
        "state_id": 3657,
        "state_code": "14",
        "state_name": "Quiché ",
        "country_id": 90,
        "country_code": "GT",
        "country_name": "Guatemala",
        "latitude": "14.94333000",
        "longitude": "-91.11116000",
        "timezone": null,
        "wikiDataId": "Q603423"
    },
    {
        "id": 53454,
        "name": "Chinique",
        "state_id": 3657,
        "state_code": "14",
        "state_name": "Quiché ",
        "country_id": 90,
        "country_code": "GT",
        "country_name": "Guatemala",
        "latitude": "15.04147000",
        "longitude": "-91.02594000",
        "timezone": null,
        "wikiDataId": "Q1025536"
    },
    {
        "id": 53477,
        "name": "Cunén",
        "state_id": 3657,
        "state_code": "14",
        "state_name": "Quiché ",
        "country_id": 90,
        "country_code": "GT",
        "country_name": "Guatemala",
        "latitude": "15.33626000",
        "longitude": "-91.02776000",
        "timezone": null,
        "wikiDataId": "Q2402499"
    },
    {
        "id": 53515,
        "name": "Joyabaj",
        "state_id": 3657,
        "state_code": "14",
        "state_name": "Quiché ",
        "country_id": 90,
        "country_code": "GT",
        "country_name": "Guatemala",
        "latitude": "14.99311000",
        "longitude": "-90.80161000",
        "timezone": null,
        "wikiDataId": "Q2401953"
    },
    {
        "id": 53545,
        "name": "Municipio de Canillá",
        "state_id": 3657,
        "state_code": "14",
        "state_name": "Quiché ",
        "country_id": 90,
        "country_code": "GT",
        "country_name": "Guatemala",
        "latitude": "15.19546000",
        "longitude": "-90.85970000",
        "timezone": null,
        "wikiDataId": "Q2403612"
    },
    {
        "id": 53548,
        "name": "Municipio de Chajul",
        "state_id": 3657,
        "state_code": "14",
        "state_name": "Quiché ",
        "country_id": 90,
        "country_code": "GT",
        "country_name": "Guatemala",
        "latitude": "15.48710000",
        "longitude": "-91.03786000",
        "timezone": null,
        "wikiDataId": "Q2403612"
    },
    {
        "id": 53549,
        "name": "Municipio de Chicaman",
        "state_id": 3657,
        "state_code": "14",
        "state_name": "Quiché ",
        "country_id": 90,
        "country_code": "GT",
        "country_name": "Guatemala",
        "latitude": "15.34833000",
        "longitude": "-90.79944000",
        "timezone": null,
        "wikiDataId": "Q2403612"
    },
    {
        "id": 53551,
        "name": "Municipio de Chiché",
        "state_id": 3657,
        "state_code": "14",
        "state_name": "Quiché ",
        "country_id": 90,
        "country_code": "GT",
        "country_name": "Guatemala",
        "latitude": "15.01196000",
        "longitude": "-91.03836000",
        "timezone": null,
        "wikiDataId": "Q2403612"
    },
    {
        "id": 53550,
        "name": "Municipio de Chichicastenango",
        "state_id": 3657,
        "state_code": "14",
        "state_name": "Quiché ",
        "country_id": 90,
        "country_code": "GT",
        "country_name": "Guatemala",
        "latitude": "14.89203000",
        "longitude": "-91.08808000",
        "timezone": null,
        "wikiDataId": "Q2403612"
    },
    {
        "id": 53552,
        "name": "Municipio de Chinique",
        "state_id": 3657,
        "state_code": "14",
        "state_name": "Quiché ",
        "country_id": 90,
        "country_code": "GT",
        "country_name": "Guatemala",
        "latitude": "15.06947000",
        "longitude": "-91.01803000",
        "timezone": null,
        "wikiDataId": "Q2403612"
    },
    {
        "id": 53559,
        "name": "Municipio de Cunén",
        "state_id": 3657,
        "state_code": "14",
        "state_name": "Quiché ",
        "country_id": 90,
        "country_code": "GT",
        "country_name": "Guatemala",
        "latitude": "15.36312000",
        "longitude": "-91.01889000",
        "timezone": null,
        "wikiDataId": "Q2403612"
    },
    {
        "id": 53563,
        "name": "Municipio de Ixcan",
        "state_id": 3657,
        "state_code": "14",
        "state_name": "Quiché ",
        "country_id": 90,
        "country_code": "GT",
        "country_name": "Guatemala",
        "latitude": "15.98333000",
        "longitude": "-90.76667000",
        "timezone": null,
        "wikiDataId": "Q2403612"
    },
    {
        "id": 53566,
        "name": "Municipio de Joyabaj",
        "state_id": 3657,
        "state_code": "14",
        "state_name": "Quiché ",
        "country_id": 90,
        "country_code": "GT",
        "country_name": "Guatemala",
        "latitude": "14.98073000",
        "longitude": "-90.82079000",
        "timezone": null,
        "wikiDataId": "Q2403612"
    },
    {
        "id": 53573,
        "name": "Municipio de Pachalum",
        "state_id": 3657,
        "state_code": "14",
        "state_name": "Quiché ",
        "country_id": 90,
        "country_code": "GT",
        "country_name": "Guatemala",
        "latitude": "14.91798000",
        "longitude": "-90.65443000",
        "timezone": null,
        "wikiDataId": "Q2403612"
    },
    {
        "id": 53575,
        "name": "Municipio de Patzité",
        "state_id": 3657,
        "state_code": "14",
        "state_name": "Quiché ",
        "country_id": 90,
        "country_code": "GT",
        "country_name": "Guatemala",
        "latitude": "14.97097000",
        "longitude": "-91.19722000",
        "timezone": null,
        "wikiDataId": "Q2403612"
    },
    {
        "id": 53579,
        "name": "Municipio de San Andrés Sajcabajá",
        "state_id": 3657,
        "state_code": "14",
        "state_name": "Quiché ",
        "country_id": 90,
        "country_code": "GT",
        "country_name": "Guatemala",
        "latitude": "15.22527000",
        "longitude": "-90.93018000",
        "timezone": null,
        "wikiDataId": "Q2403612"
    },
    {
        "id": 53580,
        "name": "Municipio de San Antonio Ilotenango",
        "state_id": 3657,
        "state_code": "14",
        "state_name": "Quiché ",
        "country_id": 90,
        "country_code": "GT",
        "country_name": "Guatemala",
        "latitude": "15.04898000",
        "longitude": "-91.20872000",
        "timezone": null,
        "wikiDataId": "Q2403612"
    },
    {
        "id": 53585,
        "name": "Municipio de San Juan Cotzal",
        "state_id": 3657,
        "state_code": "14",
        "state_name": "Quiché ",
        "country_id": 90,
        "country_code": "GT",
        "country_name": "Guatemala",
        "latitude": "15.42699000",
        "longitude": "-91.02097000",
        "timezone": null,
        "wikiDataId": "Q2403612"
    },
    {
        "id": 53588,
        "name": "Municipio de San Pedro Jocopilas",
        "state_id": 3657,
        "state_code": "14",
        "state_name": "Quiché ",
        "country_id": 90,
        "country_code": "GT",
        "country_name": "Guatemala",
        "latitude": "15.15472000",
        "longitude": "-91.15610000",
        "timezone": null,
        "wikiDataId": "Q2403612"
    },
    {
        "id": 53600,
        "name": "Municipio de Uspantán",
        "state_id": 3657,
        "state_code": "14",
        "state_name": "Quiché ",
        "country_id": 90,
        "country_code": "GT",
        "country_name": "Guatemala",
        "latitude": "15.44393000",
        "longitude": "-90.84398000",
        "timezone": null,
        "wikiDataId": "Q119252"
    },
    {
        "id": 53601,
        "name": "Municipio de Zacualpa",
        "state_id": 3657,
        "state_code": "14",
        "state_name": "Quiché ",
        "country_id": 90,
        "country_code": "GT",
        "country_name": "Guatemala",
        "latitude": "15.09239000",
        "longitude": "-90.88514000",
        "timezone": null,
        "wikiDataId": "Q119252"
    },
    {
        "id": 53603,
        "name": "Nebaj",
        "state_id": 3657,
        "state_code": "14",
        "state_name": "Quiché ",
        "country_id": 90,
        "country_code": "GT",
        "country_name": "Guatemala",
        "latitude": "15.40614000",
        "longitude": "-91.14682000",
        "timezone": null,
        "wikiDataId": "Q3132625"
    },
    {
        "id": 53614,
        "name": "Pachalum",
        "state_id": 3657,
        "state_code": "14",
        "state_name": "Quiché ",
        "country_id": 90,
        "country_code": "GT",
        "country_name": "Guatemala",
        "latitude": "14.92472000",
        "longitude": "-90.66278000",
        "timezone": null,
        "wikiDataId": "Q2402484"
    },
    {
        "id": 53626,
        "name": "Patzité",
        "state_id": 3657,
        "state_code": "14",
        "state_name": "Quiché ",
        "country_id": 90,
        "country_code": "GT",
        "country_name": "Guatemala",
        "latitude": "14.96426000",
        "longitude": "-91.20788000",
        "timezone": null,
        "wikiDataId": "Q2402369"
    },
    {
        "id": 53629,
        "name": "Playa Grande",
        "state_id": 3657,
        "state_code": "14",
        "state_name": "Quiché ",
        "country_id": 90,
        "country_code": "GT",
        "country_name": "Guatemala",
        "latitude": "15.93333000",
        "longitude": "-90.73333000",
        "timezone": null,
        "wikiDataId": "Q2609036"
    },
    {
        "id": 53644,
        "name": "Sacapulas",
        "state_id": 3657,
        "state_code": "14",
        "state_name": "Quiché ",
        "country_id": 90,
        "country_code": "GT",
        "country_name": "Guatemala",
        "latitude": "15.28801000",
        "longitude": "-91.08914000",
        "timezone": null,
        "wikiDataId": "Q2401849"
    },
    {
        "id": 53651,
        "name": "San Andrés Sajcabajá",
        "state_id": 3657,
        "state_code": "14",
        "state_name": "Quiché ",
        "country_id": 90,
        "country_code": "GT",
        "country_name": "Guatemala",
        "latitude": "15.17603000",
        "longitude": "-90.94220000",
        "timezone": null,
        "wikiDataId": "Q2226684"
    },
    {
        "id": 53657,
        "name": "San Antonio Ilotenango",
        "state_id": 3657,
        "state_code": "14",
        "state_name": "Quiché ",
        "country_id": 90,
        "country_code": "GT",
        "country_name": "Guatemala",
        "latitude": "15.05472000",
        "longitude": "-91.22986000",
        "timezone": null,
        "wikiDataId": "Q2401893"
    },
    {
        "id": 53663,
        "name": "San Bartolomé Jocotenango",
        "state_id": 3657,
        "state_code": "14",
        "state_name": "Quiché ",
        "country_id": 90,
        "country_code": "GT",
        "country_name": "Guatemala",
        "latitude": "15.19153000",
        "longitude": "-91.07806000",
        "timezone": null,
        "wikiDataId": "Q2402363"
    },
    {
        "id": 53694,
        "name": "San Juan Cotzal",
        "state_id": 3657,
        "state_code": "14",
        "state_name": "Quiché ",
        "country_id": 90,
        "country_code": "GT",
        "country_name": "Guatemala",
        "latitude": "15.43368000",
        "longitude": "-91.03481000",
        "timezone": null,
        "wikiDataId": "Q2121567"
    },
    {
        "id": 53705,
        "name": "San Luis Ixcán",
        "state_id": 3657,
        "state_code": "14",
        "state_name": "Quiché ",
        "country_id": 90,
        "country_code": "GT",
        "country_name": "Guatemala",
        "latitude": "15.78722000",
        "longitude": "-91.09500000",
        "timezone": null,
        "wikiDataId": "Q1020572"
    },
    {
        "id": 53731,
        "name": "San Pédro Jocopilas",
        "state_id": 3657,
        "state_code": "14",
        "state_name": "Quiché ",
        "country_id": 90,
        "country_code": "GT",
        "country_name": "Guatemala",
        "latitude": "15.09525000",
        "longitude": "-91.15135000",
        "timezone": null,
        "wikiDataId": "Q2621511"
    },
    {
        "id": 53759,
        "name": "Santa Cruz del Quiché",
        "state_id": 3657,
        "state_code": "14",
        "state_name": "Quiché ",
        "country_id": 90,
        "country_code": "GT",
        "country_name": "Guatemala",
        "latitude": "15.03085000",
        "longitude": "-91.14871000",
        "timezone": null,
        "wikiDataId": "Q693140"
    },
    {
        "id": 53797,
        "name": "Uspantán",
        "state_id": 3657,
        "state_code": "14",
        "state_name": "Quiché ",
        "country_id": 90,
        "country_code": "GT",
        "country_name": "Guatemala",
        "latitude": "15.34672000",
        "longitude": "-90.87050000",
        "timezone": null,
        "wikiDataId": "Q2621539"
    },
    {
        "id": 53802,
        "name": "Zacualpa",
        "state_id": 3657,
        "state_code": "14",
        "state_name": "Quiché ",
        "country_id": 90,
        "country_code": "GT",
        "country_name": "Guatemala",
        "latitude": "15.02681000",
        "longitude": "-90.87815000",
        "timezone": null,
        "wikiDataId": "Q2723903"
    },
    {
        "id": 53446,
        "name": "Champerico",
        "state_id": 3664,
        "state_code": "11",
        "state_name": "Retalhuleu ",
        "country_id": 90,
        "country_code": "GT",
        "country_name": "Guatemala",
        "latitude": "14.29337000",
        "longitude": "-91.91214000",
        "timezone": null,
        "wikiDataId": "Q958349"
    },
    {
        "id": 53481,
        "name": "El Asintal",
        "state_id": 3664,
        "state_code": "11",
        "state_name": "Retalhuleu ",
        "country_id": 90,
        "country_code": "GT",
        "country_name": "Guatemala",
        "latitude": "14.59626000",
        "longitude": "-91.72744000",
        "timezone": null,
        "wikiDataId": "Q2402509"
    },
    {
        "id": 53583,
        "name": "Municipio de San Felipe",
        "state_id": 3664,
        "state_code": "11",
        "state_name": "Retalhuleu ",
        "country_id": 90,
        "country_code": "GT",
        "country_name": "Guatemala",
        "latitude": "14.63009000",
        "longitude": "-91.60261000",
        "timezone": null,
        "wikiDataId": "Q2403612"
    },
    {
        "id": 53608,
        "name": "Nuevo San Carlos",
        "state_id": 3664,
        "state_code": "11",
        "state_name": "Retalhuleu ",
        "country_id": 90,
        "country_code": "GT",
        "country_name": "Guatemala",
        "latitude": "14.59300000",
        "longitude": "-91.69390000",
        "timezone": null,
        "wikiDataId": "Q2608234"
    },
    {
        "id": 53641,
        "name": "Retalhuleu",
        "state_id": 3664,
        "state_code": "11",
        "state_name": "Retalhuleu ",
        "country_id": 90,
        "country_code": "GT",
        "country_name": "Guatemala",
        "latitude": "14.53611000",
        "longitude": "-91.67778000",
        "timezone": null,
        "wikiDataId": "Q1246149"
    },
    {
        "id": 53653,
        "name": "San Andrés Villa Seca",
        "state_id": 3664,
        "state_code": "11",
        "state_name": "Retalhuleu ",
        "country_id": 90,
        "country_code": "GT",
        "country_name": "Guatemala",
        "latitude": "14.57801000",
        "longitude": "-91.58539000",
        "timezone": null,
        "wikiDataId": "Q2401685"
    },
    {
        "id": 53672,
        "name": "San Felipe",
        "state_id": 3664,
        "state_code": "11",
        "state_name": "Retalhuleu ",
        "country_id": 90,
        "country_code": "GT",
        "country_name": "Guatemala",
        "latitude": "14.62304000",
        "longitude": "-91.59500000",
        "timezone": null,
        "wikiDataId": "Q1748865"
    },
    {
        "id": 53712,
        "name": "San Martín Zapotitlán",
        "state_id": 3664,
        "state_code": "11",
        "state_name": "Retalhuleu ",
        "country_id": 90,
        "country_code": "GT",
        "country_name": "Guatemala",
        "latitude": "14.60794000",
        "longitude": "-91.60613000",
        "timezone": null,
        "wikiDataId": "Q1748755"
    },
    {
        "id": 53737,
        "name": "San Sebastián",
        "state_id": 3664,
        "state_code": "11",
        "state_name": "Retalhuleu ",
        "country_id": 90,
        "country_code": "GT",
        "country_name": "Guatemala",
        "latitude": "14.56177000",
        "longitude": "-91.64865000",
        "timezone": null,
        "wikiDataId": "Q2402108"
    },
    {
        "id": 53756,
        "name": "Santa Cruz Muluá",
        "state_id": 3664,
        "state_code": "11",
        "state_name": "Retalhuleu ",
        "country_id": 90,
        "country_code": "GT",
        "country_name": "Guatemala",
        "latitude": "14.58153000",
        "longitude": "-91.62441000",
        "timezone": null,
        "wikiDataId": "Q1748852"
    },
    {
        "id": 53429,
        "name": "Alotenango",
        "state_id": 3676,
        "state_code": "03",
        "state_name": "Sacatepéquez ",
        "country_id": 90,
        "country_code": "GT",
        "country_name": "Guatemala",
        "latitude": "14.48028000",
        "longitude": "-90.80750000",
        "timezone": null,
        "wikiDataId": "Q2608214"
    },
    {
        "id": 53431,
        "name": "Antigua Guatemala",
        "state_id": 3676,
        "state_code": "03",
        "state_name": "Sacatepéquez ",
        "country_id": 90,
        "country_code": "GT",
        "country_name": "Guatemala",
        "latitude": "14.56111000",
        "longitude": "-90.73444000",
        "timezone": null,
        "wikiDataId": "Q212773"
    },
    {
        "id": 53460,
        "name": "Ciudad Vieja",
        "state_id": 3676,
        "state_code": "03",
        "state_name": "Sacatepéquez ",
        "country_id": 90,
        "country_code": "GT",
        "country_name": "Guatemala",
        "latitude": "14.52396000",
        "longitude": "-90.76308000",
        "timezone": null,
        "wikiDataId": "Q2445843"
    },
    {
        "id": 53513,
        "name": "Jocotenango",
        "state_id": 3676,
        "state_code": "03",
        "state_name": "Sacatepéquez ",
        "country_id": 90,
        "country_code": "GT",
        "country_name": "Guatemala",
        "latitude": "14.57814000",
        "longitude": "-90.73804000",
        "timezone": null,
        "wikiDataId": "Q2607781"
    },
    {
        "id": 53527,
        "name": "Magdalena Milpas Altas",
        "state_id": 3676,
        "state_code": "03",
        "state_name": "Sacatepéquez ",
        "country_id": 90,
        "country_code": "GT",
        "country_name": "Guatemala",
        "latitude": "14.54801000",
        "longitude": "-90.67477000",
        "timezone": null,
        "wikiDataId": "Q2401074"
    },
    {
        "id": 53541,
        "name": "Municipio de Alotenango",
        "state_id": 3676,
        "state_code": "03",
        "state_name": "Sacatepéquez ",
        "country_id": 90,
        "country_code": "GT",
        "country_name": "Guatemala",
        "latitude": "14.46485000",
        "longitude": "-90.82773000",
        "timezone": null,
        "wikiDataId": "Q2403612"
    },
    {
        "id": 53542,
        "name": "Municipio de Antigua Guatemala",
        "state_id": 3676,
        "state_code": "03",
        "state_name": "Sacatepéquez ",
        "country_id": 90,
        "country_code": "GT",
        "country_name": "Guatemala",
        "latitude": "14.54313000",
        "longitude": "-90.72683000",
        "timezone": null,
        "wikiDataId": "Q2403612"
    },
    {
        "id": 53554,
        "name": "Municipio de Ciudad Vieja",
        "state_id": 3676,
        "state_code": "03",
        "state_name": "Sacatepéquez ",
        "country_id": 90,
        "country_code": "GT",
        "country_name": "Guatemala",
        "latitude": "14.50800000",
        "longitude": "-90.77028000",
        "timezone": null,
        "wikiDataId": "Q2403612"
    },
    {
        "id": 53565,
        "name": "Municipio de Jocotenango",
        "state_id": 3676,
        "state_code": "03",
        "state_name": "Sacatepéquez ",
        "country_id": 90,
        "country_code": "GT",
        "country_name": "Guatemala",
        "latitude": "14.58658000",
        "longitude": "-90.73579000",
        "timezone": null,
        "wikiDataId": "Q2403612"
    },
    {
        "id": 53567,
        "name": "Municipio de Magdalena Milpas Altas",
        "state_id": 3676,
        "state_code": "03",
        "state_name": "Sacatepéquez ",
        "country_id": 90,
        "country_code": "GT",
        "country_name": "Guatemala",
        "latitude": "14.54206000",
        "longitude": "-90.67553000",
        "timezone": null,
        "wikiDataId": "Q2403612"
    },