[
    {
        "id": 53822,
        "name": "Bartica",
        "state_id": 2760,
        "state_code": "CU",
        "state_name": "Cuyuni-Mazaruni",
        "country_id": 94,
        "country_code": "GY",
        "country_name": "Guyana",
        "latitude": "6.40799000",
        "longitude": "-58.62192000",
        "timezone": null,
        "wikiDataId": "Q809428"
    },
    {
        "id": 53823,
        "name": "Georgetown",
        "state_id": 2767,
        "state_code": "DE",
        "state_name": "Demerara-Mahaica",
        "country_id": 94,
        "country_code": "GY",
        "country_name": "Guyana",
        "latitude": "6.80448000",
        "longitude": "-58.15527000",
        "timezone": null,
        "wikiDataId": "Q10717"
    },
    {
        "id": 53827,
        "name": "Mahaica Village",
        "state_id": 2767,
        "state_code": "DE",
        "state_name": "Demerara-Mahaica",
        "country_id": 94,
        "country_code": "GY",
        "country_name": "Guyana",
        "latitude": "6.68405000",
        "longitude": "-57.92181000",
        "timezone": null,
        "wikiDataId": "Q597458"
    },
    {
        "id": 53830,
        "name": "New Amsterdam",
        "state_id": 2766,
        "state_code": "EB",
        "state_name": "East Berbice-Corentyne",
        "country_id": 94,
        "country_code": "GY",
        "country_name": "Guyana",
        "latitude": "6.24793000",
        "longitude": "-57.51710000",
        "timezone": null,
        "wikiDataId": "Q923811"
    },
    {
        "id": 53833,
        "name": "Skeldon",
        "state_id": 2766,
        "state_code": "EB",
        "state_name": "East Berbice-Corentyne",
        "country_id": 94,
        "country_code": "GY",
        "country_name": "Guyana",
        "latitude": "5.88333000",
        "longitude": "-57.13333000",
        "timezone": null,
        "wikiDataId": "Q1051779"
    },
    {
        "id": 53831,
        "name": "Parika",
        "state_id": 2768,
        "state_code": "ES",
        "state_name": "Essequibo Islands-West Demerara",
        "country_id": 94,
        "country_code": "GY",
        "country_name": "Guyana",
        "latitude": "6.83712000",
        "longitude": "-58.42941000",
        "timezone": null,
        "wikiDataId": "Q268247"
    },
    {
        "id": 53834,
        "name": "Vreed-en-Hoop",
        "state_id": 2768,
        "state_code": "ES",
        "state_name": "Essequibo Islands-West Demerara",
        "country_id": 94,
        "country_code": "GY",
        "country_name": "Guyana",
        "latitude": "6.80927000",
        "longitude": "-58.19798000",
        "timezone": null,
        "wikiDataId": "Q1018877"
    },
    {
        "id": 53828,
        "name": "Mahaicony Village",
        "state_id": 2762,
        "state_code": "MA",
        "state_name": "Mahaica-Berbice",
        "country_id": 94,
        "country_code": "GY",
        "country_name": "Guyana",
        "latitude": "6.57633000",
        "longitude": "-57.80486000",
        "timezone": null,
        "wikiDataId": "Q597458"
    },
    {
        "id": 53832,
        "name": "Rosignol",
        "state_id": 2762,
        "state_code": "MA",
        "state_name": "Mahaica-Berbice",
        "country_id": 94,
        "country_code": "GY",
        "country_name": "Guyana",
        "latitude": "6.27095000",
        "longitude": "-57.53697000",
        "timezone": null,
        "wikiDataId": "Q1322106"
    },
    {
        "id": 53821,
        "name": "Anna Regina",
        "state_id": 2765,
        "state_code": "PM",
        "state_name": "Pomeroon-Supenaam",
        "country_id": 94,
        "country_code": "GY",
        "country_name": "Guyana",
        "latitude": "7.26439000",
        "longitude": "-58.50769000",
        "timezone": null,
        "wikiDataId": "Q563067"
    },
    {
        "id": 53829,
        "name": "Mahdia",
        "state_id": 2761,
        "state_code": "PT",
        "state_name": "Potaro-Siparuni",
        "country_id": 94,
        "country_code": "GY",
        "country_name": "Guyana",
        "latitude": "5.26667000",
        "longitude": "-59.15000000",
        "timezone": null,
        "wikiDataId": "Q1020481"
    },
    {
        "id": 53825,
        "name": "Linden",
        "state_id": 2763,
        "state_code": "UD",
        "state_name": "Upper Demerara-Berbice",
        "country_id": 94,
        "country_code": "GY",
        "country_name": "Guyana",
        "latitude": "6.00809000",
        "longitude": "-58.30714000",
        "timezone": null,
        "wikiDataId": "Q741134"
    },
    {
        "id": 53824,
        "name": "Lethem",
        "state_id": 2769,
        "state_code": "UT",
        "state_name": "Upper Takutu-Upper Essequibo",
        "country_id": 94,
        "country_code": "GY",
        "country_name": "Guyana",
        "latitude": "3.38333000",
        "longitude": "-59.80000000",
        "timezone": null,
        "wikiDataId": "Q1203781"
    }
]