[
    {
        "id": 64969,
        "name": "Paoy Paet",
        "state_id": 3984,
        "state_code": "1",
        "state_name": "Banteay Meanchey",
        "country_id": 37,
        "country_code": "KH",
        "country_name": "Cambodia",
        "latitude": "13.65805000",
        "longitude": "102.56365000",
        "timezone": null,
        "wikiDataId": "Q1015146"
    },
    {
        "id": 64981,
        "name": "Sisophon",
        "state_id": 3984,
        "state_code": "1",
        "state_name": "Banteay Meanchey",
        "country_id": 37,
        "country_code": "KH",
        "country_name": "Cambodia",
        "latitude": "13.58588000",
        "longitude": "102.97369000",
        "timezone": null,
        "wikiDataId": "Q855717"
    },
    {
        "id": 65009,
        "name": "Srŏk Malai",
        "state_id": 3984,
        "state_code": "1",
        "state_name": "Banteay Meanchey",
        "country_id": 37,
        "country_code": "KH",
        "country_name": "Cambodia",
        "latitude": "13.49902000",
        "longitude": "102.60164000",
        "timezone": null,
        "wikiDataId": "Q4929080"
    },
    {
        "id": 65022,
        "name": "Srŏk Svay Chék",
        "state_id": 3984,
        "state_code": "1",
        "state_name": "Banteay Meanchey",
        "country_id": 37,
        "country_code": "KH",
        "country_name": "Cambodia",
        "latitude": "13.81305000",
        "longitude": "102.95269000",
        "timezone": null,
        "wikiDataId": "Q4929021"
    },
    {
        "id": 64940,
        "name": "Battambang",
        "state_id": 3976,
        "state_code": "2",
        "state_name": "Battambang",
        "country_id": 37,
        "country_code": "KH",
        "country_name": "Cambodia",
        "latitude": "13.10271000",
        "longitude": "103.19822000",
        "timezone": null,
        "wikiDataId": "Q748336"
    },
    {
        "id": 65028,
        "name": "Srŏk Âk Phnŭm",
        "state_id": 3976,
        "state_code": "2",
        "state_name": "Battambang",
        "country_id": 37,
        "country_code": "KH",
        "country_name": "Cambodia",
        "latitude": "13.23621000",
        "longitude": "103.45894000",
        "timezone": null,
        "wikiDataId": "Q4930600"
    },
    {
        "id": 64988,
        "name": "Srŏk Banăn",
        "state_id": 3976,
        "state_code": "2",
        "state_name": "Battambang",
        "country_id": 37,
        "country_code": "KH",
        "country_name": "Cambodia",
        "latitude": "12.97067000",
        "longitude": "103.04742000",
        "timezone": null,
        "wikiDataId": "Q4853813"
    },
    {
        "id": 64995,
        "name": "Srŏk Bâvĭl",
        "state_id": 3976,
        "state_code": "2",
        "state_name": "Battambang",
        "country_id": 37,
        "country_code": "KH",
        "country_name": "Cambodia",
        "latitude": "13.23601000",
        "longitude": "102.82910000",
        "timezone": null,
        "wikiDataId": "Q4873692"
    },
    {
        "id": 65017,
        "name": "Srŏk Rotanak Mondol",
        "state_id": 3976,
        "state_code": "2",
        "state_name": "Battambang",
        "country_id": 37,
        "country_code": "KH",
        "country_name": "Cambodia",
        "latitude": "12.84048000",
        "longitude": "102.88700000",
        "timezone": null,
        "wikiDataId": "Q4929543"
    },
    {
        "id": 64941,
        "name": "Cheung Prey",
        "state_id": 3991,
        "state_code": "3",
        "state_name": "Kampong Cham",
        "country_id": 37,
        "country_code": "KH",
        "country_name": "Cambodia",
        "latitude": "12.10000000",
        "longitude": "105.07000000",
        "timezone": null,
        "wikiDataId": "Q4930086"
    },
    {
        "id": 64944,
        "name": "Kampong Cham",
        "state_id": 3991,
        "state_code": "3",
        "state_name": "Kampong Cham",
        "country_id": 37,
        "country_code": "KH",
        "country_name": "Cambodia",
        "latitude": "11.98000000",
        "longitude": "105.44500000",
        "timezone": null,
        "wikiDataId": "Q4930039"
    },
    {
        "id": 64990,
        "name": "Srŏk Bathéay",
        "state_id": 3991,
        "state_code": "3",
        "state_name": "Kampong Cham",
        "country_id": 37,
        "country_code": "KH",
        "country_name": "Cambodia",
        "latitude": "12.02986000",
        "longitude": "104.93171000",
        "timezone": null,
        "wikiDataId": "Q4869002"
    },
    {
        "id": 64939,
        "name": "Baribour",
        "state_id": 3979,
        "state_code": "4",
        "state_name": "Kampong Chhnang",
        "country_id": 37,
        "country_code": "KH",
        "country_name": "Cambodia",
        "latitude": "12.43000000",
        "longitude": "104.47000000",
        "timezone": null,
        "wikiDataId": "Q4860702"
    },
    {
        "id": 64945,
        "name": "Kampong Chhnang",
        "state_id": 3979,
        "state_code": "4",
        "state_name": "Kampong Chhnang",
        "country_id": 37,
        "country_code": "KH",
        "country_name": "Cambodia",
        "latitude": "12.26000000",
        "longitude": "104.67000000",
        "timezone": null,
        "wikiDataId": "Q2508561"
    },
    {
        "id": 64974,
        "name": "Rolea B'ier",
        "state_id": 3979,
        "state_code": "4",
        "state_name": "Kampong Chhnang",
        "country_id": 37,
        "country_code": "KH",
        "country_name": "Cambodia",
        "latitude": "12.21000000",
        "longitude": "104.61000000",
        "timezone": null,
        "wikiDataId": "Q4929609"
    },
    {
        "id": 64997,
        "name": "Srŏk Chol Kiri",
        "state_id": 3979,
        "state_code": "4",
        "state_name": "Kampong Chhnang",
        "country_id": 37,
        "country_code": "KH",
        "country_name": "Cambodia",
        "latitude": "12.15861000",
        "longitude": "104.82287000",
        "timezone": null,
        "wikiDataId": "Q4930069"
    },
    {
        "id": 65019,
        "name": "Srŏk Sameakki Mean Chey",
        "state_id": 3979,
        "state_code": "4",
        "state_name": "Kampong Chhnang",
        "country_id": 37,
        "country_code": "KH",
        "country_name": "Cambodia",
        "latitude": "11.86788000",
        "longitude": "104.55549000",
        "timezone": null,
        "wikiDataId": "Q7409232"
    },
    {
        "id": 64946,
        "name": "Kampong Speu",
        "state_id": 3988,
        "state_code": "5",
        "state_name": "Kampong Speu",
        "country_id": 37,
        "country_code": "KH",
        "country_name": "Cambodia",
        "latitude": "11.45332000",
        "longitude": "104.52085000",
        "timezone": null,
        "wikiDataId": "Q2344811"
    },
    {
        "id": 64962,
        "name": "Krŏng Chbar Mon",
        "state_id": 3988,
        "state_code": "5",
        "state_name": "Kampong Speu",
        "country_id": 37,
        "country_code": "KH",
        "country_name": "Cambodia",
        "latitude": "11.47091000",
        "longitude": "104.50655000",
        "timezone": null,
        "wikiDataId": "Q5088735"
    },
    {
        "id": 64989,
        "name": "Srŏk Basedth",
        "state_id": 3988,
        "state_code": "5",
        "state_name": "Kampong Speu",
        "country_id": 37,
        "country_code": "KH",
        "country_name": "Cambodia",
        "latitude": "11.18432000",
        "longitude": "104.53584000",
        "timezone": null,
        "wikiDataId": "Q4866644"
    },
    {
        "id": 65008,
        "name": "Srŏk Kông Pĭsei",
        "state_id": 3988,
        "state_code": "5",
        "state_name": "Kampong Speu",
        "country_id": 37,
        "country_code": "KH",
        "country_name": "Cambodia",
        "latitude": "11.31648000",
        "longitude": "104.65992000",
        "timezone": null,
        "wikiDataId": "Q4929012"
    },
    {
        "id": 65032,
        "name": "Srŏk Ŏdŏngk",
        "state_id": 3988,
        "state_code": "5",
        "state_name": "Kampong Speu",
        "country_id": 37,
        "country_code": "KH",
        "country_name": "Cambodia",
        "latitude": "11.66845000",
        "longitude": "104.61224000",
        "timezone": null,
        "wikiDataId": "Q4929250"
    },
    {
        "id": 64935,
        "name": "Angkor Chey",
        "state_id": 3981,
        "state_code": "7",
        "state_name": "Kampot",
        "country_id": 37,
        "country_code": "KH",
        "country_name": "Cambodia",
        "latitude": "10.76667000",
        "longitude": "104.65000000",
        "timezone": null,
        "wikiDataId": "Q4763325"
    },
    {
        "id": 64938,
        "name": "Banteay Meas",
        "state_id": 3981,
        "state_code": "7",
        "state_name": "Kampot",
        "country_id": 37,
        "country_code": "KH",
        "country_name": "Cambodia",
        "latitude": "10.61667000",
        "longitude": "104.53333000",
        "timezone": null,
        "wikiDataId": "Q4857204"
    },
    {
        "id": 64942,
        "name": "Chhouk District",
        "state_id": 3981,
        "state_code": "7",
        "state_name": "Kampot",
        "country_id": 37,
        "country_code": "KH",
        "country_name": "Cambodia",
        "latitude": "10.81667000",
        "longitude": "104.45000000",
        "timezone": null,
        "wikiDataId": "Q4929144"
    },
    {
        "id": 64943,
        "name": "Kampong Bay",
        "state_id": 3981,
        "state_code": "7",
        "state_name": "Kampot",
        "country_id": 37,
        "country_code": "KH",
        "country_name": "Cambodia",
        "latitude": "10.59554000",
        "longitude": "104.17136000",
        "timezone": null,
        "wikiDataId": "Q6359277"
    },
    {
        "id": 64947,
        "name": "Kampong Tranch",
        "state_id": 3981,
        "state_code": "7",
        "state_name": "Kampot",
        "country_id": 37,
        "country_code": "KH",
        "country_name": "Cambodia",
        "latitude": "10.55000000",
        "longitude": "104.46667000",
        "timezone": null,
        "wikiDataId": "Q1385801"
    },
    {
        "id": 64948,
        "name": "Kampot",
        "state_id": 3981,
        "state_code": "7",
        "state_name": "Kampot",
        "country_id": 37,
        "country_code": "KH",
        "country_name": "Cambodia",
        "latitude": "10.61041000",
        "longitude": "104.18145000",
        "timezone": null,
        "wikiDataId": "Q876549"
    },
    {
        "id": 64998,
        "name": "Srŏk Chŭm Kiri",
        "state_id": 3981,
        "state_code": "7",
        "state_name": "Kampot",
        "country_id": 37,
        "country_code": "KH",
        "country_name": "Cambodia",
        "latitude": "11.00540000",
        "longitude": "104.44207000",
        "timezone": null,
        "wikiDataId": "Q4929362"
    },
    {
        "id": 65001,
        "name": "Srŏk Dângtóng",
        "state_id": 3981,
        "state_code": "7",
        "state_name": "Kampot",
        "country_id": 37,
        "country_code": "KH",
        "country_name": "Cambodia",
        "latitude": "10.70733000",
        "longitude": "104.42229000",
        "timezone": null,
        "wikiDataId": "Q5215951"
    },
    {
        "id": 64986,
        "name": "Srok Tuek Chhou",
        "state_id": 3981,
        "state_code": "7",
        "state_name": "Kampot",
        "country_id": 37,
        "country_code": "KH",
        "country_name": "Cambodia",
        "latitude": "10.74557000",
        "longitude": "104.11013000",
        "timezone": null,
        "wikiDataId": "Q6359357"
    },
    {
        "id": 64965,
        "name": "Krŏng Ta Khmau",
        "state_id": 3983,
        "state_code": "8",
        "state_name": "Kandal",
        "country_id": 37,
        "country_code": "KH",
        "country_name": "Cambodia",
        "latitude": "11.45474000",
        "longitude": "104.94350000",
        "timezone": null,
        "wikiDataId": "Q4929483"
    },
    {
        "id": 65003,
        "name": "Srŏk Khsăch Kândal",
        "state_id": 3983,
        "state_code": "8",
        "state_name": "Kandal",
        "country_id": 37,
        "country_code": "KH",
        "country_name": "Cambodia",
        "latitude": "11.69224000",
        "longitude": "105.03732000",
        "timezone": null,
        "wikiDataId": "Q4930148"
    },
    {
        "id": 65037,
        "name": "Ta Khmau",
        "state_id": 3983,
        "state_code": "8",
        "state_name": "Kandal",
        "country_id": 37,
        "country_code": "KH",
        "country_name": "Cambodia",
        "latitude": "11.48333000",
        "longitude": "104.95000000",
        "timezone": null,
        "wikiDataId": "Q10861438"
    },
    {
        "id": 64961,
        "name": "Krong Kep",
        "state_id": 3978,
        "state_code": "23",
        "state_name": "Kep",
        "country_id": 37,
        "country_code": "KH",
        "country_name": "Cambodia",
        "latitude": "10.48291000",
        "longitude": "104.31672000",
        "timezone": null,
        "wikiDataId": "Q14204826"
    },
    {
        "id": 65000,
        "name": "Srŏk Dâmnăk Châng’aeur",
        "state_id": 3978,
        "state_code": "23",
        "state_name": "Kep",
        "country_id": 37,
        "country_code": "KH",
        "country_name": "Cambodia",
        "latitude": "10.53394000",
        "longitude": "104.34855000",
        "timezone": null,
        "wikiDataId": "Q5212727"
    },
    {
        "id": 64957,
        "name": "Koh Kong",
        "state_id": 3982,
        "state_code": "9",
        "state_name": "Koh Kong",
        "country_id": 37,
        "country_code": "KH",
        "country_name": "Cambodia",
        "latitude": "11.61531000",
        "longitude": "102.98380000",
        "timezone": null,
        "wikiDataId": "Q1375645"
    },
    {
        "id": 64982,
        "name": "Smach Mean Chey",
        "state_id": 3982,
        "state_code": "9",
        "state_name": "Koh Kong",
        "country_id": 37,
        "country_code": "KH",
        "country_name": "Cambodia",
        "latitude": "11.54665000",
        "longitude": "103.03569000",
        "timezone": null,
        "wikiDataId": "Q855717"
    },
    {
        "id": 64984,
        "name": "Srae Ambel",
        "state_id": 3982,
        "state_code": "9",
        "state_name": "Koh Kong",
        "country_id": 37,
        "country_code": "KH",
        "country_name": "Cambodia",
        "latitude": "11.10968000",
        "longitude": "103.76226000",
        "timezone": null,
        "wikiDataId": "Q4930156"
    },
    {
        "id": 64991,
        "name": "Srŏk Batum Sakôr",
        "state_id": 3982,
        "state_code": "9",
        "state_name": "Koh Kong",
        "country_id": 37,
        "country_code": "KH",
        "country_name": "Cambodia",
        "latitude": "11.11465000",
        "longitude": "103.38993000",
        "timezone": null,
        "wikiDataId": "Q4929301"
    },
    {
        "id": 65011,
        "name": "Srŏk Môndôl Seima",
        "state_id": 3982,
        "state_code": "9",
        "state_name": "Koh Kong",
        "country_id": 37,
        "country_code": "KH",
        "country_name": "Cambodia",
        "latitude": "11.81292000",
        "longitude": "103.01159000",
        "timezone": null,
        "wikiDataId": "Q4929448"
    },
    {
        "id": 64958,
        "name": "Kracheh",
        "state_id": 3986,
        "state_code": "10",
        "state_name": "Kratie",
        "country_id": 37,
        "country_code": "KH",
        "country_name": "Cambodia",
        "latitude": "12.57000000",
        "longitude": "106.20000000",
        "timezone": null,
        "wikiDataId": "Q4929457"
    },
    {
        "id": 64960,
        "name": "Kratié",
        "state_id": 3986,
        "state_code": "10",
        "state_name": "Kratie",
        "country_id": 37,
        "country_code": "KH",
        "country_name": "Cambodia",
        "latitude": "12.48811000",
        "longitude": "106.01879000",
        "timezone": null,
        "wikiDataId": "Q261892"
    },
    {
        "id": 64983,
        "name": "Snuol",
        "state_id": 3986,
        "state_code": "10",
        "state_name": "Kratie",
        "country_id": 37,
        "country_code": "KH",
        "country_name": "Cambodia",
        "latitude": "12.19373000",
        "longitude": "106.47361000",
        "timezone": null,
        "wikiDataId": "Q4929275"
    },
    {
        "id": 64964,
        "name": "Krŏng Sênmônoŭrôm",
        "state_id": 3985,
        "state_code": "11",
        "state_name": "Mondulkiri",
        "country_id": 37,
        "country_code": "KH",
        "country_name": "Cambodia",
        "latitude": "12.50480000",
        "longitude": "107.15525000",
        "timezone": null,
        "wikiDataId": "Q4929483"
    },
    {
        "id": 64978,
        "name": "Sen Monorom",
        "state_id": 3985,
        "state_code": "11",
        "state_name": "Mondulkiri",
        "country_id": 37,
        "country_code": "KH",
        "country_name": "Cambodia",
        "latitude": "12.45583000",
        "longitude": "107.18811000",
        "timezone": null,
        "wikiDataId": "Q2530693"
    },
    {
        "id": 65002,
        "name": "Srŏk Kaev Seima",
        "state_id": 3985,
        "state_code": "11",
        "state_name": "Mondulkiri",
        "country_id": 37,
        "country_code": "KH",
        "country_name": "Cambodia",
        "latitude": "12.41722000",
        "longitude": "106.77025000",
        "timezone": null,
        "wikiDataId": "Q6346045"
    },
    {
        "id": 65014,
        "name": "Srŏk Pech Chreada",
        "state_id": 3985,
        "state_code": "11",
        "state_name": "Mondulkiri",
        "country_id": 37,
        "country_code": "KH",
        "country_name": "Cambodia",
        "latitude": "12.72780000",
        "longitude": "107.09480000",
        "timezone": null,
        "wikiDataId": "Q7158696"
    },
    {
        "id": 64976,
        "name": "Samraong",
        "state_id": 3987,
        "state_code": "22",
        "state_name": "Oddar Meanchey",
        "country_id": 37,
        "country_code": "KH",
        "country_name": "Cambodia",
        "latitude": "14.18175000",
        "longitude": "103.51761000",
        "timezone": null,
        "wikiDataId": "Q604429"
    },
    {
        "id": 64994,
        "name": "Srŏk Bântéay Âmpĭl",
        "state_id": 3987,
        "state_code": "22",
        "state_name": "Oddar Meanchey",
        "country_id": 37,
        "country_code": "KH",
        "country_name": "Cambodia",
        "latitude": "14.18590000",
        "longitude": "103.25925000",
        "timezone": null,
        "wikiDataId": "Q4857202"
    },
    {
        "id": 65023,
        "name": "Srŏk Sâmraông",
        "state_id": 3987,
        "state_code": "22",
        "state_name": "Oddar Meanchey",
        "country_id": 37,
        "country_code": "KH",
        "country_name": "Cambodia",
        "latitude": "14.25039000",
        "longitude": "103.62739000",
        "timezone": null,
        "wikiDataId": "Q7410285"
    },
    {
        "id": 65026,
        "name": "Srŏk Trâpeăng Prasat",
        "state_id": 3987,
        "state_code": "22",
        "state_name": "Oddar Meanchey",
        "country_id": 37,
        "country_code": "KH",
        "country_name": "Cambodia",
        "latitude": "14.25809000",
        "longitude": "104.30835000",
        "timezone": null,
        "wikiDataId": "Q4930139"
    },
    {
        "id": 64956,
        "name": "Khan Sala Krau",
        "state_id": 3980,
        "state_code": "24",
        "state_name": "Pailin",
        "country_id": 37,
        "country_code": "KH",
        "country_name": "Cambodia",
        "latitude": "12.97984000",
        "longitude": "102.63957000",
        "timezone": null,
        "wikiDataId": "Q7403327"
    },
    {
        "id": 64968,
        "name": "Pailin",
        "state_id": 3980,
        "state_code": "24",
        "state_name": "Pailin",
        "country_id": 37,
        "country_code": "KH",
        "country_name": "Cambodia",
        "latitude": "12.84895000",
        "longitude": "102.60928000",
        "timezone": null,
        "wikiDataId": "Q1945748"
    },
    {
        "id": 64949,
        "name": "Khan 7 Makara",
        "state_id": 3994,
        "state_code": "12",
        "state_name": "Phnom Penh",
        "country_id": 37,
        "country_code": "KH",
        "country_name": "Cambodia",
        "latitude": "11.56254000",
        "longitude": "104.91405000",
        "timezone": null,
        "wikiDataId": "Q7238280"
    },
    {
        "id": 64950,
        "name": "Khan Châmkar Mon",
        "state_id": 3994,
        "state_code": "12",
        "state_name": "Phnom Penh",
        "country_id": 37,
        "country_code": "KH",
        "country_name": "Cambodia",
        "latitude": "11.54390000",
        "longitude": "104.92175000",
        "timezone": null,
        "wikiDataId": "Q5069819"
    },
    {
        "id": 64952,
        "name": "Khan Dângkaô",
        "state_id": 3994,
        "state_code": "12",
        "state_name": "Phnom Penh",
        "country_id": 37,
        "country_code": "KH",
        "country_name": "Cambodia",
        "latitude": "11.52457000",
        "longitude": "104.83944000",
        "timezone": null,
        "wikiDataId": "Q5216178"
    },
    {
        "id": 64951,
        "name": "Khan Duŏn Pénh",
        "state_id": 3994,
        "state_code": "12",
        "state_name": "Phnom Penh",
        "country_id": 37,
        "country_code": "KH",
        "country_name": "Cambodia",
        "latitude": "11.57561000",
        "longitude": "104.92025000",
        "timezone": null,
        "wikiDataId": "Q5228039"
    },
    {
        "id": 64953,
        "name": "Khan Méan Chey",
        "state_id": 3994,
        "state_code": "12",
        "state_name": "Phnom Penh",
        "country_id": 37,
        "country_code": "KH",
        "country_name": "Cambodia",
        "latitude": "11.51976000",
        "longitude": "104.95467000",
        "timezone": null,
        "wikiDataId": "Q6803675"
    },
    {
        "id": 64954,
        "name": "Khan Russey Keo",
        "state_id": 3994,
        "state_code": "12",
        "state_name": "Phnom Penh",
        "country_id": 37,
        "country_code": "KH",
        "country_name": "Cambodia",
        "latitude": "11.61946000",
        "longitude": "104.90990000",
        "timezone": null,
        "wikiDataId": "Q7381269"
    },
    {
        "id": 64955,
        "name": "Khan Saen Sokh",
        "state_id": 3994,
        "state_code": "12",
        "state_name": "Phnom Penh",
        "country_id": 37,
        "country_code": "KH",
        "country_name": "Cambodia",
        "latitude": "11.61289000",
        "longitude": "104.86078000",
        "timezone": null,
        "wikiDataId": "Q7449896"
    },
    {
        "id": 64970,
        "name": "Phnom Penh",
        "state_id": 3994,
        "state_code": "12",
        "state_name": "Phnom Penh",
        "country_id": 37,
        "country_code": "KH",
        "country_name": "Cambodia",
        "latitude": "11.56245000",
        "longitude": "104.91601000",
        "timezone": null,
        "wikiDataId": "Q1850"
    },
    {
        "id": 64977,
        "name": "Sangkom Thmei",
        "state_id": 3973,
        "state_code": "13",
        "state_name": "Preah Vihear",
        "country_id": 37,
        "country_code": "KH",
        "country_name": "Cambodia",
        "latitude": "13.47395000",
        "longitude": "104.77051000",
        "timezone": null,
        "wikiDataId": "Q4929184"
    },
    {
        "id": 64999,
        "name": "Srŏk Ch’êh Sên",
        "state_id": 3973,
        "state_code": "13",
        "state_name": "Preah Vihear",
        "country_id": 37,
        "country_code": "KH",
        "country_name": "Cambodia",
        "latitude": "13.58215000",
        "longitude": "105.34533000",
        "timezone": null,
        "wikiDataId": "Q4929136"
    },
    {
        "id": 64996,
        "name": "Srŏk Chhêb",
        "state_id": 3973,
        "state_code": "13",
        "state_name": "Preah Vihear",
        "country_id": 37,
        "country_code": "KH",
        "country_name": "Cambodia",
        "latitude": "13.91077000",
        "longitude": "105.46180000",
        "timezone": null,
        "wikiDataId": "Q4929159"
    },
    {
        "id": 65005,
        "name": "Srŏk Kulén",
        "state_id": 3973,
        "state_code": "13",
        "state_name": "Preah Vihear",
        "country_id": 37,
        "country_code": "KH",
        "country_name": "Cambodia",
        "latitude": "13.78597000",
        "longitude": "104.61052000",
        "timezone": null,
        "wikiDataId": "Q4929210"
    },
    {
        "id": 65018,
        "name": "Srŏk Rôviĕng",
        "state_id": 3973,
        "state_code": "13",
        "state_name": "Preah Vihear",
        "country_id": 37,
        "country_code": "KH",
        "country_name": "Cambodia",
        "latitude": "13.35105000",
        "longitude": "105.09956000",
        "timezone": null,
        "wikiDataId": "Q4929033"
    },
    {
        "id": 65025,
        "name": "Srŏk Tbêng Méanchey",
        "state_id": 3973,
        "state_code": "13",
        "state_name": "Preah Vihear",
        "country_id": 37,
        "country_code": "KH",
        "country_name": "Cambodia",
        "latitude": "13.78622000",
        "longitude": "105.01586000",
        "timezone": null,
        "wikiDataId": "Q1883679"
    },
    {
        "id": 65039,
        "name": "Tbeng Meanchey",
        "state_id": 3973,
        "state_code": "13",
        "state_name": "Preah Vihear",
        "country_id": 37,
        "country_code": "KH",
        "country_name": "Cambodia",
        "latitude": "13.80731000",
        "longitude": "104.98046000",
        "timezone": null,
        "wikiDataId": "Q2428308"
    },
    {
        "id": 64972,
        "name": "Prey Veng",
        "state_id": 3974,
        "state_code": "14",
        "state_name": "Prey Veng",
        "country_id": 37,
        "country_code": "KH",
        "country_name": "Cambodia",
        "latitude": "11.48682000",
        "longitude": "105.32533000",
        "timezone": null,
        "wikiDataId": "Q934619"
    },
    {
        "id": 65006,
        "name": "Srŏk Kâmpóng Léav",
        "state_id": 3974,
        "state_code": "14",
        "state_name": "Prey Veng",
        "country_id": 37,
        "country_code": "KH",
        "country_name": "Cambodia",
        "latitude": "11.50970000",
        "longitude": "105.30110000",
        "timezone": null,
        "wikiDataId": "Q4930117"
    },
    {
        "id": 65010,
        "name": "Srŏk Mésang",
        "state_id": 3974,
        "state_code": "14",
        "state_name": "Prey Veng",
        "country_id": 37,
        "country_code": "KH",
        "country_name": "Cambodia",
        "latitude": "11.35528000",
        "longitude": "105.57235000",
        "timezone": null,
        "wikiDataId": "Q4929602"
    },
    {
        "id": 65016,
        "name": "Srŏk Preăh Sdéch",
        "state_id": 3974,
        "state_code": "14",
        "state_name": "Prey Veng",
        "country_id": 37,
        "country_code": "KH",
        "country_name": "Cambodia",
        "latitude": "11.08690000",
        "longitude": "105.37497000",
        "timezone": null,
        "wikiDataId": "Q4930046"
    },
    {
        "id": 64936,
        "name": "Bakan",
        "state_id": 3977,
        "state_code": "15",
        "state_name": "Pursat",
        "country_id": 37,
        "country_code": "KH",
        "country_name": "Cambodia",
        "latitude": "12.78000000",
        "longitude": "103.79000000",
        "timezone": null,
        "wikiDataId": "Q4849003"
    },
    {
        "id": 64959,
        "name": "Krakor",
        "state_id": 3977,
        "state_code": "15",
        "state_name": "Pursat",
        "country_id": 37,
        "country_code": "KH",
        "country_name": "Cambodia",
        "latitude": "12.48000000",
        "longitude": "104.19000000",
        "timezone": null,
        "wikiDataId": "Q4929565"
    },
    {
        "id": 64973,
        "name": "Pursat",
        "state_id": 3977,
        "state_code": "15",
        "state_name": "Pursat",
        "country_id": 37,
        "country_code": "KH",
        "country_name": "Cambodia",
        "latitude": "12.53878000",
        "longitude": "103.91920000",
        "timezone": null,
        "wikiDataId": "Q655547"
    },
    {
        "id": 64975,
        "name": "Sampov Meas",
        "state_id": 3977,
        "state_code": "15",
        "state_name": "Pursat",
        "country_id": 37,
        "country_code": "KH",
        "country_name": "Cambodia",
        "latitude": "12.47055000",
        "longitude": "103.91817000",
        "timezone": null,
        "wikiDataId": "Q4929515"
    },
    {
        "id": 65007,
        "name": "Srŏk Kândiĕng",
        "state_id": 3977,
        "state_code": "15",
        "state_name": "Pursat",
        "country_id": 37,
        "country_code": "KH",
        "country_name": "Cambodia",
        "latitude": "12.71245000",
        "longitude": "104.02592000",
        "timezone": null,
        "wikiDataId": "Q6361505"
    },
    {
        "id": 65027,
        "name": "Srŏk Véal Vêng",
        "state_id": 3977,
        "state_code": "15",
        "state_name": "Pursat",
        "country_id": 37,
        "country_code": "KH",
        "country_name": "Cambodia",
        "latitude": "12.24230000",
        "longitude": "103.13444000",
        "timezone": null,
        "wikiDataId": "Q4929351"
    },
    {
        "id": 64937,
        "name": "Banlung",
        "state_id": 3990,
        "state_code": "16",
        "state_name": "Ratanakiri",
        "country_id": 37,
        "country_code": "KH",
        "country_name": "Cambodia",
        "latitude": "13.73939000",
        "longitude": "106.98727000",
        "timezone": null,
        "wikiDataId": "Q1350362"
    },
    {
        "id": 64966,
        "name": "Lumphat",
        "state_id": 3990,
        "state_code": "16",
        "state_name": "Ratanakiri",
        "country_id": 37,
        "country_code": "KH",
        "country_name": "Cambodia",
        "latitude": "13.49146000",
        "longitude": "106.98022000",
        "timezone": null,
        "wikiDataId": "Q2235920"
    },
    {
        "id": 65029,
        "name": "Srŏk Ândong Méas",
        "state_id": 3990,
        "state_code": "16",
        "state_name": "Ratanakiri",
        "country_id": 37,
        "country_code": "KH",
        "country_name": "Cambodia",
        "latitude": "13.93352000",
        "longitude": "107.31155000",
        "timezone": null,
        "wikiDataId": "Q4754589"
    },
    {
        "id": 64993,
        "name": "Srŏk Bâ Kêv",
        "state_id": 3990,
        "state_code": "16",
        "state_name": "Ratanakiri",
        "country_id": 37,
        "country_code": "KH",
        "country_name": "Cambodia",
        "latitude": "13.70749000",
        "longitude": "107.19442000",
        "timezone": null,
        "wikiDataId": "Q4857942"
    },
    {
        "id": 64987,
        "name": "Srŏk Ban Lŭng",
        "state_id": 3990,
        "state_code": "16",
        "state_name": "Ratanakiri",
        "country_id": 37,
        "country_code": "KH",
        "country_name": "Cambodia",
        "latitude": "13.68200000",
        "longitude": "107.03025000",
        "timezone": null,
        "wikiDataId": "Q4856829"
    },
    {
        "id": 65004,
        "name": "Srŏk Koun Mom",
        "state_id": 3990,
        "state_code": "16",
        "state_name": "Ratanakiri",
        "country_id": 37,
        "country_code": "KH",
        "country_name": "Cambodia",
        "latitude": "13.51772000",
        "longitude": "106.75142000",
        "timezone": null,
        "wikiDataId": "Q4930053"
    },
    {
        "id": 65012,
        "name": "Srŏk Ou Chum",
        "state_id": 3990,
        "state_code": "16",
        "state_name": "Ratanakiri",
        "country_id": 37,
        "country_code": "KH",
        "country_name": "Cambodia",
        "latitude": "13.84069000",
        "longitude": "107.03469000",
        "timezone": null,
        "wikiDataId": "Q4930108"
    },
    {
        "id": 65013,
        "name": "Srŏk Ou Ya Dav",
        "state_id": 3990,
        "state_code": "16",
        "state_name": "Ratanakiri",
        "country_id": 37,
        "country_code": "KH",
        "country_name": "Cambodia",
        "latitude": "13.54328000",
        "longitude": "107.44636000",
        "timezone": null,
        "wikiDataId": "Q4930220"
    },
    {
        "id": 65024,
        "name": "Srŏk Ta Vêng",
        "state_id": 3990,
        "state_code": "16",
        "state_name": "Ratanakiri",
        "country_id": 37,
        "country_code": "KH",
        "country_name": "Cambodia",
        "latitude": "14.29192000",
        "longitude": "107.24031000",
        "timezone": null,
        "wikiDataId": "Q4930210"
    },
    {
        "id": 64979,
        "name": "Siem Reap",
        "state_id": 3992,
        "state_code": "17",
        "state_name": "Siem Reap",
        "country_id": 37,
        "country_code": "KH",
        "country_name": "Cambodia",
        "latitude": "13.36179000",
        "longitude": "103.86056000",
        "timezone": null,
        "wikiDataId": "Q11711"
    },
    {
        "id": 65031,
        "name": "Srŏk Ângkôr Thum",
        "state_id": 3992,
        "state_code": "17",
        "state_name": "Siem Reap",
        "country_id": 37,
        "country_code": "KH",
        "country_name": "Cambodia",
        "latitude": "13.57881000",
        "longitude": "103.85645000",
        "timezone": null,
        "wikiDataId": "Q4763330"
    },
    {
        "id": 65015,
        "name": "Srŏk Prasat Bakong",
        "state_id": 3992,
        "state_code": "17",
        "state_name": "Siem Reap",
        "country_id": 37,
        "country_code": "KH",
        "country_name": "Cambodia",
        "latitude": "13.21031000",
        "longitude": "103.97689000",
        "timezone": null,
        "wikiDataId": "Q4929377"
    },
    {
        "id": 65035,
        "name": "Svay Leu",
        "state_id": 3992,
        "state_code": "17",
        "state_name": "Siem Reap",
        "country_id": 37,
        "country_code": "KH",
        "country_name": "Cambodia",
        "latitude": "13.69168000",
        "longitude": "104.27446000",
        "timezone": null,
        "wikiDataId": "Q4930061"
    },
    {
        "id": 65040,
        "name": "Varin",
        "state_id": 3992,
        "state_code": "17",
        "state_name": "Siem Reap",
        "country_id": 37,
        "country_code": "KH",
        "country_name": "Cambodia",
        "latitude": "13.83574000",
        "longitude": "103.89968000",
        "timezone": null,
        "wikiDataId": "Q2428308"
    },
    {
        "id": 64980,
        "name": "Sihanoukville",
        "state_id": 3989,
        "state_code": "18",
        "state_name": "Sihanoukville",
        "country_id": 37,
        "country_code": "KH",
        "country_name": "Cambodia",
        "latitude": "10.60932000",
        "longitude": "103.52958000",
        "timezone": null,
        "wikiDataId": "Q18207676"
    },
    {
        "id": 64985,
        "name": "Srok Stueng Hav",
        "state_id": 3989,
        "state_code": "18",
        "state_name": "Sihanoukville",
        "country_id": 37,
        "country_code": "KH",
        "country_name": "Cambodia",
        "latitude": "10.85249000",
        "longitude": "103.74016000",
        "timezone": null,
        "wikiDataId": "Q4929384"
    },
    {
        "id": 65020,
        "name": "Srŏk Srêsén",
        "state_id": 3993,
        "state_code": "19",
        "state_name": "Stung Treng",
        "country_id": 37,
        "country_code": "KH",
        "country_name": "Cambodia",
        "latitude": "13.60530000",
        "longitude": "106.35819000",
        "timezone": null,
        "wikiDataId": "Q4929005"
    },
    {
        "id": 65033,
        "name": "Stueng Traeng",
        "state_id": 3993,
        "state_code": "19",
        "state_name": "Stung Treng",
        "country_id": 37,
        "country_code": "KH",
        "country_name": "Cambodia",
        "latitude": "13.65000000",
        "longitude": "106.07000000",
        "timezone": null,
        "wikiDataId": "Q4929505"
    },
    {
        "id": 65034,
        "name": "Stung Treng",
        "state_id": 3993,
        "state_code": "19",
        "state_name": "Stung Treng",
        "country_id": 37,
        "country_code": "KH",
        "country_name": "Cambodia",
        "latitude": "13.52586000",
        "longitude": "105.96830000",
        "timezone": null,
        "wikiDataId": "Q10859501"
    },
    {
        "id": 65021,
        "name": "Srŏk Svay Chrŭm",
        "state_id": 3972,
        "state_code": "20",
        "state_name": "Svay Rieng",
        "country_id": 37,
        "country_code": "KH",
        "country_name": "Cambodia",
        "latitude": "11.11160000",
        "longitude": "105.69814000",
        "timezone": null,
        "wikiDataId": "Q4928995"
    },
    {
        "id": 65036,
        "name": "Svay Rieng",
        "state_id": 3972,
        "state_code": "20",
        "state_name": "Svay Rieng",
        "country_id": 37,
        "country_code": "KH",
        "country_name": "Cambodia",
        "latitude": "11.08785000",
        "longitude": "105.79935000",
        "timezone": null,
        "wikiDataId": "Q10861438"
    },
    {
        "id": 64963,
        "name": "Krŏng Doun Kaev",
        "state_id": 3975,
        "state_code": "21",
        "state_name": "Takeo",
        "country_id": 37,
        "country_code": "KH",
        "country_name": "Cambodia",
        "latitude": "10.99459000",
        "longitude": "104.79550000",
        "timezone": null,
        "wikiDataId": "Q4929284"
    },
    {
        "id": 64971,
        "name": "Phumĭ Véal Srê",
        "state_id": 3975,
        "state_code": "21",
        "state_name": "Takeo",
        "country_id": 37,
        "country_code": "KH",
        "country_name": "Cambodia",
        "latitude": "10.98081000",
        "longitude": "104.77828000",
        "timezone": null,
        "wikiDataId": "Q1850"
    },
    {
        "id": 65030,
        "name": "Srŏk Ângkôr Borei",
        "state_id": 3975,
        "state_code": "21",
        "state_name": "Takeo",
        "country_id": 37,
        "country_code": "KH",
        "country_name": "Cambodia",
        "latitude": "10.99291000",
        "longitude": "104.95177000",
        "timezone": null,
        "wikiDataId": "Q4763323"
    },
    {
        "id": 64992,
        "name": "Srŏk Borei Cholsar",
        "state_id": 3975,
        "state_code": "21",
        "state_name": "Takeo",
        "country_id": 37,
        "country_code": "KH",
        "country_name": "Cambodia",
        "latitude": "10.81414000",
        "longitude": "104.98994000",
        "timezone": null,
        "wikiDataId": "Q4950138"
    },
    {
        "id": 65038,
        "name": "Takeo",
        "state_id": 3975,
        "state_code": "21",
        "state_name": "Takeo",
        "country_id": 37,
        "country_code": "KH",
        "country_name": "Cambodia",
        "latitude": "10.99081000",
        "longitude": "104.78498000",
        "timezone": null,
        "wikiDataId": "Q10861438"
    }
]