[
    {
        "id": 65188,
        "name": "Chasŏng",
        "state_id": 3998,
        "state_code": "04",
        "state_name": "Chagang",
        "country_id": 115,
        "country_code": "KP",
        "country_name": "North Korea",
        "latitude": "41.46083000",
        "longitude": "126.64139000",
        "timezone": null,
        "wikiDataId": "Q707395"
    },
    {
        "id": 65208,
        "name": "Kanggye",
        "state_id": 3998,
        "state_code": "04",
        "state_name": "Chagang",
        "country_id": 115,
        "country_code": "KP",
        "country_name": "North Korea",
        "latitude": "40.96946000",
        "longitude": "126.58523000",
        "timezone": null,
        "wikiDataId": "Q489825"
    },
    {
        "id": 65221,
        "name": "Manp’o",
        "state_id": 3998,
        "state_code": "04",
        "state_name": "Chagang",
        "country_id": 115,
        "country_code": "KP",
        "country_name": "North Korea",
        "latitude": "41.15472000",
        "longitude": "126.28944000",
        "timezone": null,
        "wikiDataId": "Q698064"
    },
    {
        "id": 65181,
        "name": "Anbyŏn-ŭp",
        "state_id": 3999,
        "state_code": "07",
        "state_name": "Kangwon",
        "country_id": 115,
        "country_code": "KP",
        "country_name": "North Korea",
        "latitude": "39.04250000",
        "longitude": "127.52389000",
        "timezone": null,
        "wikiDataId": "Q3398703"
    },
    {
        "id": 65198,
        "name": "Hoeyang",
        "state_id": 3999,
        "state_code": "07",
        "state_name": "Kangwon",
        "country_id": 115,
        "country_code": "KP",
        "country_name": "North Korea",
        "latitude": "38.71028000",
        "longitude": "127.59833000",
        "timezone": null,
        "wikiDataId": "Q48888"
    },
    {
        "id": 65214,
        "name": "Kosan",
        "state_id": 3999,
        "state_code": "07",
        "state_name": "Kangwon",
        "country_id": 115,
        "country_code": "KP",
        "country_name": "North Korea",
        "latitude": "38.85583000",
        "longitude": "127.41806000",
        "timezone": null,
        "wikiDataId": "Q714873"
    },
    {
        "id": 65250,
        "name": "T’ongch’ŏn-ŭp",
        "state_id": 3999,
        "state_code": "07",
        "state_name": "Kangwon",
        "country_id": 115,
        "country_code": "KP",
        "country_name": "North Korea",
        "latitude": "38.95389000",
        "longitude": "127.89167000",
        "timezone": null,
        "wikiDataId": "Q505930"
    },
    {
        "id": 65252,
        "name": "Wŏnsan",
        "state_id": 3999,
        "state_code": "07",
        "state_name": "Kangwon",
        "country_id": 115,
        "country_code": "KP",
        "country_name": "North Korea",
        "latitude": "39.15278000",
        "longitude": "127.44361000",
        "timezone": null,
        "wikiDataId": "Q109374"
    },
    {
        "id": 65183,
        "name": "Aoji",
        "state_id": 3995,
        "state_code": "09",
        "state_name": "North Hamgyong",
        "country_id": 115,
        "country_code": "KP",
        "country_name": "North Korea",
        "latitude": "42.52448000",
        "longitude": "130.39718000",
        "timezone": null,
        "wikiDataId": "Q196236"
    },
    {
        "id": 65189,
        "name": "Chongjin",
        "state_id": 3995,
        "state_code": "09",
        "state_name": "North Hamgyong",
        "country_id": 115,
        "country_code": "KP",
        "country_name": "North Korea",
        "latitude": "41.79556000",
        "longitude": "129.77583000",
        "timezone": null,
        "wikiDataId": "Q109336"
    },
    {
        "id": 65195,
        "name": "Hau-ri",
        "state_id": 3995,
        "state_code": "09",
        "state_name": "North Hamgyong",
        "country_id": 115,
        "country_code": "KP",
        "country_name": "North Korea",
        "latitude": "41.20056000",
        "longitude": "129.47028000",
        "timezone": null,
        "wikiDataId": "Q109356"
    },
    {
        "id": 65196,
        "name": "Hoemul-li",
        "state_id": 3995,
        "state_code": "09",
        "state_name": "North Hamgyong",
        "country_id": 115,
        "country_code": "KP",
        "country_name": "North Korea",
        "latitude": "41.43389000",
        "longitude": "129.67000000",
        "timezone": null,
        "wikiDataId": "Q109356"
    },
    {
        "id": 65197,
        "name": "Hoeryŏng",
        "state_id": 3995,
        "state_code": "09",
        "state_name": "North Hamgyong",
        "country_id": 115,
        "country_code": "KP",
        "country_name": "North Korea",
        "latitude": "42.44113000",
        "longitude": "129.74601000",
        "timezone": null,
        "wikiDataId": "Q48888"
    },
    {
        "id": 65210,
        "name": "Kilju",
        "state_id": 3995,
        "state_code": "09",
        "state_name": "North Hamgyong",
        "country_id": 115,
        "country_code": "KP",
        "country_name": "North Korea",
        "latitude": "40.96417000",
        "longitude": "129.32778000",
        "timezone": null,
        "wikiDataId": "Q196062"
    },
    {
        "id": 65211,
        "name": "Kimch’aek-si",
        "state_id": 3995,
        "state_code": "09",
        "state_name": "North Hamgyong",
        "country_id": 115,
        "country_code": "KP",
        "country_name": "North Korea",
        "latitude": "40.66889000",
        "longitude": "129.18972000",
        "timezone": null,
        "wikiDataId": "Q714873"
    },
    {
        "id": 65213,
        "name": "Komusan Il-tong",
        "state_id": 3995,
        "state_code": "09",
        "state_name": "North Hamgyong",
        "country_id": 115,
        "country_code": "KP",
        "country_name": "North Korea",
        "latitude": "42.10914000",
        "longitude": "129.69997000",
        "timezone": null,
        "wikiDataId": "Q714873"
    },
    {
        "id": 65219,
        "name": "Kyŏngsŏng",
        "state_id": 3995,
        "state_code": "09",
        "state_name": "North Hamgyong",
        "country_id": 115,
        "country_code": "KP",
        "country_name": "North Korea",
        "latitude": "41.58778000",
        "longitude": "129.60611000",
        "timezone": null,
        "wikiDataId": "Q714873"
    },
    {
        "id": 65220,
        "name": "Kyŏngwŏn",
        "state_id": 3995,
        "state_code": "09",
        "state_name": "North Hamgyong",
        "country_id": 115,
        "country_code": "KP",
        "country_name": "North Korea",
        "latitude": "42.81361000",
        "longitude": "130.15278000",
        "timezone": null,
        "wikiDataId": "Q714873"
    },
    {
        "id": 65222,
        "name": "Musan-ŭp",
        "state_id": 3995,
        "state_code": "09",
        "state_name": "North Hamgyong",
        "country_id": 115,
        "country_code": "KP",
        "country_name": "North Korea",
        "latitude": "42.22609000",
        "longitude": "129.20776000",
        "timezone": null,
        "wikiDataId": "Q698064"
    },
    {
        "id": 65224,
        "name": "Namyang-dong",
        "state_id": 3995,
        "state_code": "09",
        "state_name": "North Hamgyong",
        "country_id": 115,
        "country_code": "KP",
        "country_name": "North Korea",
        "latitude": "42.95000000",
        "longitude": "129.86667000",
        "timezone": null,
        "wikiDataId": "Q109386"
    },
    {
        "id": 65225,
        "name": "Nanam",
        "state_id": 3995,
        "state_code": "09",
        "state_name": "North Hamgyong",
        "country_id": 115,
        "country_code": "KP",
        "country_name": "North Korea",
        "latitude": "41.71361000",
        "longitude": "129.68444000",
        "timezone": null,
        "wikiDataId": "Q109386"
    },
    {
        "id": 65227,
        "name": "Onsŏng",
        "state_id": 3995,
        "state_code": "09",
        "state_name": "North Hamgyong",
        "country_id": 115,
        "country_code": "KP",
        "country_name": "North Korea",
        "latitude": "42.95722000",
        "longitude": "129.99333000",
        "timezone": null,
        "wikiDataId": "Q109386"
    },
    {
        "id": 65230,
        "name": "Puryŏng",
        "state_id": 3995,
        "state_code": "09",
        "state_name": "North Hamgyong",
        "country_id": 115,
        "country_code": "KP",
        "country_name": "North Korea",
        "latitude": "42.06056000",
        "longitude": "129.71167000",
        "timezone": null,
        "wikiDataId": "Q109386"
    },
    {
        "id": 65247,
        "name": "Sŭngam-nodongjagu",
        "state_id": 3995,
        "state_code": "09",
        "state_name": "North Hamgyong",
        "country_id": 115,
        "country_code": "KP",
        "country_name": "North Korea",
        "latitude": "41.66972000",
        "longitude": "129.66889000",
        "timezone": null,
        "wikiDataId": "Q505930"
    },
    {
        "id": 65180,
        "name": "Anak",
        "state_id": 4004,
        "state_code": "06",
        "state_name": "North Hwanghae",
        "country_id": 115,
        "country_code": "KP",
        "country_name": "North Korea",
        "latitude": "38.51083000",
        "longitude": "125.49417000",
        "timezone": null,
        "wikiDataId": "Q3398703"
    },
    {
        "id": 65203,
        "name": "Hŭkkyo-ri",
        "state_id": 4004,
        "state_code": "06",
        "state_name": "North Hwanghae",
        "country_id": 115,
        "country_code": "KP",
        "country_name": "North Korea",
        "latitude": "38.79861000",
        "longitude": "125.79194000",
        "timezone": null,
        "wikiDataId": "Q489829"
    },
    {
        "id": 65200,
        "name": "Hwangju-ŭp",
        "state_id": 4004,
        "state_code": "06",
        "state_name": "North Hwanghae",
        "country_id": 115,
        "country_code": "KP",
        "country_name": "North Korea",
        "latitude": "38.67028000",
        "longitude": "125.77611000",
        "timezone": null,
        "wikiDataId": "Q48888"
    },
    {
        "id": 65212,
        "name": "Koksan",
        "state_id": 4004,
        "state_code": "06",
        "state_name": "North Hwanghae",
        "country_id": 115,
        "country_code": "KP",
        "country_name": "North Korea",
        "latitude": "38.78194000",
        "longitude": "126.66639000",
        "timezone": null,
        "wikiDataId": "Q714873"
    },
    {
        "id": 65237,
        "name": "Sariwŏn",
        "state_id": 4004,
        "state_code": "06",
        "state_name": "North Hwanghae",
        "country_id": 115,
        "country_code": "KP",
        "country_name": "North Korea",
        "latitude": "38.50722000",
        "longitude": "125.75583000",
        "timezone": null,
        "wikiDataId": "Q505807"
    },
    {
        "id": 65240,
        "name": "Sinmak",
        "state_id": 4004,
        "state_code": "06",
        "state_name": "North Hwanghae",
        "country_id": 115,
        "country_code": "KP",
        "country_name": "North Korea",
        "latitude": "38.41667000",
        "longitude": "126.23333000",
        "timezone": null,
        "wikiDataId": "Q505807"
    },
    {
        "id": 65243,
        "name": "Songnim",
        "state_id": 4004,
        "state_code": "06",
        "state_name": "North Hwanghae",
        "country_id": 115,
        "country_code": "KP",
        "country_name": "North Korea",
        "latitude": "38.75417000",
        "longitude": "125.64500000",
        "timezone": null,
        "wikiDataId": "Q505930"
    },
    {
        "id": 65191,
        "name": "Chŏngju",
        "state_id": 4002,
        "state_code": "03",
        "state_name": "North Pyongan",
        "country_id": 115,
        "country_code": "KP",
        "country_name": "North Korea",
        "latitude": "39.69333000",
        "longitude": "125.21028000",
        "timezone": null,
        "wikiDataId": "Q109336"
    },
    {
        "id": 65192,
        "name": "Chŏngju-gun",
        "state_id": 4002,
        "state_code": "03",
        "state_name": "North Pyongan",
        "country_id": 115,
        "country_code": "KP",
        "country_name": "North Korea",
        "latitude": "39.70944000",
        "longitude": "125.25278000",
        "timezone": null,
        "wikiDataId": "Q213169"
    },
    {
        "id": 65216,
        "name": "Kujang-ŭp",
        "state_id": 4002,
        "state_code": "03",
        "state_name": "North Pyongan",
        "country_id": 115,
        "country_code": "KP",
        "country_name": "North Korea",
        "latitude": "39.86722000",
        "longitude": "126.03028000",
        "timezone": null,
        "wikiDataId": "Q714873"
    },
    {
        "id": 65217,
        "name": "Kusŏng",
        "state_id": 4002,
        "state_code": "03",
        "state_name": "North Pyongan",
        "country_id": 115,
        "country_code": "KP",
        "country_name": "North Korea",
        "latitude": "39.98111000",
        "longitude": "125.24472000",
        "timezone": null,
        "wikiDataId": "Q714873"
    },
    {
        "id": 65218,
        "name": "Kwaksan",
        "state_id": 4002,
        "state_code": "03",
        "state_name": "North Pyongan",
        "country_id": 115,
        "country_code": "KP",
        "country_name": "North Korea",
        "latitude": "39.68750000",
        "longitude": "125.08278000",
        "timezone": null,
        "wikiDataId": "Q714873"
    },
    {
        "id": 65228,
        "name": "Panghyŏn-dong",
        "state_id": 4002,
        "state_code": "03",
        "state_name": "North Pyongan",
        "country_id": 115,
        "country_code": "KP",
        "country_name": "North Korea",
        "latitude": "39.88722000",
        "longitude": "125.24139000",
        "timezone": null,
        "wikiDataId": "Q109386"
    },
    {
        "id": 65229,
        "name": "Pukchil-lodongjagu",
        "state_id": 4002,
        "state_code": "03",
        "state_name": "North Pyongan",
        "country_id": 115,
        "country_code": "KP",
        "country_name": "North Korea",
        "latitude": "40.20194000",
        "longitude": "125.74833000",
        "timezone": null,
        "wikiDataId": "Q109386"
    },
    {
        "id": 65234,
        "name": "Sakchu-ŭp",
        "state_id": 4002,
        "state_code": "03",
        "state_name": "North Pyongan",
        "country_id": 115,
        "country_code": "KP",
        "country_name": "North Korea",
        "latitude": "40.38944000",
        "longitude": "125.04667000",
        "timezone": null,
        "wikiDataId": "Q514136"
    },
    {
        "id": 65242,
        "name": "Sinŭiju",
        "state_id": 4002,
        "state_code": "03",
        "state_name": "North Pyongan",
        "country_id": 115,
        "country_code": "KP",
        "country_name": "North Korea",
        "latitude": "40.10056000",
        "longitude": "124.39806000",
        "timezone": null,
        "wikiDataId": "Q156243"
    },
    {
        "id": 65259,
        "name": "Ŭiju",
        "state_id": 4002,
        "state_code": "03",
        "state_name": "North Pyongan",
        "country_id": 115,
        "country_code": "KP",
        "country_name": "North Korea",
        "latitude": "40.19944000",
        "longitude": "124.53167000",
        "timezone": null,
        "wikiDataId": "Q109374"
    },
    {
        "id": 65255,
        "name": "Yŏmju-ŭp",
        "state_id": 4002,
        "state_code": "03",
        "state_name": "North Pyongan",
        "country_id": 115,
        "country_code": "KP",
        "country_name": "North Korea",
        "latitude": "39.89333000",
        "longitude": "124.59806000",
        "timezone": null,
        "wikiDataId": "Q109374"
    },
    {
        "id": 65257,
        "name": "Yŏngbyŏn",
        "state_id": 4002,
        "state_code": "03",
        "state_name": "North Pyongan",
        "country_id": 115,
        "country_code": "KP",
        "country_name": "North Korea",
        "latitude": "39.81333000",
        "longitude": "125.80417000",
        "timezone": null,
        "wikiDataId": "Q109374"
    },
    {
        "id": 65190,
        "name": "Chunghwa",
        "state_id": 4005,
        "state_code": "01",
        "state_name": "Pyongyang",
        "country_id": 115,
        "country_code": "KP",
        "country_name": "North Korea",
        "latitude": "38.86389000",
        "longitude": "125.80000000",
        "timezone": null,
        "wikiDataId": "Q109336"
    },
    {
        "id": 65207,
        "name": "Kangdong-ŭp",
        "state_id": 4005,
        "state_code": "01",
        "state_name": "Pyongyang",
        "country_id": 115,
        "country_code": "KP",
        "country_name": "North Korea",
        "latitude": "39.14250000",
        "longitude": "126.09611000",
        "timezone": null,
        "wikiDataId": "Q489829"
    },
    {
        "id": 65231,
        "name": "Pyongyang",
        "state_id": 4005,
        "state_code": "01",
        "state_name": "Pyongyang",
        "country_id": 115,
        "country_code": "KP",
        "country_name": "North Korea",
        "latitude": "39.03385000",
        "longitude": "125.75432000",
        "timezone": null,
        "wikiDataId": "Q109386"
    },
    {
        "id": 65244,
        "name": "Sunan",
        "state_id": 4005,
        "state_code": "01",
        "state_name": "Pyongyang",
        "country_id": 115,
        "country_code": "KP",
        "country_name": "North Korea",
        "latitude": "39.19833000",
        "longitude": "125.69000000",
        "timezone": null,
        "wikiDataId": "Q505930"
    },
    {
        "id": 65248,
        "name": "Sŭngho 1-tong",
        "state_id": 4005,
        "state_code": "01",
        "state_name": "Pyongyang",
        "country_id": 115,
        "country_code": "KP",
        "country_name": "North Korea",
        "latitude": "38.99139000",
        "longitude": "125.97778000",
        "timezone": null,
        "wikiDataId": "Q505930"
    },
    {
        "id": 65246,
        "name": "Sŏnbong",
        "state_id": 4001,
        "state_code": "13",
        "state_name": "Rason",
        "country_id": 115,
        "country_code": "KP",
        "country_name": "North Korea",
        "latitude": "42.35118000",
        "longitude": "130.38307000",
        "timezone": null,
        "wikiDataId": "Q505930"
    },
    {
        "id": 65251,
        "name": "Ungsang-nodongjagu",
        "state_id": 4001,
        "state_code": "13",
        "state_name": "Rason",
        "country_id": 115,
        "country_code": "KP",
        "country_name": "North Korea",
        "latitude": "42.35778000",
        "longitude": "130.46222000",
        "timezone": null,
        "wikiDataId": "Q505930"
    },
    {
        "id": 65201,
        "name": "Hyesan",
        "state_id": 3996,
        "state_code": "10",
        "state_name": "Ryanggang",
        "country_id": 115,
        "country_code": "KP",
        "country_name": "North Korea",
        "latitude": "41.40167000",
        "longitude": "128.17778000",
        "timezone": null,
        "wikiDataId": "Q489829"
    },
    {
        "id": 65202,
        "name": "Hyesan-dong",
        "state_id": 3996,
        "state_code": "10",
        "state_name": "Ryanggang",
        "country_id": 115,
        "country_code": "KP",
        "country_name": "North Korea",
        "latitude": "41.39756000",
        "longitude": "128.17873000",
        "timezone": null,
        "wikiDataId": "Q489829"
    },
    {
        "id": 65209,
        "name": "Kapsan-ŭp",
        "state_id": 3996,
        "state_code": "10",
        "state_name": "Ryanggang",
        "country_id": 115,
        "country_code": "KP",
        "country_name": "North Korea",
        "latitude": "41.09028000",
        "longitude": "128.29333000",
        "timezone": null,
        "wikiDataId": "Q489825"
    },
    {
        "id": 65249,
        "name": "Sŭngjibaegam",
        "state_id": 3996,
        "state_code": "10",
        "state_name": "Ryanggang",
        "country_id": 115,
        "country_code": "KP",
        "country_name": "North Korea",
        "latitude": "41.24278000",
        "longitude": "128.79889000",
        "timezone": null,
        "wikiDataId": "Q505930"
    },
    {
        "id": 65194,
        "name": "Hamhŭng",
        "state_id": 4000,
        "state_code": "08",
        "state_name": "South Hamgyong",
        "country_id": 115,
        "country_code": "KP",
        "country_name": "North Korea",
        "latitude": "39.91833000",
        "longitude": "127.53639000",
        "timezone": null,
        "wikiDataId": "Q109356"
    },
    {
        "id": 65199,
        "name": "Hongwŏn",
        "state_id": 4000,
        "state_code": "08",
        "state_name": "South Hamgyong",
        "country_id": 115,
        "country_code": "KP",
        "country_name": "North Korea",
        "latitude": "40.02528000",
        "longitude": "127.95583000",
        "timezone": null,
        "wikiDataId": "Q48888"
    },
    {
        "id": 65204,
        "name": "Hŭngnam",
        "state_id": 4000,
        "state_code": "08",
        "state_name": "South Hamgyong",
        "country_id": 115,
        "country_code": "KP",
        "country_name": "North Korea",
        "latitude": "39.83167000",
        "longitude": "127.61861000",
        "timezone": null,
        "wikiDataId": "Q489829"
    },
    {
        "id": 65205,
        "name": "Iwŏn-ŭp",
        "state_id": 4000,
        "state_code": "08",
        "state_name": "South Hamgyong",
        "country_id": 115,
        "country_code": "KP",
        "country_name": "North Korea",
        "latitude": "40.32306000",
        "longitude": "128.65528000",
        "timezone": null,
        "wikiDataId": "Q489829"
    },
    {
        "id": 65215,
        "name": "Kowŏn-ŭp",
        "state_id": 4000,
        "state_code": "08",
        "state_name": "South Hamgyong",
        "country_id": 115,
        "country_code": "KP",
        "country_name": "North Korea",
        "latitude": "39.43806000",
        "longitude": "127.24306000",
        "timezone": null,
        "wikiDataId": "Q714873"
    },
    {
        "id": 65235,
        "name": "Samho-rodongjagu",
        "state_id": 4000,
        "state_code": "08",
        "state_name": "South Hamgyong",
        "country_id": 115,
        "country_code": "KP",
        "country_name": "North Korea",
        "latitude": "39.94750000",
        "longitude": "127.87111000",
        "timezone": null,
        "wikiDataId": "Q514136"
    },
    {
        "id": 65241,
        "name": "Sinsang-ni",
        "state_id": 4000,
        "state_code": "08",
        "state_name": "South Hamgyong",
        "country_id": 115,
        "country_code": "KP",
        "country_name": "North Korea",
        "latitude": "39.65028000",
        "longitude": "127.40583000",
        "timezone": null,
        "wikiDataId": "Q505807"
    },
    {
        "id": 65258,
        "name": "Yŏnggwang-ŭp",
        "state_id": 4000,
        "state_code": "08",
        "state_name": "South Hamgyong",
        "country_id": 115,
        "country_code": "KP",
        "country_name": "North Korea",
        "latitude": "40.01833000",
        "longitude": "127.45472000",
        "timezone": null,
        "wikiDataId": "Q109374"
    },
    {
        "id": 65254,
        "name": "Yuktae-dong",
        "state_id": 4000,
        "state_code": "08",
        "state_name": "South Hamgyong",
        "country_id": 115,
        "country_code": "KP",
        "country_name": "North Korea",
        "latitude": "40.02472000",
        "longitude": "128.15972000",
        "timezone": null,
        "wikiDataId": "Q109374"
    },
    {
        "id": 65184,
        "name": "Ayang-ni",
        "state_id": 4003,
        "state_code": "05",
        "state_name": "South Hwanghae",
        "country_id": 115,
        "country_code": "KP",
        "country_name": "North Korea",
        "latitude": "38.24306000",
        "longitude": "125.78000000",
        "timezone": null,
        "wikiDataId": "Q196236"
    },
    {
        "id": 65185,
        "name": "Chaeryŏng-ŭp",
        "state_id": 4003,
        "state_code": "05",
        "state_name": "South Hwanghae",
        "country_id": 115,
        "country_code": "KP",
        "country_name": "North Korea",
        "latitude": "38.39917000",
        "longitude": "125.61556000",
        "timezone": null,
        "wikiDataId": "Q196236"
    },
    {
        "id": 65187,
        "name": "Changyŏn",
        "state_id": 4003,
        "state_code": "05",
        "state_name": "South Hwanghae",
        "country_id": 115,
        "country_code": "KP",
        "country_name": "North Korea",
        "latitude": "38.25083000",
        "longitude": "125.09611000",
        "timezone": null,
        "wikiDataId": "Q707395"
    },
    {
        "id": 65193,
        "name": "Haeju",
        "state_id": 4003,
        "state_code": "05",
        "state_name": "South Hwanghae",
        "country_id": 115,
        "country_code": "KP",
        "country_name": "North Korea",
        "latitude": "38.04056000",
        "longitude": "125.71472000",
        "timezone": null,
        "wikiDataId": "Q714865"
    },
    {
        "id": 65206,
        "name": "Kaesŏng",
        "state_id": 4003,
        "state_code": "05",
        "state_name": "South Hwanghae",
        "country_id": 115,
        "country_code": "KP",
        "country_name": "North Korea",
        "latitude": "37.97083000",
        "longitude": "126.55444000",
        "timezone": null,
        "wikiDataId": "Q489829"
    },
    {
        "id": 65226,
        "name": "Ongjin",
        "state_id": 4003,
        "state_code": "05",
        "state_name": "South Hwanghae",
        "country_id": 115,
        "country_code": "KP",
        "country_name": "North Korea",
        "latitude": "37.93472000",
        "longitude": "125.36194000",
        "timezone": null,
        "wikiDataId": "Q109386"
    },
    {
        "id": 65232,
        "name": "Pyŏksŏng-ŭp",
        "state_id": 4003,
        "state_code": "05",
        "state_name": "South Hwanghae",
        "country_id": 115,
        "country_code": "KP",
        "country_name": "North Korea",
        "latitude": "38.04750000",
        "longitude": "125.55667000",
        "timezone": null,
        "wikiDataId": "Q109386"
    },
    {
        "id": 65256,
        "name": "Yŏnan-ŭp",
        "state_id": 4003,
        "state_code": "05",
        "state_name": "South Hwanghae",
        "country_id": 115,
        "country_code": "KP",
        "country_name": "North Korea",
        "latitude": "37.90889000",
        "longitude": "126.16111000",
        "timezone": null,
        "wikiDataId": "Q109374"
    },
    {
        "id": 65182,
        "name": "Anju",
        "state_id": 3997,
        "state_code": "02",
        "state_name": "South Pyongan",
        "country_id": 115,
        "country_code": "KP",
        "country_name": "North Korea",
        "latitude": "39.61778000",
        "longitude": "125.66472000",
        "timezone": null,
        "wikiDataId": "Q196236"
    },
    {
        "id": 65223,
        "name": "Namp’o",
        "state_id": 3997,
        "state_code": "02",
        "state_name": "South Pyongan",
        "country_id": 115,
        "country_code": "KP",
        "country_name": "North Korea",
        "latitude": "38.73750000",
        "longitude": "125.40778000",
        "timezone": null,
        "wikiDataId": "Q109386"
    },
    {
        "id": 65233,
        "name": "P’yŏngsŏng",
        "state_id": 3997,
        "state_code": "02",
        "state_name": "South Pyongan",
        "country_id": 115,
        "country_code": "KP",
        "country_name": "North Korea",
        "latitude": "39.24639000",
        "longitude": "125.87194000",
        "timezone": null,
        "wikiDataId": "Q514136"
    },
    {
        "id": 65236,
        "name": "Sangsŏng-ni",
        "state_id": 3997,
        "state_code": "02",
        "state_name": "South Pyongan",
        "country_id": 115,
        "country_code": "KP",
        "country_name": "North Korea",
        "latitude": "39.16944000",
        "longitude": "126.88556000",
        "timezone": null,
        "wikiDataId": "Q514136"
    },
    {
        "id": 65238,
        "name": "Sil-li",
        "state_id": 3997,
        "state_code": "02",
        "state_name": "South Pyongan",
        "country_id": 115,
        "country_code": "KP",
        "country_name": "North Korea",
        "latitude": "39.49472000",
        "longitude": "125.47361000",
        "timezone": null,
        "wikiDataId": "Q505807"
    },
    {
        "id": 65239,
        "name": "Sinanju",
        "state_id": 3997,
        "state_code": "02",
        "state_name": "South Pyongan",
        "country_id": 115,
        "country_code": "KP",
        "country_name": "North Korea",
        "latitude": "39.59806000",
        "longitude": "125.60972000",
        "timezone": null,
        "wikiDataId": "Q505807"
    },
    {
        "id": 65245,
        "name": "Sunch’ŏn",
        "state_id": 3997,
        "state_code": "02",
        "state_name": "South Pyongan",
        "country_id": 115,
        "country_code": "KP",
        "country_name": "North Korea",
        "latitude": "39.43167000",
        "longitude": "125.93278000",
        "timezone": null,
        "wikiDataId": "Q505930"
    },
    {
        "id": 65253,
        "name": "Yonggang-ŭp",
        "state_id": 3997,
        "state_code": "02",
        "state_name": "South Pyongan",
        "country_id": 115,
        "country_code": "KP",
        "country_name": "North Korea",
        "latitude": "38.85611000",
        "longitude": "125.42444000",
        "timezone": null,
        "wikiDataId": "Q109374"
    }
]