[
    {
        "id": 67337,
        "name": "Varniţa",
        "state_id": 4368,
        "state_code": "AN",
        "state_name": "Anenii Noi",
        "country_id": 144,
        "country_code": "MD",
        "country_name": "Moldova",
        "latitude": "46.86606000",
        "longitude": "29.46636000",
        "timezone": null,
        "wikiDataId": "Q2331113"
    },
    {
        "id": 67280,
        "name": "Bălţi",
        "state_id": 4393,
        "state_code": "BA",
        "state_name": "Bălți",
        "country_id": 144,
        "country_code": "MD",
        "country_name": "Moldova",
        "latitude": "47.76314000",
        "longitude": "27.92932000",
        "timezone": null,
        "wikiDataId": "Q2639058"
    },
    {
        "id": 67272,
        "name": "Basarabeasca",
        "state_id": 4379,
        "state_code": "BS",
        "state_name": "Basarabeasca",
        "country_id": 144,
        "country_code": "MD",
        "country_name": "Moldova",
        "latitude": "46.33170000",
        "longitude": "28.96365000",
        "timezone": null,
        "wikiDataId": "Q809787"
    },
    {
        "id": 67273,
        "name": "Bender",
        "state_id": 4362,
        "state_code": "BD",
        "state_name": "Bender",
        "country_id": 144,
        "country_code": "MD",
        "country_name": "Moldova",
        "latitude": "46.83156000",
        "longitude": "29.47769000",
        "timezone": null,
        "wikiDataId": "Q192176"
    },
    {
        "id": 67276,
        "name": "Briceni",
        "state_id": 4375,
        "state_code": "BR",
        "state_name": "Briceni",
        "country_id": 144,
        "country_code": "MD",
        "country_name": "Moldova",
        "latitude": "48.36289000",
        "longitude": "27.07787000",
        "timezone": null,
        "wikiDataId": "Q2019727"
    },
    {
        "id": 67281,
        "name": "Cahul",
        "state_id": 4391,
        "state_code": "CA",
        "state_name": "Cahul",
        "country_id": 144,
        "country_code": "MD",
        "country_name": "Moldova",
        "latitude": "45.90425000",
        "longitude": "28.19929000",
        "timezone": null,
        "wikiDataId": "Q503469"
    },
    {
        "id": 67305,
        "name": "Giurgiuleşti",
        "state_id": 4391,
        "state_code": "CA",
        "state_name": "Cahul",
        "country_id": 144,
        "country_code": "MD",
        "country_name": "Moldova",
        "latitude": "45.48167000",
        "longitude": "28.19722000",
        "timezone": null,
        "wikiDataId": "Q1528087"
    },
    {
        "id": 67294,
        "name": "Călăraşi",
        "state_id": 4366,
        "state_code": "CL",
        "state_name": "Călărași",
        "country_id": 144,
        "country_code": "MD",
        "country_name": "Moldova",
        "latitude": "47.25560000",
        "longitude": "28.30987000",
        "timezone": null,
        "wikiDataId": "Q1014367"
    },
    {
        "id": 67283,
        "name": "Cantemir",
        "state_id": 4380,
        "state_code": "CT",
        "state_name": "Cantemir",
        "country_id": 144,
        "country_code": "MD",
        "country_name": "Moldova",
        "latitude": "46.27743000",
        "longitude": "28.20270000",
        "timezone": null,
        "wikiDataId": "Q2250055"
    },
    {
        "id": 67310,
        "name": "Iargara",
        "state_id": 4380,
        "state_code": "CT",
        "state_name": "Cantemir",
        "country_id": 144,
        "country_code": "MD",
        "country_name": "Moldova",
        "latitude": "46.42520000",
        "longitude": "28.42676000",
        "timezone": null,
        "wikiDataId": "Q2710200"
    },
    {
        "id": 67339,
        "name": "Vişniovca",
        "state_id": 4380,
        "state_code": "CT",
        "state_name": "Cantemir",
        "country_id": 144,
        "country_code": "MD",
        "country_name": "Moldova",
        "latitude": "46.33260000",
        "longitude": "28.44797000",
        "timezone": null,
        "wikiDataId": "Q2438669"
    },
    {
        "id": 67295,
        "name": "Căuşeni",
        "state_id": 4365,
        "state_code": "CS",
        "state_name": "Căușeni",
        "country_id": 144,
        "country_code": "MD",
        "country_name": "Moldova",
        "latitude": "46.63674000",
        "longitude": "29.41114000",
        "timezone": null,
        "wikiDataId": "Q657744"
    },
    {
        "id": 67286,
        "name": "Chiţcani",
        "state_id": 4365,
        "state_code": "CS",
        "state_name": "Căușeni",
        "country_id": 144,
        "country_code": "MD",
        "country_name": "Moldova",
        "latitude": "46.78296000",
        "longitude": "29.61682000",
        "timezone": null,
        "wikiDataId": "Q2626650"
    },
    {
        "id": 67285,
        "name": "Chisinau",
        "state_id": 4373,
        "state_code": "CU",
        "state_name": "Chișinău",
        "country_id": 144,
        "country_code": "MD",
        "country_name": "Moldova",
        "latitude": "47.00556000",
        "longitude": "28.85750000",
        "timezone": null,
        "wikiDataId": "Q21197"
    },
    {
        "id": 67288,
        "name": "Ciorescu",
        "state_id": 4373,
        "state_code": "CU",
        "state_name": "Chișinău",
        "country_id": 144,
        "country_code": "MD",
        "country_name": "Moldova",
        "latitude": "47.13000000",
        "longitude": "28.88937000",
        "timezone": null,
        "wikiDataId": "Q428572"
    },
    {
        "id": 67292,
        "name": "Cricova",
        "state_id": 4373,
        "state_code": "CU",
        "state_name": "Chișinău",
        "country_id": 144,
        "country_code": "MD",
        "country_name": "Moldova",
        "latitude": "47.13835000",
        "longitude": "28.86156000",
        "timezone": null,
        "wikiDataId": "Q1139983"
    },
    {
        "id": 67327,
        "name": "Sîngera",
        "state_id": 4373,
        "state_code": "CU",
        "state_name": "Chișinău",
        "country_id": 144,
        "country_code": "MD",
        "country_name": "Moldova",
        "latitude": "46.91557000",
        "longitude": "28.96673000",
        "timezone": null,
        "wikiDataId": "Q2628984"
    },
    {
        "id": 67326,
        "name": "Stăuceni",
        "state_id": 4373,
        "state_code": "CU",
        "state_name": "Chișinău",
        "country_id": 144,
        "country_code": "MD",
        "country_name": "Moldova",
        "latitude": "47.09643000",
        "longitude": "28.86791000",
        "timezone": null,
        "wikiDataId": "Q2387813"
    },
    {
        "id": 67336,
        "name": "Vadul lui Vodă",
        "state_id": 4373,
        "state_code": "CU",
        "state_name": "Chișinău",
        "country_id": 144,
        "country_code": "MD",
        "country_name": "Moldova",
        "latitude": "47.09009000",
        "longitude": "29.07570000",
        "timezone": null,
        "wikiDataId": "Q2621050"
    },
    {
        "id": 67338,
        "name": "Vatra",
        "state_id": 4373,
        "state_code": "CU",
        "state_name": "Chișinău",
        "country_id": 144,
        "country_code": "MD",
        "country_name": "Moldova",
        "latitude": "47.07460000",
        "longitude": "28.73685000",
        "timezone": null,
        "wikiDataId": "Q1117303"
    },
    {
        "id": 67287,
        "name": "Cimişlia",
        "state_id": 4360,
        "state_code": "CM",
        "state_name": "Cimișlia",
        "country_id": 144,
        "country_code": "MD",
        "country_name": "Moldova",
        "latitude": "46.52685000",
        "longitude": "28.76441000",
        "timezone": null,
        "wikiDataId": "Q2019719"
    },
    {
        "id": 67293,
        "name": "Criuleni",
        "state_id": 4390,
        "state_code": "CR",
        "state_name": "Criuleni",
        "country_id": 144,
        "country_code": "MD",
        "country_name": "Moldova",
        "latitude": "47.21307000",
        "longitude": "29.15926000",
        "timezone": null,
        "wikiDataId": "Q997029"
    },
    {
        "id": 67277,
        "name": "Briceni",
        "state_id": 4384,
        "state_code": "DO",
        "state_name": "Dondușeni",
        "country_id": 144,
        "country_code": "MD",
        "country_name": "Moldova",
        "latitude": "48.35628000",
        "longitude": "27.70293000",
        "timezone": null,
        "wikiDataId": "Q2438836"
    },
    {
        "id": 67298,
        "name": "Donduşeni",
        "state_id": 4384,
        "state_code": "DO",
        "state_name": "Dondușeni",
        "country_id": 144,
        "country_code": "MD",
        "country_name": "Moldova",
        "latitude": "48.24268000",
        "longitude": "27.61010000",
        "timezone": null,
        "wikiDataId": "Q1901003"
    },
    {
        "id": 67299,
        "name": "Drochia",
        "state_id": 4392,
        "state_code": "DR",
        "state_name": "Drochia",
        "country_id": 144,
        "country_code": "MD",
        "country_name": "Moldova",
        "latitude": "48.03555000",
        "longitude": "27.81293000",
        "timezone": null,
        "wikiDataId": "Q2006112"
    },
    {
        "id": 67289,
        "name": "Cocieri",
        "state_id": 4383,
        "state_code": "DU",
        "state_name": "Dubăsari",
        "country_id": 144,
        "country_code": "MD",
        "country_name": "Moldova",
        "latitude": "47.30170000",
        "longitude": "29.11755000",
        "timezone": null,
        "wikiDataId": "Q2261598"
    },
    {
        "id": 67335,
        "name": "Ustia",
        "state_id": 4383,
        "state_code": "DU",
        "state_name": "Dubăsari",
        "country_id": 144,
        "country_code": "MD",
        "country_name": "Moldova",
        "latitude": "47.25524000",
        "longitude": "29.12406000",
        "timezone": null,
        "wikiDataId": "Q2439097"
    },
    {
        "id": 67301,
        "name": "Edineţ",
        "state_id": 4387,
        "state_code": "ED",
        "state_name": "Edineț",
        "country_id": 144,
        "country_code": "MD",
        "country_name": "Moldova",
        "latitude": "48.17215000",
        "longitude": "27.30337000",
        "timezone": null,
        "wikiDataId": "Q1150271"
    },
    {
        "id": 67303,
        "name": "Fălești",
        "state_id": 4381,
        "state_code": "FA",
        "state_name": "Fălești",
        "country_id": 144,
        "country_code": "MD",
        "country_name": "Moldova",
        "latitude": "47.57667000",
        "longitude": "27.71264000",
        "timezone": null,
        "wikiDataId": "Q2078085"
    },
    {
        "id": 67302,
        "name": "Floreşti",
        "state_id": 4370,
        "state_code": "FL",
        "state_name": "Florești",
        "country_id": 144,
        "country_code": "MD",
        "country_name": "Moldova",
        "latitude": "47.89137000",
        "longitude": "28.29312000",
        "timezone": null,
        "wikiDataId": "Q2072887"
    },
    {
        "id": 67304,
        "name": "Ghindești",
        "state_id": 4370,
        "state_code": "FL",
        "state_name": "Florești",
        "country_id": 144,
        "country_code": "MD",
        "country_name": "Moldova",
        "latitude": "47.85482000",
        "longitude": "28.37679000",
        "timezone": null,
        "wikiDataId": "Q2628898"
    },
    {
        "id": 67313,
        "name": "Mărculeşti",
        "state_id": 4370,
        "state_code": "FL",
        "state_name": "Florești",
        "country_id": 144,
        "country_code": "MD",
        "country_name": "Moldova",
        "latitude": "47.86897000",
        "longitude": "28.24109000",
        "timezone": null,
        "wikiDataId": "Q2608314"
    },
    {
        "id": 67279,
        "name": "Bugeac",
        "state_id": 4385,
        "state_code": "GA",
        "state_name": "Gagauzia",
        "country_id": 144,
        "country_code": "MD",
        "country_name": "Moldova",
        "latitude": "46.36554000",
        "longitude": "28.66250000",
        "timezone": null,
        "wikiDataId": "Q2639058"
    },
    {
        "id": 67284,
        "name": "Ceadîr-Lunga",
        "state_id": 4385,
        "state_code": "GA",
        "state_name": "Gagauzia",
        "country_id": 144,
        "country_code": "MD",
        "country_name": "Moldova",
        "latitude": "46.06169000",
        "longitude": "28.83078000",
        "timezone": null,
        "wikiDataId": "Q1012924"
    },
    {
        "id": 67290,
        "name": "Comrat",
        "state_id": 4385,
        "state_code": "GA",
        "state_name": "Gagauzia",
        "country_id": 144,
        "country_code": "MD",
        "country_name": "Moldova",
        "latitude": "46.29456000",
        "longitude": "28.65650000",
        "timezone": null,
        "wikiDataId": "Q241122"
    },
    {
        "id": 67340,
        "name": "Vulcăneşti",
        "state_id": 4385,
        "state_code": "GA",
        "state_name": "Gagauzia",
        "country_id": 144,
        "country_code": "MD",
        "country_name": "Moldova",
        "latitude": "45.68492000",
        "longitude": "28.40613000",
        "timezone": null,
        "wikiDataId": "Q1012868"
    },
    {
        "id": 67306,
        "name": "Glodeni",
        "state_id": 4367,
        "state_code": "GL",
        "state_name": "Glodeni",
        "country_id": 144,
        "country_code": "MD",
        "country_name": "Moldova",
        "latitude": "47.77513000",
        "longitude": "27.51891000",
        "timezone": null,
        "wikiDataId": "Q2292609"
    },
    {
        "id": 67296,
        "name": "Dancu",
        "state_id": 4382,
        "state_code": "HI",
        "state_name": "Hîncești",
        "country_id": 144,
        "country_code": "MD",
        "country_name": "Moldova",
        "latitude": "46.75818000",
        "longitude": "28.20716000",
        "timezone": null,
        "wikiDataId": "Q1986341"
    },
    {
        "id": 67308,
        "name": "Hînceşti",
        "state_id": 4382,
        "state_code": "HI",
        "state_name": "Hîncești",
        "country_id": 144,
        "country_code": "MD",
        "country_name": "Moldova",
        "latitude": "46.83047000",
        "longitude": "28.59064000",
        "timezone": null,
        "wikiDataId": "Q1141853"
    },
    {
        "id": 67309,
        "name": "Ialoveni",
        "state_id": 4369,
        "state_code": "IA",
        "state_name": "Ialoveni",
        "country_id": 144,
        "country_code": "MD",
        "country_name": "Moldova",
        "latitude": "46.94346000",
        "longitude": "28.78233000",
        "timezone": null,
        "wikiDataId": "Q597086"
    },
    {
        "id": 67314,
        "name": "Nisporeni",
        "state_id": 4363,
        "state_code": "NI",
        "state_name": "Nisporeni",
        "country_id": 144,
        "country_code": "MD",
        "country_name": "Moldova",
        "latitude": "47.08159000",
        "longitude": "28.17138000",
        "timezone": null,
        "wikiDataId": "Q2089107"
    },
    {
        "id": 67315,
        "name": "Ocniţa",
        "state_id": 4389,
        "state_code": "OC",
        "state_name": "Ocnița",
        "country_id": 144,
        "country_code": "MD",
        "country_name": "Moldova",
        "latitude": "48.38274000",
        "longitude": "27.43805000",
        "timezone": null,
        "wikiDataId": "Q993697"
    },
    {
        "id": 67317,
        "name": "Otaci",
        "state_id": 4389,
        "state_code": "OC",
        "state_name": "Ocnița",
        "country_id": 144,
        "country_code": "MD",
        "country_name": "Moldova",
        "latitude": "48.43285000",
        "longitude": "27.79912000",
        "timezone": null,
        "wikiDataId": "Q2608576"
    },
    {
        "id": 67316,
        "name": "Orhei",
        "state_id": 4361,
        "state_code": "OR",
        "state_name": "Orhei",
        "country_id": 144,
        "country_code": "MD",
        "country_name": "Moldova",
        "latitude": "47.38494000",
        "longitude": "28.82446000",
        "timezone": null,
        "wikiDataId": "Q423258"
    },
    {
        "id": 67319,
        "name": "Rezina",
        "state_id": 4394,
        "state_code": "RE",
        "state_name": "Rezina",
        "country_id": 144,
        "country_code": "MD",
        "country_name": "Moldova",
        "latitude": "47.74928000",
        "longitude": "28.96583000",
        "timezone": null,
        "wikiDataId": "Q2281181"
    },
    {
        "id": 67322,
        "name": "Saharna",
        "state_id": 4394,
        "state_code": "RE",
        "state_name": "Rezina",
        "country_id": 144,
        "country_code": "MD",
        "country_name": "Moldova",
        "latitude": "47.69107000",
        "longitude": "28.97458000",
        "timezone": null,
        "wikiDataId": "Q4409450"
    },
    {
        "id": 67321,
        "name": "Rîşcani",
        "state_id": 4376,
        "state_code": "RI",
        "state_name": "Rîșcani",
        "country_id": 144,
        "country_code": "MD",
        "country_name": "Moldova",
        "latitude": "47.94792000",
        "longitude": "27.56376000",
        "timezone": null,
        "wikiDataId": "Q1022131"
    },
    {
        "id": 67274,
        "name": "Bilicenii Vechi",
        "state_id": 4364,
        "state_code": "SI",
        "state_name": "Sîngerei",
        "country_id": 144,
        "country_code": "MD",
        "country_name": "Moldova",
        "latitude": "47.65580000",
        "longitude": "28.04734000",
        "timezone": null,
        "wikiDataId": "Q2448288"
    },
    {
        "id": 67275,
        "name": "Biruinţa",
        "state_id": 4364,
        "state_code": "SI",
        "state_name": "Sîngerei",
        "country_id": 144,
        "country_code": "MD",
        "country_name": "Moldova",
        "latitude": "47.81353000",
        "longitude": "28.07004000",
        "timezone": null,
        "wikiDataId": "Q2626898"
    },
    {
        "id": 67328,
        "name": "Sîngerei",
        "state_id": 4364,
        "state_code": "SI",
        "state_name": "Sîngerei",
        "country_id": 144,
        "country_code": "MD",
        "country_name": "Moldova",
        "latitude": "47.63632000",
        "longitude": "28.14296000",
        "timezone": null,
        "wikiDataId": "Q2249997"
    },
    {
        "id": 67341,
        "name": "Şoldăneşti",
        "state_id": 4388,
        "state_code": "SD",
        "state_name": "Șoldănești",
        "country_id": 144,
        "country_code": "MD",
        "country_name": "Moldova",
        "latitude": "47.81608000",
        "longitude": "28.79718000",
        "timezone": null,
        "wikiDataId": "Q2271123"
    },
    {
        "id": 67324,
        "name": "Soroca",
        "state_id": 4374,
        "state_code": "SO",
        "state_name": "Soroca",
        "country_id": 144,
        "country_code": "MD",
        "country_name": "Moldova",
        "latitude": "48.15659000",
        "longitude": "28.28489000",
        "timezone": null,
        "wikiDataId": "Q603400"
    },
    {
        "id": 67342,
        "name": "Ştefan Vodă",
        "state_id": 4378,
        "state_code": "SV",
        "state_name": "Ștefan Vodă",
        "country_id": 144,
        "country_code": "MD",
        "country_name": "Moldova",
        "latitude": "46.51287000",
        "longitude": "29.66193000",
        "timezone": null,
        "wikiDataId": "Q1982983"
    },
    {
        "id": 67278,
        "name": "Bucovăţ",
        "state_id": 4377,
        "state_code": "ST",
        "state_name": "Strășeni",
        "country_id": 144,
        "country_code": "MD",
        "country_name": "Moldova",
        "latitude": "47.19064000",
        "longitude": "28.45802000",
        "timezone": null,
        "wikiDataId": "Q9042414"
    },
    {
        "id": 67325,
        "name": "Strășeni",
        "state_id": 4377,
        "state_code": "ST",
        "state_name": "Strășeni",
        "country_id": 144,
        "country_code": "MD",
        "country_name": "Moldova",
        "latitude": "47.14216000",
        "longitude": "28.60774000",
        "timezone": null,
        "wikiDataId": "Q2006102"
    },
    {
        "id": 67329,
        "name": "Taraclia",
        "state_id": 4372,
        "state_code": "TA",
        "state_name": "Taraclia",
        "country_id": 144,
        "country_code": "MD",
        "country_name": "Moldova",
        "latitude": "45.90273000",
        "longitude": "28.66816000",
        "timezone": null,
        "wikiDataId": "Q2006121"
    },
    {
        "id": 67333,
        "name": "Tvardița",
        "state_id": 4372,
        "state_code": "TA",
        "state_name": "Taraclia",
        "country_id": 144,
        "country_code": "MD",
        "country_name": "Moldova",
        "latitude": "46.14826000",
        "longitude": "28.96491000",
        "timezone": null,
        "wikiDataId": "Q2631126"
    },
    {
        "id": 67312,
        "name": "Mîndreşti",
        "state_id": 4371,
        "state_code": "TE",
        "state_name": "Telenești",
        "country_id": 144,
        "country_code": "MD",
        "country_name": "Moldova",
        "latitude": "47.50525000",
        "longitude": "28.27687000",
        "timezone": null,
        "wikiDataId": "Q2452877"
    },
    {
        "id": 67330,
        "name": "Teleneşti",
        "state_id": 4371,
        "state_code": "TE",
        "state_name": "Telenești",
        "country_id": 144,
        "country_code": "MD",
        "country_name": "Moldova",
        "latitude": "47.50110000",
        "longitude": "28.36536000",
        "timezone": null,
        "wikiDataId": "Q647051"
    },
    {
        "id": 67282,
        "name": "Camenca",
        "state_id": 4395,
        "state_code": "SN",
        "state_name": "Transnistria",
        "country_id": 144,
        "country_code": "MD",
        "country_name": "Moldova",
        "latitude": "48.03233000",
        "longitude": "28.69899000",
        "timezone": null,
        "wikiDataId": "Q2021260"
    },
    {
        "id": 67291,
        "name": "Crasnoe",
        "state_id": 4395,
        "state_code": "SN",
        "state_name": "Transnistria",
        "country_id": 144,
        "country_code": "MD",
        "country_name": "Moldova",
        "latitude": "46.64844000",
        "longitude": "29.80403000",
        "timezone": null,
        "wikiDataId": "Q2708419"
    },
    {
        "id": 67297,
        "name": "Dnestrovsc",
        "state_id": 4395,
        "state_code": "SN",
        "state_name": "Transnistria",
        "country_id": 144,
        "country_code": "MD",
        "country_name": "Moldova",
        "latitude": "46.61640000",
        "longitude": "29.91926000",
        "timezone": null,
        "wikiDataId": "Q219547"
    },
    {
        "id": 67300,
        "name": "Dubăsari",
        "state_id": 4395,
        "state_code": "SN",
        "state_name": "Transnistria",
        "country_id": 144,
        "country_code": "MD",
        "country_name": "Moldova",
        "latitude": "47.26562000",
        "longitude": "29.16667000",
        "timezone": null,
        "wikiDataId": "Q688654"
    },
    {
        "id": 67307,
        "name": "Hryhoriopol",
        "state_id": 4395,
        "state_code": "SN",
        "state_name": "Transnistria",
        "country_id": 144,
        "country_code": "MD",
        "country_name": "Moldova",
        "latitude": "47.15413000",
        "longitude": "29.30008000",
        "timezone": null,
        "wikiDataId": "Q1025805"
    },
    {
        "id": 67311,
        "name": "Maiac",
        "state_id": 4395,
        "state_code": "SN",
        "state_name": "Transnistria",
        "country_id": 144,
        "country_code": "MD",
        "country_name": "Moldova",
        "latitude": "47.23727000",
        "longitude": "29.38498000",
        "timezone": null,
        "wikiDataId": "Q2708425"
    },
    {
        "id": 67318,
        "name": "Pervomaisc",
        "state_id": 4395,
        "state_code": "SN",
        "state_name": "Transnistria",
        "country_id": 144,
        "country_code": "MD",
        "country_name": "Moldova",
        "latitude": "46.73253000",
        "longitude": "29.96170000",
        "timezone": null,
        "wikiDataId": "Q2632598"
    },
    {
        "id": 67320,
        "name": "Rîbniţa",
        "state_id": 4395,
        "state_code": "SN",
        "state_name": "Transnistria",
        "country_id": 144,
        "country_code": "MD",
        "country_name": "Moldova",
        "latitude": "47.76817000",
        "longitude": "29.01000000",
        "timezone": null,
        "wikiDataId": "Q216363"
    },
    {
        "id": 67323,
        "name": "Slobozia",
        "state_id": 4395,
        "state_code": "SN",
        "state_name": "Transnistria",
        "country_id": 144,
        "country_code": "MD",
        "country_name": "Moldova",
        "latitude": "46.72927000",
        "longitude": "29.70446000",
        "timezone": null,
        "wikiDataId": "Q603400"
    },
    {
        "id": 67331,
        "name": "Tiraspol",
        "state_id": 4395,
        "state_code": "SN",
        "state_name": "Transnistria",
        "country_id": 144,
        "country_code": "MD",
        "country_name": "Moldova",
        "latitude": "46.84274000",
        "longitude": "29.62909000",
        "timezone": null,
        "wikiDataId": "Q132572"
    },
    {
        "id": 67332,
        "name": "Tiraspolul Nou",
        "state_id": 4395,
        "state_code": "SN",
        "state_name": "Transnistria",
        "country_id": 144,
        "country_code": "MD",
        "country_name": "Moldova",
        "latitude": "46.82874000",
        "longitude": "29.52174000",
        "timezone": null,
        "wikiDataId": "Q2708449"
    },
    {
        "id": 67334,
        "name": "Ungheni",
        "state_id": 4386,
        "state_code": "UN",
        "state_name": "Ungheni",
        "country_id": 144,
        "country_code": "MD",
        "country_name": "Moldova",
        "latitude": "47.21079000",
        "longitude": "27.80047000",
        "timezone": null,
        "wikiDataId": "Q858713"
    }
]