[
    {
        "id": 154981,
        "name": "Le Lamentin",
        "state_id": 5398,
        "state_code": "01",
        "state_name": "Fort-de-France",
        "country_id": 138,
        "country_code": "MQ",
        "country_name": "Martinique",
        "latitude": "14.62308620",
        "longitude": "-61.03347490",
        "timezone": null,
        "wikiDataId": "Q947069"
    },
    {
        "id": 154982,
        "name": "Saint-Joseph",
        "state_id": 5398,
        "state_code": "01",
        "state_name": "Fort-de-France",
        "country_id": 138,
        "country_code": "MQ",
        "country_name": "Martinique",
        "latitude": "14.68353400",
        "longitude": "-61.08186620",
        "timezone": null,
        "wikiDataId": "Q918737"
    },
    {
        "id": 154983,
        "name": "Schœlcher",
        "state_id": 5398,
        "state_code": "01",
        "state_name": "Fort-de-France",
        "country_id": 138,
        "country_code": "MQ",
        "country_name": "Martinique",
        "latitude": "14.65179970",
        "longitude": "-61.14128670",
        "timezone": null,
        "wikiDataId": "Q617806"
    },
    {
        "id": 154985,
        "name": "Basse-Pointe",
        "state_id": 5399,
        "state_code": "02",
        "state_name": "La Trinité",
        "country_id": 138,
        "country_code": "MQ",
        "country_name": "Martinique",
        "latitude": "14.84097080",
        "longitude": "-61.16485230",
        "timezone": null,
        "wikiDataId": "Q1648481"
    },
    {
        "id": 154986,
        "name": "Grand'Rivière",
        "state_id": 5399,
        "state_code": "02",
        "state_name": "La Trinité",
        "country_id": 138,
        "country_code": "MQ",
        "country_name": "Martinique",
        "latitude": "14.84696630",
        "longitude": "-61.20427640",
        "timezone": null,
        "wikiDataId": "Q1650045"
    },
    {
        "id": 154987,
        "name": "Gros-Morne",
        "state_id": 5399,
        "state_code": "02",
        "state_name": "La Trinité",
        "country_id": 138,
        "country_code": "MQ",
        "country_name": "Martinique",
        "latitude": "14.70841840",
        "longitude": "-61.11271220",
        "timezone": null,
        "wikiDataId": "Q1778192"
    },
    {
        "id": 154984,
        "name": "L'Ajoupa-Bouillon",
        "state_id": 5399,
        "state_code": "02",
        "state_name": "La Trinité",
        "country_id": 138,
        "country_code": "MQ",
        "country_name": "Martinique",
        "latitude": "14.81597180",
        "longitude": "-61.17170630",
        "timezone": null,
        "wikiDataId": "Q1234080"
    },
    {
        "id": 154993,
        "name": "La Trinité",
        "state_id": 5399,
        "state_code": "02",
        "state_name": "La Trinité",
        "country_id": 138,
        "country_code": "MQ",
        "country_name": "Martinique",
        "latitude": "14.73804150",
        "longitude": "-61.02929560",
        "timezone": null,
        "wikiDataId": "Q671787"
    },
    {
        "id": 154988,
        "name": "Le Lorrain",
        "state_id": 5399,
        "state_code": "02",
        "state_name": "La Trinité",
        "country_id": 138,
        "country_code": "MQ",
        "country_name": "Martinique",
        "latitude": "14.79952560",
        "longitude": "-61.11513740",
        "timezone": null,
        "wikiDataId": "Q595351"
    },
    {
        "id": 154990,
        "name": "Le Marigot",
        "state_id": 5399,
        "state_code": "02",
        "state_name": "La Trinité",
        "country_id": 138,
        "country_code": "MQ",
        "country_name": "Martinique",
        "latitude": "14.77958180",
        "longitude": "-61.09424580",
        "timezone": null,
        "wikiDataId": "Q1778234"
    },
    {
        "id": 154991,
        "name": "Le Robert",
        "state_id": 5399,
        "state_code": "02",
        "state_name": "La Trinité",
        "country_id": 138,
        "country_code": "MQ",
        "country_name": "Martinique",
        "latitude": "14.67443270",
        "longitude": "-61.01692720",
        "timezone": null,
        "wikiDataId": "Q1617674"
    },
    {
        "id": 154989,
        "name": "Macouba",
        "state_id": 5399,
        "state_code": "02",
        "state_name": "La Trinité",
        "country_id": 138,
        "country_code": "MQ",
        "country_name": "Martinique",
        "latitude": "14.84743860",
        "longitude": "-61.16709460",
        "timezone": null,
        "wikiDataId": "Q545210"
    },
    {
        "id": 154992,
        "name": "Sainte-Marie",
        "state_id": 5399,
        "state_code": "02",
        "state_name": "La Trinité",
        "country_id": 138,
        "country_code": "MQ",
        "country_name": "Martinique",
        "latitude": "14.77300930",
        "longitude": "-61.04959970",
        "timezone": null,
        "wikiDataId": "Q1758414"
    },
    {
        "id": 154996,
        "name": "Ducos",
        "state_id": 5400,
        "state_code": "03",
        "state_name": "Le Marin",
        "country_id": 138,
        "country_code": "MQ",
        "country_name": "Martinique",
        "latitude": "14.57854420",
        "longitude": "-61.00973860",
        "timezone": null,
        "wikiDataId": "Q1928113"
    },
    {
        "id": 154995,
        "name": "Le Diamant",
        "state_id": 5400,
        "state_code": "03",
        "state_name": "Le Marin",
        "country_id": 138,
        "country_code": "MQ",
        "country_name": "Martinique",
        "latitude": "14.47680040",
        "longitude": "-61.05973840",
        "timezone": null,
        "wikiDataId": "Q1928084"
    },
    {
        "id": 154997,
        "name": "Le François",
        "state_id": 5400,
        "state_code": "03",
        "state_name": "Le Marin",
        "country_id": 138,
        "country_code": "MQ",
        "country_name": "Martinique",
        "latitude": "14.60928850",
        "longitude": "-60.97999110",
        "timezone": null,
        "wikiDataId": "Q282944"
    },
    {
        "id": 154998,
        "name": "Le Marin",
        "state_id": 5400,
        "state_code": "03",
        "state_name": "Le Marin",
        "country_id": 138,
        "country_code": "MQ",
        "country_name": "Martinique",
        "latitude": "14.48221690",
        "longitude": "-60.90011410",
        "timezone": null,
        "wikiDataId": "Q265373"
    },
    {
        "id": 155005,
        "name": "Le Vauclin",
        "state_id": 5400,
        "state_code": "03",
        "state_name": "Le Marin",
        "country_id": 138,
        "country_code": "MQ",
        "country_name": "Martinique",
        "latitude": "14.54208600",
        "longitude": "-60.90060060",
        "timezone": null,
        "wikiDataId": "Q1831094"
    },
    {
        "id": 154994,
        "name": "Les Anses-d'Arlet",
        "state_id": 5400,
        "state_code": "03",
        "state_name": "Le Marin",
        "country_id": 138,
        "country_code": "MQ",
        "country_name": "Martinique",
        "latitude": "14.49954780",
        "longitude": "-61.11481620",
        "timezone": null,
        "wikiDataId": "Q1928126"
    },
    {
        "id": 155004,
        "name": "Les Trois-Îlets",
        "state_id": 5400,
        "state_code": "03",
        "state_name": "Le Marin",
        "country_id": 138,
        "country_code": "MQ",
        "country_name": "Martinique",
        "latitude": "14.53287460",
        "longitude": "-61.07877690",
        "timezone": null,
        "wikiDataId": "Q1650786"
    },
    {
        "id": 154999,
        "name": "Rivière-Pilote",
        "state_id": 5400,
        "state_code": "03",
        "state_name": "Le Marin",
        "country_id": 138,
        "country_code": "MQ",
        "country_name": "Martinique",
        "latitude": "14.50266970",
        "longitude": "-60.93819210",
        "timezone": null,
        "wikiDataId": "Q1918091"
    },
    {
        "id": 155000,
        "name": "Rivière-Salée",
        "state_id": 5400,
        "state_code": "03",
        "state_name": "Le Marin",
        "country_id": 138,
        "country_code": "MQ",
        "country_name": "Martinique",
        "latitude": "14.52621400",
        "longitude": "-61.00353090",
        "timezone": null,
        "wikiDataId": "Q1928099"
    },
    {
        "id": 155001,
        "name": "Saint-Esprit",
        "state_id": 5400,
        "state_code": "03",
        "state_name": "Le Marin",
        "country_id": 138,
        "country_code": "MQ",
        "country_name": "Martinique",
        "latitude": "14.56175950",
        "longitude": "-60.96451110",
        "timezone": null,
        "wikiDataId": "Q1928039"
    },
    {
        "id": 155002,
        "name": "Sainte-Anne",
        "state_id": 5400,
        "state_code": "03",
        "state_name": "Le Marin",
        "country_id": 138,
        "country_code": "MQ",
        "country_name": "Martinique",
        "latitude": "14.43142200",
        "longitude": "-60.89278760",
        "timezone": null,
        "wikiDataId": "Q655146"
    },
    {
        "id": 155003,
        "name": "Sainte-Luce",
        "state_id": 5400,
        "state_code": "03",
        "state_name": "Le Marin",
        "country_id": 138,
        "country_code": "MQ",
        "country_name": "Martinique",
        "latitude": "14.49040930",
        "longitude": "-60.98793650",
        "timezone": null,
        "wikiDataId": "Q1772486"
    },
    {
        "id": 155006,
        "name": "Bellefontaine",
        "state_id": 5401,
        "state_code": "04",
        "state_name": "Saint-Pierre",
        "country_id": 138,
        "country_code": "MQ",
        "country_name": "Martinique",
        "latitude": "14.67474760",
        "longitude": "-61.16653080",
        "timezone": null,
        "wikiDataId": "Q1778187"
    },
    {
        "id": 155008,
        "name": "Case-Pilote",
        "state_id": 5401,
        "state_code": "04",
        "state_name": "Saint-Pierre",
        "country_id": 138,
        "country_code": "MQ",
        "country_name": "Martinique",
        "latitude": "14.65933990",
        "longitude": "-61.15026120",
        "timezone": null,
        "wikiDataId": "Q1928049"
    },
    {
        "id": 155009,
        "name": "Fonds-Saint-Denis",
        "state_id": 5401,
        "state_code": "04",
        "state_name": "Saint-Pierre",
        "country_id": 138,
        "country_code": "MQ",
        "country_name": "Martinique",
        "latitude": "14.72275460",
        "longitude": "-61.16189190",
        "timezone": null,
        "wikiDataId": "Q1928060"
    },
    {
        "id": 155007,
        "name": "Le Carbet",
        "state_id": 5401,
        "state_code": "04",
        "state_name": "Saint-Pierre",
        "country_id": 138,
        "country_code": "MQ",
        "country_name": "Martinique",
        "latitude": "14.70521580",
        "longitude": "-61.19444680",
        "timezone": null,
        "wikiDataId": "Q747519"
    },
    {
        "id": 155010,
        "name": "Le Morne-Rouge",
        "state_id": 5401,
        "state_code": "04",
        "state_name": "Saint-Pierre",
        "country_id": 138,
        "country_code": "MQ",
        "country_name": "Martinique",
        "latitude": "14.76953640",
        "longitude": "-61.16292840",
        "timezone": null,
        "wikiDataId": "Q974759"
    },
    {
        "id": 155011,
        "name": "Le Morne-Vert",
        "state_id": 5401,
        "state_code": "04",
        "state_name": "Saint-Pierre",
        "country_id": 138,
        "country_code": "MQ",
        "country_name": "Martinique",
        "latitude": "14.70464330",
        "longitude": "-61.15679770",
        "timezone": null,
        "wikiDataId": "Q943994"
    },
    {
        "id": 155012,
        "name": "Le Prêcheur",
        "state_id": 5401,
        "state_code": "04",
        "state_name": "Saint-Pierre",
        "country_id": 138,
        "country_code": "MQ",
        "country_name": "Martinique",
        "latitude": "14.82202610",
        "longitude": "-61.23746860",
        "timezone": null,
        "wikiDataId": "Q1778157"
    },
    {
        "id": 155013,
        "name": "Saint-Pierre",
        "state_id": 5401,
        "state_code": "04",
        "state_name": "Saint-Pierre",
        "country_id": 138,
        "country_code": "MQ",
        "country_name": "Martinique",
        "latitude": "14.77167190",
        "longitude": "-61.21475010",
        "timezone": null,
        "wikiDataId": "Q589980"
    }
]