[
    {
        "id": 67759,
        "name": "Balzan",
        "state_id": 108,
        "state_code": "02",
        "state_name": "Balzan",
        "country_id": 135,
        "country_code": "MT",
        "country_name": "Malta",
        "latitude": "35.90028000",
        "longitude": "14.45500000",
        "timezone": null,
        "wikiDataId": "Q789794"
    },
    {
        "id": 67817,
        "name": "Birgu (Vittoriosa)",
        "state_id": 107,
        "state_code": "03",
        "state_name": "Birgu",
        "country_id": 135,
        "country_code": "MT",
        "country_name": "Malta",
        "latitude": "35.89222000",
        "longitude": "14.51833000",
        "timezone": null,
        "wikiDataId": "Q752346"
    },
    {
        "id": 67760,
        "name": "Birkirkara",
        "state_id": 97,
        "state_code": "04",
        "state_name": "Birkirkara",
        "country_id": 135,
        "country_code": "MT",
        "country_name": "Malta",
        "latitude": "35.89722000",
        "longitude": "14.46111000",
        "timezone": null,
        "wikiDataId": "Q39583"
    },
    {
        "id": 153733,
        "name": "Fleur De Lys",
        "state_id": 97,
        "state_code": "04",
        "state_name": "Birkirkara",
        "country_id": 135,
        "country_code": "MT",
        "country_name": "Malta",
        "latitude": "35.89530000",
        "longitude": "14.46560000",
        "timezone": null,
        "wikiDataId": "Q3073573"
    },
    {
        "id": 153742,
        "name": "Swatar",
        "state_id": 97,
        "state_code": "04",
        "state_name": "Birkirkara",
        "country_id": 135,
        "country_code": "MT",
        "country_name": "Malta",
        "latitude": "35.89877800",
        "longitude": "14.47659200",
        "timezone": null,
        "wikiDataId": "Q3506459"
    },
    {
        "id": 67761,
        "name": "Birżebbuġa",
        "state_id": 88,
        "state_code": "05",
        "state_name": "Birżebbuġa",
        "country_id": 135,
        "country_code": "MT",
        "country_name": "Malta",
        "latitude": "35.82583000",
        "longitude": "14.52694000",
        "timezone": null,
        "wikiDataId": "Q258028"
    },
    {
        "id": 153734,
        "name": "Ħal Far",
        "state_id": 88,
        "state_code": "05",
        "state_name": "Birżebbuġa",
        "country_id": 135,
        "country_code": "MT",
        "country_name": "Malta",
        "latitude": "35.81134900",
        "longitude": "14.51068600",
        "timezone": null,
        "wikiDataId": "Q342947"
    },
    {
        "id": 67762,
        "name": "Cospicua",
        "state_id": 138,
        "state_code": "06",
        "state_name": "Cospicua",
        "country_id": 135,
        "country_code": "MT",
        "country_name": "Malta",
        "latitude": "35.88556000",
        "longitude": "14.52750000",
        "timezone": null,
        "wikiDataId": "Q757225"
    },
    {
        "id": 67763,
        "name": "Dingli",
        "state_id": 117,
        "state_code": "07",
        "state_name": "Dingli",
        "country_id": 135,
        "country_code": "MT",
        "country_name": "Malta",
        "latitude": "35.86139000",
        "longitude": "14.38222000",
        "timezone": null,
        "wikiDataId": "Q905641"
    },
    {
        "id": 67764,
        "name": "Fgura",
        "state_id": 129,
        "state_code": "08",
        "state_name": "Fgura",
        "country_id": 135,
        "country_code": "MT",
        "country_name": "Malta",
        "latitude": "35.87028000",
        "longitude": "14.51333000",
        "timezone": null,
        "wikiDataId": "Q44388"
    },
    {
        "id": 67765,
        "name": "Floriana",
        "state_id": 84,
        "state_code": "09",
        "state_name": "Floriana",
        "country_id": 135,
        "country_code": "MT",
        "country_name": "Malta",
        "latitude": "35.89583000",
        "longitude": "14.50833000",
        "timezone": null,
        "wikiDataId": "Q832807"
    },
    {
        "id": 67766,
        "name": "Fontana",
        "state_id": 134,
        "state_code": "10",
        "state_name": "Fontana",
        "country_id": 135,
        "country_code": "MT",
        "country_name": "Malta",
        "latitude": "36.03750000",
        "longitude": "14.23611000",
        "timezone": null,
        "wikiDataId": "Q20924972"
    },
    {
        "id": 67768,
        "name": "Għajnsielem",
        "state_id": 130,
        "state_code": "13",
        "state_name": "Għajnsielem",
        "country_id": 135,
        "country_code": "MT",
        "country_name": "Malta",
        "latitude": "36.02639000",
        "longitude": "14.28500000",
        "timezone": null,
        "wikiDataId": "Q761675"
    },
    {
        "id": 67772,
        "name": "Ħal Għargħur",
        "state_id": 130,
        "state_code": "13",
        "state_name": "Għajnsielem",
        "country_id": 135,
        "country_code": "MT",
        "country_name": "Malta",
        "latitude": "35.92409000",
        "longitude": "14.45118000",
        "timezone": null,
        "wikiDataId": "Q1018111"
    },
    {
        "id": 67770,
        "name": "Ħal Għaxaq",
        "state_id": 120,
        "state_code": "15",
        "state_name": "Għargħur",
        "country_id": 135,
        "country_code": "MT",
        "country_name": "Malta",
        "latitude": "35.84889000",
        "longitude": "14.51667000",
        "timezone": null,
        "wikiDataId": "Q426385"
    },
    {
        "id": 67767,
        "name": "Gudja",
        "state_id": 106,
        "state_code": "16",
        "state_name": "Għasri",
        "country_id": 135,
        "country_code": "MT",
        "country_name": "Malta",
        "latitude": "35.84917000",
        "longitude": "14.50306000",
        "timezone": null,
        "wikiDataId": "Q1018153"
    },
    {
        "id": 67771,
        "name": "Gżira",
        "state_id": 124,
        "state_code": "17",
        "state_name": "Għaxaq",
        "country_id": 135,
        "country_code": "MT",
        "country_name": "Malta",
        "latitude": "35.90583000",
        "longitude": "14.48806000",
        "timezone": null,
        "wikiDataId": "Q632097"
    },
    {
        "id": 67769,
        "name": "Għarb",
        "state_id": 113,
        "state_code": "12",
        "state_name": "Gżira",
        "country_id": 135,
        "country_code": "MT",
        "country_name": "Malta",
        "latitude": "36.06000000",
        "longitude": "14.20889000",
        "timezone": null,
        "wikiDataId": "Q1026487"
    },
    {
        "id": 153730,
        "name": "Blata l' Bajda",
        "state_id": 105,
        "state_code": "18",
        "state_name": "Ħamrun",
        "country_id": 135,
        "country_code": "MT",
        "country_name": "Malta",
        "latitude": "35.88750000",
        "longitude": "14.49861100",
        "timezone": null,
        "wikiDataId": "Q2376034"
    },
    {
        "id": 67821,
        "name": "Ħamrun",
        "state_id": 105,
        "state_code": "18",
        "state_name": "Ħamrun",
        "country_id": 135,
        "country_code": "MT",
        "country_name": "Malta",
        "latitude": "35.88472000",
        "longitude": "14.48444000",
        "timezone": null,
        "wikiDataId": "Q343001"
    },
    {
        "id": 67781,
        "name": "L-Iklin",
        "state_id": 93,
        "state_code": "19",
        "state_name": "Iklin",
        "country_id": 135,
        "country_code": "MT",
        "country_name": "Malta",
        "latitude": "35.90414000",
        "longitude": "14.45415000",
        "timezone": null,
        "wikiDataId": "Q304589"
    },
    {
        "id": 67777,
        "name": "Imġarr",
        "state_id": 99,
        "state_code": "21",
        "state_name": "Kalkara",
        "country_id": 135,
        "country_code": "MT",
        "country_name": "Malta",
        "latitude": "35.92056000",
        "longitude": "14.36639000",
        "timezone": null,
        "wikiDataId": "Q691220"
    },
    {
        "id": 67791,
        "name": "Mġarr",
        "state_id": 99,
        "state_code": "21",
        "state_name": "Kalkara",
        "country_id": 135,
        "country_code": "MT",
        "country_name": "Malta",
        "latitude": "36.02528000",
        "longitude": "14.29500000",
        "timezone": null,
        "wikiDataId": "Q737590"
    },
    {
        "id": 67789,
        "name": "Mqabba",
        "state_id": 91,
        "state_code": "22",
        "state_name": "Kerċem",
        "country_id": 135,
        "country_code": "MT",
        "country_name": "Malta",
        "latitude": "35.84763000",
        "longitude": "14.46824000",
        "timezone": null,
        "wikiDataId": "Q1017953"
    },
    {
        "id": 67775,
        "name": "Imsida",
        "state_id": 82,
        "state_code": "23",
        "state_name": "Kirkop",
        "country_id": 135,
        "country_code": "MT",
        "country_name": "Malta",
        "latitude": "35.89250000",
        "longitude": "14.48278000",
        "timezone": null,
        "wikiDataId": "Q585187"
    },
    {
        "id": 67780,
        "name": "Kirkop",
        "state_id": 82,
        "state_code": "23",
        "state_name": "Kirkop",
        "country_id": 135,
        "country_code": "MT",
        "country_name": "Malta",
        "latitude": "35.84222000",
        "longitude": "14.48528000",
        "timezone": null,
        "wikiDataId": "Q597464"
    },
    {
        "id": 67782,
        "name": "Ħal Lija",
        "state_id": 126,
        "state_code": "24",
        "state_name": "Lija",
        "country_id": 135,
        "country_code": "MT",
        "country_name": "Malta",
        "latitude": "35.90056000",
        "longitude": "14.44639000",
        "timezone": null,
        "wikiDataId": "Q782049"
    },
    {
        "id": 67776,
        "name": "Imtarfa",
        "state_id": 126,
        "state_code": "24",
        "state_name": "Lija",
        "country_id": 135,
        "country_code": "MT",
        "country_name": "Malta",
        "latitude": "35.89333000",
        "longitude": "14.39889000",
        "timezone": null,
        "wikiDataId": "Q656837"
    },
    {
        "id": 67783,
        "name": "Ħal Luqa",
        "state_id": 77,
        "state_code": "25",
        "state_name": "Luqa",
        "country_id": 135,
        "country_code": "MT",
        "country_name": "Malta",
        "latitude": "35.85889000",
        "longitude": "14.48861000",
        "timezone": null,
        "wikiDataId": "Q475585"
    },
    {
        "id": 153740,
        "name": "Ħal Safi",
        "state_id": 77,
        "state_code": "25",
        "state_name": "Luqa",
        "country_id": 135,
        "country_code": "MT",
        "country_name": "Malta",
        "latitude": "35.83333300",
        "longitude": "14.48500000",
        "timezone": null,
        "wikiDataId": "Q658903"
    },
    {
        "id": 67809,
        "name": "Senglea",
        "state_id": 77,
        "state_code": "25",
        "state_name": "Luqa",
        "country_id": 135,
        "country_code": "MT",
        "country_name": "Malta",
        "latitude": "35.88750000",
        "longitude": "14.51694000",
        "timezone": null,
        "wikiDataId": "Q846593"
    },
    {
        "id": 67778,
        "name": "Kalkara",
        "state_id": 128,
        "state_code": "26",
        "state_name": "Marsa",
        "country_id": 135,
        "country_code": "MT",
        "country_name": "Malta",
        "latitude": "35.88917000",
        "longitude": "14.53278000",
        "timezone": null,
        "wikiDataId": "Q533257"
    },
    {
        "id": 67779,
        "name": "Kerċem",
        "state_id": 137,
        "state_code": "27",
        "state_name": "Marsaskala",
        "country_id": 135,
        "country_code": "MT",
        "country_name": "Malta",
        "latitude": "36.04194000",
        "longitude": "14.22667000",
        "timezone": null,
        "wikiDataId": "Q20922785"
    },
    {
        "id": 67785,
        "name": "Marsaskala",
        "state_id": 137,
        "state_code": "27",
        "state_name": "Marsaskala",
        "country_id": 135,
        "country_code": "MT",
        "country_name": "Malta",
        "latitude": "35.86220000",
        "longitude": "14.56701000",
        "timezone": null,
        "wikiDataId": "Q534571"
    },
    {
        "id": 67786,
        "name": "Marsaxlokk",
        "state_id": 78,
        "state_code": "28",
        "state_name": "Marsaxlokk",
        "country_id": 135,
        "country_code": "MT",
        "country_name": "Malta",
        "latitude": "35.84194000",
        "longitude": "14.54306000",
        "timezone": null,
        "wikiDataId": "Q781921"
    },
    {
        "id": 153737,
        "name": "Manikata",
        "state_id": 102,
        "state_code": "30",
        "state_name": "Mellieħa",
        "country_id": 135,
        "country_code": "MT",
        "country_name": "Malta",
        "latitude": "35.94000000",
        "longitude": "14.35333000",
        "timezone": null,
        "wikiDataId": "Q821200"
    },
    {
        "id": 67784,
        "name": "Marsa",
        "state_id": 109,
        "state_code": "31",
        "state_name": "Mġarr",
        "country_id": 135,
        "country_code": "MT",
        "country_name": "Malta",
        "latitude": "35.87917000",
        "longitude": "14.49528000",
        "timezone": null,
        "wikiDataId": "Q267431"
    },
    {
        "id": 153728,
        "name": "Bidnija",
        "state_id": 140,
        "state_code": "32",
        "state_name": "Mosta",
        "country_id": 135,
        "country_code": "MT",
        "country_name": "Malta",
        "latitude": "35.92694400",
        "longitude": "14.39833300",
        "timezone": null,
        "wikiDataId": "Q794641"
    },
    {
        "id": 67787,
        "name": "Mellieħa",
        "state_id": 96,
        "state_code": "34",
        "state_name": "Msida",
        "country_id": 135,
        "country_code": "MT",
        "country_name": "Malta",
        "latitude": "35.95639000",
        "longitude": "14.36222000",
        "timezone": null,
        "wikiDataId": "Q20922820"
    },
    {
        "id": 67790,
        "name": "Munxar",
        "state_id": 132,
        "state_code": "36",
        "state_name": "Munxar",
        "country_id": 135,
        "country_code": "MT",
        "country_name": "Malta",
        "latitude": "36.03000000",
        "longitude": "14.23333000",
        "timezone": null,
        "wikiDataId": "Q587462"
    },
    {
        "id": 67792,
        "name": "Nadur",
        "state_id": 133,
        "state_code": "37",
        "state_name": "Nadur",
        "country_id": 135,
        "country_code": "MT",
        "country_name": "Malta",
        "latitude": "36.03778000",
        "longitude": "14.29417000",
        "timezone": null,
        "wikiDataId": "Q929969"
    },
    {
        "id": 153726,
        "name": "Baħar iċ-Ċagħaq",
        "state_id": 112,
        "state_code": "38",
        "state_name": "Naxxar",
        "country_id": 135,
        "country_code": "MT",
        "country_name": "Malta",
        "latitude": "35.93878700",
        "longitude": "14.45372500",
        "timezone": null,
        "wikiDataId": "Q539640"
    },
    {
        "id": 153736,
        "name": "Magħtab",
        "state_id": 112,
        "state_code": "38",
        "state_name": "Naxxar",
        "country_id": 135,
        "country_code": "MT",
        "country_name": "Malta",
        "latitude": "35.94500000",
        "longitude": "14.44000000",
        "timezone": null,
        "wikiDataId": "Q3277457"
    },
    {
        "id": 67793,
        "name": "Naxxar",
        "state_id": 112,
        "state_code": "38",
        "state_name": "Naxxar",
        "country_id": 135,
        "country_code": "MT",
        "country_name": "Malta",
        "latitude": "35.91361000",
        "longitude": "14.44361000",
        "timezone": null,
        "wikiDataId": "Q44397"
    },
    {
        "id": 153741,
        "name": "Salina",
        "state_id": 112,
        "state_code": "38",
        "state_name": "Naxxar",
        "country_id": 135,
        "country_code": "MT",
        "country_name": "Malta",
        "latitude": "35.94555600",
        "longitude": "14.42444400",
        "timezone": null,
        "wikiDataId": "Q2791507"
    },
    {
        "id": 67794,
        "name": "Paola",
        "state_id": 115,
        "state_code": "39",
        "state_name": "Paola",
        "country_id": 135,
        "country_code": "MT",
        "country_name": "Malta",
        "latitude": "35.87306000",
        "longitude": "14.49889000",
        "timezone": null,
        "wikiDataId": "Q846589"
    },
    {
        "id": 67795,
        "name": "Pembroke",
        "state_id": 125,
        "state_code": "40",
        "state_name": "Pembroke",
        "country_id": 135,
        "country_code": "MT",
        "country_name": "Malta",
        "latitude": "35.93056000",
        "longitude": "14.47639000",
        "timezone": null,
        "wikiDataId": "Q20924971"
    },
    {
        "id": 67796,
        "name": "Pietà",
        "state_id": 127,
        "state_code": "41",
        "state_name": "Pietà",
        "country_id": 135,
        "country_code": "MT",
        "country_name": "Malta",
        "latitude": "35.89472000",
        "longitude": "14.49500000",
        "timezone": null,
        "wikiDataId": "Q744070"
    },
    {
        "id": 67797,
        "name": "Qala",
        "state_id": 79,
        "state_code": "42",
        "state_name": "Qala",
        "country_id": 135,
        "country_code": "MT",
        "country_name": "Malta",
        "latitude": "36.03611000",
        "longitude": "14.30944000",
        "timezone": null,
        "wikiDataId": "Q1088033"
    },
    {
        "id": 67798,
        "name": "Qormi",
        "state_id": 119,
        "state_code": "43",
        "state_name": "Qormi",
        "country_id": 135,
        "country_code": "MT",
        "country_name": "Malta",
        "latitude": "35.87601000",
        "longitude": "14.47200000",
        "timezone": null,
        "wikiDataId": "Q39578"
    },
    {
        "id": 67799,
        "name": "Qrendi",
        "state_id": 111,
        "state_code": "44",
        "state_name": "Qrendi",
        "country_id": 135,
        "country_code": "MT",
        "country_name": "Malta",
        "latitude": "35.83472000",
        "longitude": "14.45833000",
        "timezone": null,
        "wikiDataId": "Q282203"
    },
    {
        "id": 153727,
        "name": "Baħrija",
        "state_id": 83,
        "state_code": "46",
        "state_name": "Rabat",
        "country_id": 135,
        "country_code": "MT",
        "country_name": "Malta",
        "latitude": "35.89472200",
        "longitude": "14.34833300",
        "timezone": null,
        "wikiDataId": "Q586551"
    },
    {
        "id": 153729,
        "name": "Binġemma",
        "state_id": 83,
        "state_code": "46",
        "state_name": "Rabat",
        "country_id": 135,
        "country_code": "MT",
        "country_name": "Malta",
        "latitude": "35.90277800",
        "longitude": "14.37777800",
        "timezone": null,
        "wikiDataId": "Q20011301"
    },
    {
        "id": 67805,
        "name": "San Ġiljan (St. Julian's)",
        "state_id": 75,
        "state_code": "49",
        "state_name": "San Ġwann",
        "country_id": 135,
        "country_code": "MT",
        "country_name": "Malta",
        "latitude": "35.91839000",
        "longitude": "14.48977000",
        "timezone": null,
        "wikiDataId": "Q20922925"
    },
    {
        "id": 67803,
        "name": "San Lawrenz",
        "state_id": 87,
        "state_code": "50",
        "state_name": "San Lawrenz",
        "country_id": 135,
        "country_code": "MT",
        "country_name": "Malta",
        "latitude": "36.05556000",
        "longitude": "14.20361000",
        "timezone": null,
        "wikiDataId": "Q537308"
    },
    {
        "id": 67804,
        "name": "San Pawl il-Baħar",
        "state_id": 116,
        "state_code": "52",
        "state_name": "Sannat",
        "country_id": 135,
        "country_code": "MT",
        "country_name": "Malta",
        "latitude": "35.95064000",
        "longitude": "14.41561000",
        "timezone": null,
        "wikiDataId": "Q537308"
    },
    {
        "id": 67806,
        "name": "Sannat",
        "state_id": 116,
        "state_code": "52",
        "state_name": "Sannat",
        "country_id": 135,
        "country_code": "MT",
        "country_name": "Malta",
        "latitude": "36.02444000",
        "longitude": "14.24278000",
        "timezone": null,
        "wikiDataId": "Q602037"
    },
    {
        "id": 67808,
        "name": "Santa Venera",
        "state_id": 94,
        "state_code": "53",
        "state_name": "Santa Luċija",
        "country_id": 135,
        "country_code": "MT",
        "country_name": "Malta",
        "latitude": "35.89083000",
        "longitude": "14.47417000",
        "timezone": null,
        "wikiDataId": "Q585420"
    },
    {
        "id": 67774,
        "name": "Imdina",
        "state_id": 136,
        "state_code": "20",
        "state_name": "Senglea",
        "country_id": 135,
        "country_code": "MT",
        "country_name": "Malta",
        "latitude": "35.88694000",
        "longitude": "14.40250000",
        "timezone": null,
        "wikiDataId": "Q207277"
    },
    {
        "id": 67810,
        "name": "Siġġiewi",
        "state_id": 98,
        "state_code": "55",
        "state_name": "Siġġiewi",
        "country_id": 135,
        "country_code": "MT",
        "country_name": "Malta",
        "latitude": "35.85556000",
        "longitude": "14.43639000",
        "timezone": null,
        "wikiDataId": "Q20922947"
    },
    {
        "id": 67811,
        "name": "Sliema",
        "state_id": 104,
        "state_code": "56",
        "state_name": "Sliema",
        "country_id": 135,
        "country_code": "MT",
        "country_name": "Malta",
        "latitude": "35.91250000",
        "longitude": "14.50194000",
        "timezone": null,
        "wikiDataId": "Q39526"
    },
    {
        "id": 153738,
        "name": "Paceville",
        "state_id": 100,
        "state_code": "48",
        "state_name": "St. Julian's",
        "country_id": 135,
        "country_code": "MT",
        "country_name": "Malta",
        "latitude": "35.92370000",
        "longitude": "14.49140000",
        "timezone": null,
        "wikiDataId": "Q918186"
    },
    {
        "id": 67801,
        "name": "San Ġwann",
        "state_id": 100,
        "state_code": "48",
        "state_name": "St. Julian's",
        "country_id": 135,
        "country_code": "MT",
        "country_name": "Malta",
        "latitude": "35.90556000",
        "longitude": "14.47611000",
        "timezone": null,
        "wikiDataId": "Q39507"
    },
    {
        "id": 153731,
        "name": "Buġibba",
        "state_id": 139,
        "state_code": "51",
        "state_name": "St. Paul's Bay",
        "country_id": 135,
        "country_code": "MT",
        "country_name": "Malta",
        "latitude": "35.94916700",
        "longitude": "14.41166700",
        "timezone": null,
        "wikiDataId": "Q44632"
    },
    {
        "id": 153732,
        "name": "Burmarrad",
        "state_id": 139,
        "state_code": "51",
        "state_name": "St. Paul's Bay",
        "country_id": 135,
        "country_code": "MT",
        "country_name": "Malta",
        "latitude": "35.93490000",
        "longitude": "14.41430000",
        "timezone": null,
        "wikiDataId": "Q852182"
    },
    {
        "id": 67788,
        "name": "Mosta",
        "state_id": 139,
        "state_code": "51",
        "state_name": "St. Paul's Bay",
        "country_id": 135,
        "country_code": "MT",
        "country_name": "Malta",
        "latitude": "35.90917000",
        "longitude": "14.42556000",
        "timezone": null,
        "wikiDataId": "Q39520"
    },
    {
        "id": 153739,
        "name": "Qawra",
        "state_id": 139,
        "state_code": "51",
        "state_name": "St. Paul's Bay",
        "country_id": 135,
        "country_code": "MT",
        "country_name": "Malta",
        "latitude": "35.95416700",
        "longitude": "14.42000000",
        "timezone": null,
        "wikiDataId": "Q1038990"
    },
    {
        "id": 67802,
        "name": "Santa Luċija",
        "state_id": 139,
        "state_code": "51",
        "state_name": "St. Paul's Bay",
        "country_id": 135,
        "country_code": "MT",
        "country_name": "Malta",
        "latitude": "36.04306000",
        "longitude": "14.21722000",
        "timezone": null,
        "wikiDataId": "Q1256169"
    },
    {
        "id": 67807,
        "name": "Santa Luċija, Gozo",
        "state_id": 139,
        "state_code": "51",
        "state_name": "St. Paul's Bay",
        "country_id": 135,
        "country_code": "MT",
        "country_name": "Malta",
        "latitude": "35.86278000",
        "longitude": "14.50750000",
        "timezone": null,
        "wikiDataId": "Q20922931"
    },
    {
        "id": 153743,
        "name": "Wardija",
        "state_id": 139,
        "state_code": "51",
        "state_name": "St. Paul's Bay",
        "country_id": 135,
        "country_code": "MT",
        "country_name": "Malta",
        "latitude": "35.93795800",
        "longitude": "14.39254200",
        "timezone": null,
        "wikiDataId": "Q29413612"
    },
    {
        "id": 153744,
        "name": "Xemxija",
        "state_id": 139,
        "state_code": "51",
        "state_name": "St. Paul's Bay",
        "country_id": 135,
        "country_code": "MT",
        "country_name": "Malta",
        "latitude": "35.95055600",
        "longitude": "14.38583300",
        "timezone": null,
        "wikiDataId": "Q570499"
    },
    {
        "id": 153735,
        "name": "Madliena",
        "state_id": 86,
        "state_code": "57",
        "state_name": "Swieqi",
        "country_id": 135,
        "country_code": "MT",
        "country_name": "Malta",
        "latitude": "35.93333300",
        "longitude": "14.46666700",
        "timezone": null,
        "wikiDataId": "Q3276140"
    },
    {
        "id": 67812,
        "name": "Swieqi",
        "state_id": 86,
        "state_code": "57",
        "state_name": "Swieqi",
        "country_id": 135,
        "country_code": "MT",
        "country_name": "Malta",
        "latitude": "35.92250000",
        "longitude": "14.48000000",
        "timezone": null,
        "wikiDataId": "Q220667"
    },
    {
        "id": 67814,
        "name": "Ta’ Xbiex",
        "state_id": 122,
        "state_code": "58",
        "state_name": "Ta' Xbiex",
        "country_id": 135,
        "country_code": "MT",
        "country_name": "Malta",
        "latitude": "35.89917000",
        "longitude": "14.49444000",
        "timezone": null,
        "wikiDataId": "Q20922979"
    },
    {
        "id": 67813,
        "name": "Ħal Tarxien",
        "state_id": 103,
        "state_code": "59",
        "state_name": "Tarxien",
        "country_id": 135,
        "country_code": "MT",
        "country_name": "Malta",
        "latitude": "35.86583000",
        "longitude": "14.51500000",
        "timezone": null,
        "wikiDataId": "Q744001"
    },
    {
        "id": 67815,
        "name": "Valletta",
        "state_id": 95,
        "state_code": "60",
        "state_name": "Valletta",
        "country_id": 135,
        "country_code": "MT",
        "country_name": "Malta",
        "latitude": "35.89972000",
        "longitude": "14.51472000",
        "timezone": null,
        "wikiDataId": "Q23800"
    },
    {
        "id": 67800,
        "name": "Rabat",
        "state_id": 101,
        "state_code": "45",
        "state_name": "Victoria",
        "country_id": 135,
        "country_code": "MT",
        "country_name": "Malta",
        "latitude": "35.88152000",
        "longitude": "14.39872000",
        "timezone": null,
        "wikiDataId": "Q44381"
    },
    {
        "id": 67816,
        "name": "Victoria",
        "state_id": 101,
        "state_code": "45",
        "state_name": "Victoria",
        "country_id": 135,
        "country_code": "MT",
        "country_name": "Malta",
        "latitude": "36.04444000",
        "longitude": "14.23972000",
        "timezone": null,
        "wikiDataId": "Q752348"
    },
    {
        "id": 67818,
        "name": "Xagħra",
        "state_id": 114,
        "state_code": "61",
        "state_name": "Xagħra",
        "country_id": 135,
        "country_code": "MT",
        "country_name": "Malta",
        "latitude": "36.05000000",
        "longitude": "14.26444000",
        "timezone": null,
        "wikiDataId": "Q605343"
    },
    {
        "id": 67819,
        "name": "Xewkija",
        "state_id": 121,
        "state_code": "62",
        "state_name": "Xewkija",
        "country_id": 135,
        "country_code": "MT",
        "country_name": "Malta",
        "latitude": "36.03278000",
        "longitude": "14.25806000",
        "timezone": null,
        "wikiDataId": "Q919921"
    },
    {
        "id": 67820,
        "name": "Xgħajra",
        "state_id": 81,
        "state_code": "63",
        "state_name": "Xgħajra",
        "country_id": 135,
        "country_code": "MT",
        "country_name": "Malta",
        "latitude": "35.88556000",
        "longitude": "14.54750000",
        "timezone": null,
        "wikiDataId": "Q20923002"
    },
    {
        "id": 67822,
        "name": "Żabbar",
        "state_id": 123,
        "state_code": "64",
        "state_name": "Żabbar",
        "country_id": 135,
        "country_code": "MT",
        "country_name": "Malta",
        "latitude": "35.87611000",
        "longitude": "14.53500000",
        "timezone": null,
        "wikiDataId": "Q20923006"
    },
    {
        "id": 67773,
        "name": "Ħaż-Żebbuġ",
        "state_id": 85,
        "state_code": "65",
        "state_name": "Żebbuġ Gozo",
        "country_id": 135,
        "country_code": "MT",
        "country_name": "Malta",
        "latitude": "35.87194000",
        "longitude": "14.44111000",
        "timezone": null,
        "wikiDataId": "Q44573"
    },
    {
        "id": 67823,
        "name": "Żebbuġ",
        "state_id": 80,
        "state_code": "66",
        "state_name": "Żebbuġ Malta",
        "country_id": 135,
        "country_code": "MT",
        "country_name": "Malta",
        "latitude": "36.07222000",
        "longitude": "14.23583000",
        "timezone": null,
        "wikiDataId": "Q179243"
    },
    {
        "id": 67824,
        "name": "Żejtun",
        "state_id": 135,
        "state_code": "67",
        "state_name": "Żejtun",
        "country_id": 135,
        "country_code": "MT",
        "country_name": "Malta",
        "latitude": "35.85583000",
        "longitude": "14.53306000",
        "timezone": null,
        "wikiDataId": "Q44392"
    },
    {
        "id": 67825,
        "name": "Żurrieq",
        "state_id": 76,
        "state_code": "68",
        "state_name": "Żurrieq",
        "country_id": 135,
        "country_code": "MT",
        "country_name": "Malta",
        "latitude": "35.83111000",
        "longitude": "14.47417000",
        "timezone": null,
        "wikiDataId": "Q44417"
    }
]