[
    {
        "id": 76633,
        "name": "Hentiesbaai",
        "state_id": 43,
        "state_code": "ER",
        "state_name": "Erongo",
        "country_id": 152,
        "country_code": "NA",
        "country_name": "Namibia",
        "latitude": "-22.11667000",
        "longitude": "14.28333000",
        "timezone": null,
        "wikiDataId": "Q1013389"
    },
    {
        "id": 76636,
        "name": "Karibib",
        "state_id": 43,
        "state_code": "ER",
        "state_name": "Erongo",
        "country_id": 152,
        "country_code": "NA",
        "country_name": "Namibia",
        "latitude": "-21.93333000",
        "longitude": "15.83333000",
        "timezone": null,
        "wikiDataId": "Q1348181"
    },
    {
        "id": 76648,
        "name": "Omaruru",
        "state_id": 43,
        "state_code": "ER",
        "state_name": "Erongo",
        "country_id": 152,
        "country_code": "NA",
        "country_name": "Namibia",
        "latitude": "-21.43333000",
        "longitude": "15.93333000",
        "timezone": null,
        "wikiDataId": "Q1896161"
    },
    {
        "id": 76659,
        "name": "Otjimbingwe",
        "state_id": 43,
        "state_code": "ER",
        "state_name": "Erongo",
        "country_id": 152,
        "country_code": "NA",
        "country_name": "Namibia",
        "latitude": "-22.35000000",
        "longitude": "16.13333000",
        "timezone": null,
        "wikiDataId": "Q464050"
    },
    {
        "id": 76666,
        "name": "Swakopmund",
        "state_id": 43,
        "state_code": "ER",
        "state_name": "Erongo",
        "country_id": 152,
        "country_code": "NA",
        "country_name": "Namibia",
        "latitude": "-22.67842000",
        "longitude": "14.52663000",
        "timezone": null,
        "wikiDataId": "Q59698"
    },
    {
        "id": 76667,
        "name": "Swakopmund Constituency",
        "state_id": 43,
        "state_code": "ER",
        "state_name": "Erongo",
        "country_id": 152,
        "country_code": "NA",
        "country_name": "Namibia",
        "latitude": "-22.63199000",
        "longitude": "14.60119000",
        "timezone": null,
        "wikiDataId": "Q3711710"
    },
    {
        "id": 76670,
        "name": "Usakos",
        "state_id": 43,
        "state_code": "ER",
        "state_name": "Erongo",
        "country_id": 152,
        "country_code": "NA",
        "country_name": "Namibia",
        "latitude": "-22.00000000",
        "longitude": "15.60000000",
        "timezone": null,
        "wikiDataId": "Q1457265"
    },
    {
        "id": 76671,
        "name": "Walvis Bay",
        "state_id": 43,
        "state_code": "ER",
        "state_name": "Erongo",
        "country_id": 152,
        "country_code": "NA",
        "country_name": "Namibia",
        "latitude": "-22.95750000",
        "longitude": "14.50528000",
        "timezone": null,
        "wikiDataId": "Q220843"
    },
    {
        "id": 76627,
        "name": "Aranos",
        "state_id": 38,
        "state_code": "HA",
        "state_name": "Hardap",
        "country_id": 152,
        "country_code": "NA",
        "country_name": "Namibia",
        "latitude": "-24.13333000",
        "longitude": "19.11667000",
        "timezone": null,
        "wikiDataId": "Q626040"
    },
    {
        "id": 76634,
        "name": "Hoachanas",
        "state_id": 38,
        "state_code": "HA",
        "state_name": "Hardap",
        "country_id": 152,
        "country_code": "NA",
        "country_name": "Namibia",
        "latitude": "-23.91667000",
        "longitude": "18.05000000",
        "timezone": null,
        "wikiDataId": "Q1621498"
    },
    {
        "id": 76643,
        "name": "Maltahöhe",
        "state_id": 38,
        "state_code": "HA",
        "state_name": "Hardap",
        "country_id": 152,
        "country_code": "NA",
        "country_name": "Namibia",
        "latitude": "-24.83333000",
        "longitude": "16.98333000",
        "timezone": null,
        "wikiDataId": "Q666079"
    },
    {
        "id": 76644,
        "name": "Mariental",
        "state_id": 38,
        "state_code": "HA",
        "state_name": "Hardap",
        "country_id": 152,
        "country_code": "NA",
        "country_name": "Namibia",
        "latitude": "-24.63333000",
        "longitude": "17.96667000",
        "timezone": null,
        "wikiDataId": "Q876166"
    },
    {
        "id": 76663,
        "name": "Rehoboth",
        "state_id": 38,
        "state_code": "HA",
        "state_name": "Hardap",
        "country_id": 152,
        "country_code": "NA",
        "country_name": "Namibia",
        "latitude": "-23.31700000",
        "longitude": "17.09000000",
        "timezone": null,
        "wikiDataId": "Q700050"
    },
    {
        "id": 76629,
        "name": "Bethanie",
        "state_id": 45,
        "state_code": "KA",
        "state_name": "Karas",
        "country_id": 152,
        "country_code": "NA",
        "country_name": "Namibia",
        "latitude": "-26.48333000",
        "longitude": "17.15000000",
        "timezone": null,
        "wikiDataId": "Q251677"
    },
    {
        "id": 76635,
        "name": "Karasburg",
        "state_id": 45,
        "state_code": "KA",
        "state_name": "Karas",
        "country_id": 152,
        "country_code": "NA",
        "country_name": "Namibia",
        "latitude": "-28.01667000",
        "longitude": "18.75000000",
        "timezone": null,
        "wikiDataId": "Q1003328"
    },
    {
        "id": 76639,
        "name": "Keetmanshoop",
        "state_id": 45,
        "state_code": "KA",
        "state_name": "Karas",
        "country_id": 152,
        "country_code": "NA",
        "country_name": "Namibia",
        "latitude": "-26.58333000",
        "longitude": "18.13333000",
        "timezone": null,
        "wikiDataId": "Q160884"
    },
    {
        "id": 76642,
        "name": "Lüderitz",
        "state_id": 45,
        "state_code": "KA",
        "state_name": "Karas",
        "country_id": 152,
        "country_code": "NA",
        "country_name": "Namibia",
        "latitude": "-26.64807000",
        "longitude": "15.15383000",
        "timezone": null,
        "wikiDataId": "Q159325"
    },
    {
        "id": 76655,
        "name": "Oranjemund",
        "state_id": 45,
        "state_code": "KA",
        "state_name": "Karas",
        "country_id": 152,
        "country_code": "NA",
        "country_name": "Namibia",
        "latitude": "-28.55000000",
        "longitude": "16.43333000",
        "timezone": null,
        "wikiDataId": "Q1404518"
    },
    {
        "id": 76668,
        "name": "Tses",
        "state_id": 45,
        "state_code": "KA",
        "state_name": "Karas",
        "country_id": 152,
        "country_code": "NA",
        "country_name": "Namibia",
        "latitude": "-25.88333000",
        "longitude": "18.00000000",
        "timezone": null,
        "wikiDataId": "Q1529444"
    },
    {
        "id": 76672,
        "name": "Warmbad",
        "state_id": 45,
        "state_code": "KA",
        "state_name": "Karas",
        "country_id": 152,
        "country_code": "NA",
        "country_name": "Namibia",
        "latitude": "-28.45000000",
        "longitude": "18.73333000",
        "timezone": null,
        "wikiDataId": "Q479312"
    },
    {
        "id": 76664,
        "name": "Rundu",
        "state_id": 36,
        "state_code": "KE",
        "state_name": "Kavango East",
        "country_id": 152,
        "country_code": "NA",
        "country_name": "Namibia",
        "latitude": "-17.93333000",
        "longitude": "19.76667000",
        "timezone": null,
        "wikiDataId": "Q662291"
    },
    {
        "id": 76638,
        "name": "Katutura",
        "state_id": 44,
        "state_code": "KH",
        "state_name": "Khomas",
        "country_id": 152,
        "country_code": "NA",
        "country_name": "Namibia",
        "latitude": "-22.52306000",
        "longitude": "17.06028000",
        "timezone": null,
        "wikiDataId": "Q864100"
    },
    {
        "id": 76673,
        "name": "Windhoek",
        "state_id": 44,
        "state_code": "KH",
        "state_name": "Khomas",
        "country_id": 152,
        "country_code": "NA",
        "country_name": "Namibia",
        "latitude": "-22.55941000",
        "longitude": "17.08323000",
        "timezone": null,
        "wikiDataId": "Q3935"
    },
    {
        "id": 76630,
        "name": "Epupa Constituency",
        "state_id": 34,
        "state_code": "KU",
        "state_name": "Kunene",
        "country_id": 152,
        "country_code": "NA",
        "country_name": "Namibia",
        "latitude": "-17.00388000",
        "longitude": "13.24825000",
        "timezone": null,
        "wikiDataId": "Q1026511"
    },
    {
        "id": 76640,
        "name": "Khorixas",
        "state_id": 34,
        "state_code": "KU",
        "state_name": "Kunene",
        "country_id": 152,
        "country_code": "NA",
        "country_name": "Namibia",
        "latitude": "-20.36667000",
        "longitude": "14.96667000",
        "timezone": null,
        "wikiDataId": "Q1740681"
    },
    {
        "id": 76641,
        "name": "Khorixas Constituency",
        "state_id": 34,
        "state_code": "KU",
        "state_name": "Kunene",
        "country_id": 152,
        "country_code": "NA",
        "country_name": "Namibia",
        "latitude": "-20.36792000",
        "longitude": "14.95996000",
        "timezone": null,
        "wikiDataId": "Q4122340"
    },
    {
        "id": 76653,
        "name": "Opuwo",
        "state_id": 34,
        "state_code": "KU",
        "state_name": "Kunene",
        "country_id": 152,
        "country_code": "NA",
        "country_name": "Namibia",
        "latitude": "-18.06068000",
        "longitude": "13.83998000",
        "timezone": null,
        "wikiDataId": "Q1024089"
    },
    {
        "id": 76654,
        "name": "Opuwo Constituency",
        "state_id": 34,
        "state_code": "KU",
        "state_name": "Kunene",
        "country_id": 152,
        "country_code": "NA",
        "country_name": "Namibia",
        "latitude": "-18.54247000",
        "longitude": "13.51617000",
        "timezone": null,
        "wikiDataId": "Q3711697"
    },
    {
        "id": 76662,
        "name": "Outjo",
        "state_id": 34,
        "state_code": "KU",
        "state_name": "Kunene",
        "country_id": 152,
        "country_code": "NA",
        "country_name": "Namibia",
        "latitude": "-20.11667000",
        "longitude": "16.15000000",
        "timezone": null,
        "wikiDataId": "Q1704346"
    },
    {
        "id": 76665,
        "name": "Sesfontein Constituency",
        "state_id": 34,
        "state_code": "KU",
        "state_name": "Kunene",
        "country_id": 152,
        "country_code": "NA",
        "country_name": "Namibia",
        "latitude": "-19.56106000",
        "longitude": "13.76530000",
        "timezone": null,
        "wikiDataId": "Q3711708"
    },
    {
        "id": 76657,
        "name": "Oshikango",
        "state_id": 40,
        "state_code": "OW",
        "state_name": "Ohangwena",
        "country_id": 152,
        "country_code": "NA",
        "country_name": "Namibia",
        "latitude": "-17.40000000",
        "longitude": "15.88333000",
        "timezone": null,
        "wikiDataId": "Q2033319"
    },
    {
        "id": 76631,
        "name": "Gobabis",
        "state_id": 41,
        "state_code": "OH",
        "state_name": "Omaheke",
        "country_id": 152,
        "country_code": "NA",
        "country_name": "Namibia",
        "latitude": "-22.45000000",
        "longitude": "18.96667000",
        "timezone": null,
        "wikiDataId": "Q1000609"
    },
    {
        "id": 76646,
        "name": "Okahao",
        "state_id": 39,
        "state_code": "OS",
        "state_name": "Omusati",
        "country_id": 152,
        "country_code": "NA",
        "country_name": "Namibia",
        "latitude": "-17.88758000",
        "longitude": "15.06677000",
        "timezone": null,
        "wikiDataId": "Q2017063"
    },
    {
        "id": 76651,
        "name": "Ongandjera",
        "state_id": 39,
        "state_code": "OS",
        "state_name": "Omusati",
        "country_id": 152,
        "country_code": "NA",
        "country_name": "Namibia",
        "latitude": "-17.88333000",
        "longitude": "15.06667000",
        "timezone": null,
        "wikiDataId": "Q3352721"
    },
    {
        "id": 76661,
        "name": "Outapi",
        "state_id": 39,
        "state_code": "OS",
        "state_name": "Omusati",
        "country_id": 152,
        "country_code": "NA",
        "country_name": "Namibia",
        "latitude": "-17.50000000",
        "longitude": "14.98333000",
        "timezone": null,
        "wikiDataId": "Q1758215"
    },
    {
        "id": 76650,
        "name": "Ondangwa",
        "state_id": 37,
        "state_code": "ON",
        "state_name": "Oshana",
        "country_id": 152,
        "country_code": "NA",
        "country_name": "Namibia",
        "latitude": "-17.91667000",
        "longitude": "15.95000000",
        "timezone": null,
        "wikiDataId": "Q2023773"
    },
    {
        "id": 76652,
        "name": "Ongwediva",
        "state_id": 37,
        "state_code": "ON",
        "state_name": "Oshana",
        "country_id": 152,
        "country_code": "NA",
        "country_name": "Namibia",
        "latitude": "-17.78333000",
        "longitude": "15.76667000",
        "timezone": null,
        "wikiDataId": "Q841557"
    },
    {
        "id": 76656,
        "name": "Oshakati",
        "state_id": 37,
        "state_code": "ON",
        "state_name": "Oshana",
        "country_id": 152,
        "country_code": "NA",
        "country_name": "Namibia",
        "latitude": "-17.78833000",
        "longitude": "15.70436000",
        "timezone": null,
        "wikiDataId": "Q985622"
    },
    {
        "id": 76649,
        "name": "Omuthiya",
        "state_id": 42,
        "state_code": "OT",
        "state_name": "Oshikoto",
        "country_id": 152,
        "country_code": "NA",
        "country_name": "Namibia",
        "latitude": "-18.36463000",
        "longitude": "16.58146000",
        "timezone": null,
        "wikiDataId": "Q1005584"
    },
    {
        "id": 76669,
        "name": "Tsumeb",
        "state_id": 42,
        "state_code": "OT",
        "state_name": "Oshikoto",
        "country_id": 152,
        "country_code": "NA",
        "country_name": "Namibia",
        "latitude": "-19.23333000",
        "longitude": "17.71667000",
        "timezone": null,
        "wikiDataId": "Q639467"
    },
    {
        "id": 76632,
        "name": "Grootfontein",
        "state_id": 46,
        "state_code": "OD",
        "state_name": "Otjozondjupa",
        "country_id": 152,
        "country_code": "NA",
        "country_name": "Namibia",
        "latitude": "-19.56667000",
        "longitude": "18.11667000",
        "timezone": null,
        "wikiDataId": "Q986336"
    },
    {
        "id": 76645,
        "name": "Okahandja",
        "state_id": 46,
        "state_code": "OD",
        "state_name": "Otjozondjupa",
        "country_id": 152,
        "country_code": "NA",
        "country_name": "Namibia",
        "latitude": "-21.98333000",
        "longitude": "16.91667000",
        "timezone": null,
        "wikiDataId": "Q597491"
    },
    {
        "id": 76647,
        "name": "Okakarara",
        "state_id": 46,
        "state_code": "OD",
        "state_name": "Otjozondjupa",
        "country_id": 152,
        "country_code": "NA",
        "country_name": "Namibia",
        "latitude": "-20.58333000",
        "longitude": "17.43333000",
        "timezone": null,
        "wikiDataId": "Q992077"
    },
    {
        "id": 76658,
        "name": "Otavi",
        "state_id": 46,
        "state_code": "OD",
        "state_name": "Otjozondjupa",
        "country_id": 152,
        "country_code": "NA",
        "country_name": "Namibia",
        "latitude": "-19.65000000",
        "longitude": "17.33333000",
        "timezone": null,
        "wikiDataId": "Q1013965"
    },
    {
        "id": 76660,
        "name": "Otjiwarongo",
        "state_id": 46,
        "state_code": "OD",
        "state_name": "Otjozondjupa",
        "country_id": 152,
        "country_code": "NA",
        "country_name": "Namibia",
        "latitude": "-20.46369000",
        "longitude": "16.64772000",
        "timezone": null,
        "wikiDataId": "Q993149"
    },
    {
        "id": 76628,
        "name": "Bagani",
        "state_id": 47,
        "state_code": "CA",
        "state_name": "Zambezi",
        "country_id": 152,
        "country_code": "NA",
        "country_name": "Namibia",
        "latitude": "-18.11065000",
        "longitude": "21.61645000",
        "timezone": null,
        "wikiDataId": "Q799830"
    },
    {
        "id": 76637,
        "name": "Katima Mulilo",
        "state_id": 47,
        "state_code": "CA",
        "state_name": "Zambezi",
        "country_id": 152,
        "country_code": "NA",
        "country_name": "Namibia",
        "latitude": "-17.50000000",
        "longitude": "24.26667000",
        "timezone": null,
        "wikiDataId": "Q864100"
    }
]