[
    {
        "id": 79707,
        "name": "Chitwan",
        "state_id": 2073,
        "state_code": "P3",
        "state_name": "Bagmati",
        "country_id": 154,
        "country_code": "NP",
        "country_name": "Nepal",
        "latitude": "27.61953620",
        "longitude": "84.02793400",
        "timezone": null,
        "wikiDataId": "Q28583"
    },
    {
        "id": 79713,
        "name": "Dhading",
        "state_id": 2073,
        "state_code": "P3",
        "state_name": "Bagmati",
        "country_id": 154,
        "country_code": "NP",
        "country_name": "Nepal",
        "latitude": "28.00725840",
        "longitude": "84.28464170",
        "timezone": null,
        "wikiDataId": "Q28454"
    },
    {
        "id": 79722,
        "name": "Dolakha",
        "state_id": 2073,
        "state_code": "P3",
        "state_name": "Bagmati",
        "country_id": 154,
        "country_code": "NP",
        "country_name": "Nepal",
        "latitude": "27.82371900",
        "longitude": "85.55991890",
        "timezone": null,
        "wikiDataId": "Q28621"
    },
    {
        "id": 79726,
        "name": "Kathmandu",
        "state_id": 2073,
        "state_code": "P3",
        "state_name": "Bagmati",
        "country_id": 154,
        "country_code": "NP",
        "country_name": "Nepal",
        "latitude": "27.70903020",
        "longitude": "85.28493270",
        "timezone": null,
        "wikiDataId": "Q797472"
    },
    {
        "id": 79728,
        "name": "Kavrepalanchok",
        "state_id": 2073,
        "state_code": "P3",
        "state_name": "Bagmati",
        "country_id": 154,
        "country_code": "NP",
        "country_name": "Nepal",
        "latitude": "27.54539810",
        "longitude": "85.30416730",
        "timezone": null,
        "wikiDataId": "Q28569"
    },
    {
        "id": 79729,
        "name": "Lalitpur",
        "state_id": 2073,
        "state_code": "P3",
        "state_name": "Bagmati",
        "country_id": 154,
        "country_code": "NP",
        "country_name": "Nepal",
        "latitude": "27.54820230",
        "longitude": "85.04201470",
        "timezone": null,
        "wikiDataId": "Q1108338"
    },
    {
        "id": 79732,
        "name": "Makwanpur",
        "state_id": 2073,
        "state_code": "P3",
        "state_name": "Bagmati",
        "country_id": 154,
        "country_code": "NP",
        "country_name": "Nepal",
        "latitude": "27.43720820",
        "longitude": "84.75780400",
        "timezone": null,
        "wikiDataId": "Q28174"
    },
    {
        "id": 79733,
        "name": "Nuwakot",
        "state_id": 2073,
        "state_code": "P3",
        "state_name": "Bagmati",
        "country_id": 154,
        "country_code": "NP",
        "country_name": "Nepal",
        "latitude": "27.92205490",
        "longitude": "84.05968460",
        "timezone": null,
        "wikiDataId": "Q28430"
    },
    {
        "id": 79735,
        "name": "Ramechhap",
        "state_id": 2073,
        "state_code": "P3",
        "state_name": "Bagmati",
        "country_id": 154,
        "country_code": "NP",
        "country_name": "Nepal",
        "latitude": "27.53749850",
        "longitude": "85.85535100",
        "timezone": null,
        "wikiDataId": "Q28611"
    },
    {
        "id": 79737,
        "name": "Rasuwa",
        "state_id": 2073,
        "state_code": "P3",
        "state_name": "Bagmati",
        "country_id": 154,
        "country_code": "NP",
        "country_name": "Nepal",
        "latitude": "28.17177410",
        "longitude": "84.27823120",
        "timezone": null,
        "wikiDataId": "Q28605"
    },
    {
        "id": 79740,
        "name": "Sindhuli",
        "state_id": 2073,
        "state_code": "P3",
        "state_name": "Bagmati",
        "country_id": 154,
        "country_code": "NP",
        "country_name": "Nepal",
        "latitude": "27.18469330",
        "longitude": "85.24437150",
        "timezone": null,
        "wikiDataId": "Q28586"
    },
    {
        "id": 79742,
        "name": "Sindhupalchok",
        "state_id": 2073,
        "state_code": "P3",
        "state_name": "Bagmati",
        "country_id": 154,
        "country_code": "NP",
        "country_name": "Nepal",
        "latitude": "27.90711960",
        "longitude": "85.42360670",
        "timezone": null,
        "wikiDataId": "Q28445"
    },
    {
        "id": 79706,
        "name": "Baglung ",
        "state_id": 2069,
        "state_code": "P4",
        "state_name": "Gandaki",
        "country_id": 154,
        "country_code": "NP",
        "country_name": "Nepal",
        "latitude": "28.27711640",
        "longitude": "83.54353530",
        "timezone": null,
        "wikiDataId": "Q28162"
    },
    {
        "id": 79709,
        "name": "Gorkha ",
        "state_id": 2069,
        "state_code": "P4",
        "state_name": "Gandaki",
        "country_id": 154,
        "country_code": "NP",
        "country_name": "Nepal",
        "latitude": "28.27346270",
        "longitude": "84.14877700",
        "timezone": null,
        "wikiDataId": "Q28476"
    },
    {
        "id": 79711,
        "name": "Kaski",
        "state_id": 2069,
        "state_code": "P4",
        "state_name": "Gandaki",
        "country_id": 154,
        "country_code": "NP",
        "country_name": "Nepal",
        "latitude": "28.34572360",
        "longitude": "83.65987310",
        "timezone": null,
        "wikiDataId": "Q28436"
    },
    {
        "id": 79720,
        "name": "Lamjung ",
        "state_id": 2069,
        "state_code": "P4",
        "state_name": "Gandaki",
        "country_id": 154,
        "country_code": "NP",
        "country_name": "Nepal",
        "latitude": "28.28305670",
        "longitude": "84.11103120",
        "timezone": null,
        "wikiDataId": "Q29275"
    },
    {
        "id": 79721,
        "name": "Manang ",
        "state_id": 2069,
        "state_code": "P4",
        "state_name": "Gandaki",
        "country_id": 154,
        "country_code": "NP",
        "country_name": "Nepal",
        "latitude": "28.66872810",
        "longitude": "82.99681360",
        "timezone": null,
        "wikiDataId": "Q28434"
    },
    {
        "id": 79730,
        "name": "Mustang ",
        "state_id": 2069,
        "state_code": "P4",
        "state_name": "Gandaki",
        "country_id": 154,
        "country_code": "NP",
        "country_name": "Nepal",
        "latitude": "28.94399870",
        "longitude": "82.68067390",
        "timezone": null,
        "wikiDataId": "Q2239575"
    },
    {
        "id": 79731,
        "name": "Myagdi ",
        "state_id": 2069,
        "state_code": "P4",
        "state_name": "Gandaki",
        "country_id": 154,
        "country_code": "NP",
        "country_name": "Nepal",
        "latitude": "28.54609860",
        "longitude": "83.15597750",
        "timezone": null,
        "wikiDataId": "Q28624"
    },
    {
        "id": 79736,
        "name": "Nawalpur ",
        "state_id": 2069,
        "state_code": "P4",
        "state_name": "Gandaki",
        "country_id": 154,
        "country_code": "NP",
        "country_name": "Nepal",
        "latitude": "27.65319650",
        "longitude": "83.72442870",
        "timezone": null,
        "wikiDataId": "Q50822475"
    },
    {
        "id": 79738,
        "name": "Parbat ",
        "state_id": 2069,
        "state_code": "P4",
        "state_name": "Gandaki",
        "country_id": 154,
        "country_code": "NP",
        "country_name": "Nepal",
        "latitude": "28.20276430",
        "longitude": "83.36121860",
        "timezone": null,
        "wikiDataId": "Q28421"
    },
    {
        "id": 79739,
        "name": "Syangja ",
        "state_id": 2069,
        "state_code": "P4",
        "state_name": "Gandaki",
        "country_id": 154,
        "country_code": "NP",
        "country_name": "Nepal",
        "latitude": "28.04509710",
        "longitude": "83.40612700",
        "timezone": null,
        "wikiDataId": "Q28448"
    },
    {
        "id": 79744,
        "name": "Tanahun ",
        "state_id": 2069,
        "state_code": "P4",
        "state_name": "Gandaki",
        "country_id": 154,
        "country_code": "NP",
        "country_name": "Nepal",
        "latitude": "27.93565560",
        "longitude": "83.91793110",
        "timezone": null,
        "wikiDataId": "Q28446"
    },
    {
        "id": 79717,
        "name": "Dailekh ",
        "state_id": 2068,
        "state_code": "P6",
        "state_name": "Karnali",
        "country_id": 154,
        "country_code": "NP",
        "country_name": "Nepal",
        "latitude": "28.88480530",
        "longitude": "81.33871970",
        "timezone": null,
        "wikiDataId": "Q28443"
    },
    {
        "id": 79719,
        "name": "Dolpa ",
        "state_id": 2068,
        "state_code": "P6",
        "state_name": "Karnali",
        "country_id": 154,
        "country_code": "NP",
        "country_name": "Nepal",
        "latitude": "29.21372390",
        "longitude": "82.37667750",
        "timezone": null,
        "wikiDataId": "Q28610"
    },
    {
        "id": 79724,
        "name": "Humla ",
        "state_id": 2068,
        "state_code": "P6",
        "state_name": "Karnali",
        "country_id": 154,
        "country_code": "NP",
        "country_name": "Nepal",
        "latitude": "30.02557030",
        "longitude": "81.21732030",
        "timezone": null,
        "wikiDataId": "Q28623"
    },
    {
        "id": 79741,
        "name": "Jajarkot ",
        "state_id": 2068,
        "state_code": "P6",
        "state_name": "Karnali",
        "country_id": 154,
        "country_code": "NP",
        "country_name": "Nepal",
        "latitude": "28.86955260",
        "longitude": "81.87033700",
        "timezone": null,
        "wikiDataId": "Q29430"
    },
    {
        "id": 79760,
        "name": "Jumla",
        "state_id": 2068,
        "state_code": "P6",
        "state_name": "Karnali",
        "country_id": 154,
        "country_code": "NP",
        "country_name": "Nepal",
        "latitude": "29.23886510",
        "longitude": "81.88899740",
        "timezone": null,
        "wikiDataId": "Q28619"
    },
    {
        "id": 153801,
        "name": "Kalikot ",
        "state_id": 2068,
        "state_code": "P6",
        "state_name": "Karnali",
        "country_id": 154,
        "country_code": "NP",
        "country_name": "Nepal",
        "latitude": "29.21645520",
        "longitude": "81.41396150",
        "timezone": null,
        "wikiDataId": "Q28102"
    },
    {
        "id": 153802,
        "name": "Mugu",
        "state_id": 2068,
        "state_code": "P6",
        "state_name": "Karnali",
        "country_id": 154,
        "country_code": "NP",
        "country_name": "Nepal",
        "latitude": "29.67782880",
        "longitude": "81.63611370",
        "timezone": null,
        "wikiDataId": "Q28593"
    },
    {
        "id": 153803,
        "name": "Salyan ",
        "state_id": 2068,
        "state_code": "P6",
        "state_name": "Karnali",
        "country_id": 154,
        "country_code": "NP",
        "country_name": "Nepal",
        "latitude": "28.40693490",
        "longitude": "81.76058940",
        "timezone": null,
        "wikiDataId": "Q28571"
    },
    {
        "id": 153804,
        "name": "Surkhet ",
        "state_id": 2068,
        "state_code": "P6",
        "state_name": "Karnali",
        "country_id": 154,
        "country_code": "NP",
        "country_name": "Nepal",
        "latitude": "28.65735870",
        "longitude": "80.85115200",
        "timezone": null,
        "wikiDataId": "Q28589"
    },
    {
        "id": 153805,
        "name": "Western Rukum",
        "state_id": 2068,
        "state_code": "P6",
        "state_name": "Karnali",
        "country_id": 154,
        "country_code": "NP",
        "country_name": "Nepal",
        "latitude": "28.75665210",
        "longitude": "82.11273090",
        "timezone": null,
        "wikiDataId": "Q53018063"
    },
    {
        "id": 79710,
        "name": "Bhojpur",
        "state_id": 2066,
        "state_code": "P1",
        "state_name": "Koshi",
        "country_id": 154,
        "country_code": "NP",
        "country_name": "Nepal",
        "latitude": "27.16432030",
        "longitude": "86.97399080",
        "timezone": null,
        "wikiDataId": "Q2284812"
    },
    {
        "id": 79712,
        "name": "Dhankuta",
        "state_id": 2066,
        "state_code": "P1",
        "state_name": "Koshi",
        "country_id": 154,
        "country_code": "NP",
        "country_name": "Nepal",
        "latitude": "26.98445610",
        "longitude": "87.24311290",
        "timezone": null,
        "wikiDataId": "Q28081"
    },
    {
        "id": 79718,
        "name": "Ilam",
        "state_id": 2066,
        "state_code": "P1",
        "state_name": "Koshi",
        "country_id": 154,
        "country_code": "NP",
        "country_name": "Nepal",
        "latitude": "26.89856010",
        "longitude": "87.88160070",
        "timezone": null,
        "wikiDataId": "Q29016"
    },
    {
        "id": 79727,
        "name": "Jhapa",
        "state_id": 2066,
        "state_code": "P1",
        "state_name": "Koshi",
        "country_id": 154,
        "country_code": "NP",
        "country_name": "Nepal",
        "latitude": "26.58377460",
        "longitude": "87.58265500",
        "timezone": null,
        "wikiDataId": "Q28160"
    },
    {
        "id": 79734,
        "name": "Khotang",
        "state_id": 2066,
        "state_code": "P1",
        "state_name": "Koshi",
        "country_id": 154,
        "country_code": "NP",
        "country_name": "Nepal",
        "latitude": "27.15640300",
        "longitude": "86.37601470",
        "timezone": null,
        "wikiDataId": "Q28599"
    },
    {
        "id": 79745,
        "name": "Morang",
        "state_id": 2066,
        "state_code": "P1",
        "state_name": "Koshi",
        "country_id": 154,
        "country_code": "NP",
        "country_name": "Nepal",
        "latitude": "26.61072710",
        "longitude": "87.13496260",
        "timezone": null,
        "wikiDataId": "Q28083"
    },
    {
        "id": 79756,
        "name": "Okhaldhunga",
        "state_id": 2066,
        "state_code": "P1",
        "state_name": "Koshi",
        "country_id": 154,
        "country_code": "NP",
        "country_name": "Nepal",
        "latitude": "27.33668120",
        "longitude": "86.11507710",
        "timezone": null,
        "wikiDataId": "Q29026"
    },
    {
        "id": 153792,
        "name": "Panchthar",
        "state_id": 2066,
        "state_code": "P1",
        "state_name": "Koshi",
        "country_id": 154,
        "country_code": "NP",
        "country_name": "Nepal",
        "latitude": "27.14929510",
        "longitude": "87.45396980",
        "timezone": null,
        "wikiDataId": "Q28155"
    },
    {
        "id": 153793,
        "name": "Sankhuwasabha ",
        "state_id": 2066,
        "state_code": "P1",
        "state_name": "Koshi",
        "country_id": 154,
        "country_code": "NP",
        "country_name": "Nepal",
        "latitude": "27.54665800",
        "longitude": "86.64912720",
        "timezone": null,
        "wikiDataId": "Q28596"
    },
    {
        "id": 153794,
        "name": "Solukhumbu",
        "state_id": 2066,
        "state_code": "P1",
        "state_name": "Koshi",
        "country_id": 154,
        "country_code": "NP",
        "country_name": "Nepal",
        "latitude": "27.72514640",
        "longitude": "86.02324040",
        "timezone": null,
        "wikiDataId": "Q28363"
    },
    {
        "id": 153795,
        "name": "Sunsari",
        "state_id": 2066,
        "state_code": "P1",
        "state_name": "Koshi",
        "country_id": 154,
        "country_code": "NP",
        "country_name": "Nepal",
        "latitude": "26.64116460",
        "longitude": "86.79919520",
        "timezone": null,
        "wikiDataId": "Q28157"
    },
    {
        "id": 153796,
        "name": "Taplejung",
        "state_id": 2066,
        "state_code": "P1",
        "state_name": "Koshi",
        "country_id": 154,
        "country_code": "NP",
        "country_name": "Nepal",
        "latitude": "27.61014090",
        "longitude": "87.16355390",
        "timezone": null,
        "wikiDataId": "Q28590"
    },
    {
        "id": 153797,
        "name": "Terhathum",
        "state_id": 2066,
        "state_code": "P1",
        "state_name": "Koshi",
        "country_id": 154,
        "country_code": "NP",
        "country_name": "Nepal",
        "latitude": "27.13268960",
        "longitude": "87.40691430",
        "timezone": null,
        "wikiDataId": "Q28585"
    },
    {
        "id": 153798,
        "name": "Udayapur",
        "state_id": 2066,
        "state_code": "P1",
        "state_name": "Koshi",
        "country_id": 154,
        "country_code": "NP",
        "country_name": "Nepal",
        "latitude": "26.93274070",
        "longitude": "86.00264640",
        "timezone": null,
        "wikiDataId": "Q28582"
    },
    {
        "id": 79708,
        "name": "Arghakhanchi ",
        "state_id": 2067,
        "state_code": "P5",
        "state_name": "Lumbini",
        "country_id": 154,
        "country_code": "NP",
        "country_name": "Nepal",
        "latitude": "27.93234540",
        "longitude": "82.70966110",
        "timezone": null,
        "wikiDataId": "Q28432"
    },
    {
        "id": 79714,
        "name": "Banke",
        "state_id": 2067,
        "state_code": "P5",
        "state_name": "Lumbini",
        "country_id": 154,
        "country_code": "NP",
        "country_name": "Nepal",
        "latitude": "28.09593710",
        "longitude": "81.51662830",
        "timezone": null,
        "wikiDataId": "Q28447"
    },
    {
        "id": 79715,
        "name": "Bardiya ",
        "state_id": 2067,
        "state_code": "P5",
        "state_name": "Lumbini",
        "country_id": 154,
        "country_code": "NP",
        "country_name": "Nepal",
        "latitude": "28.37201670",
        "longitude": "81.08316830",
        "timezone": null,
        "wikiDataId": "Q28458"
    },
    {
        "id": 79716,
        "name": "Dang ",
        "state_id": 2067,
        "state_code": "P5",
        "state_name": "Lumbini",
        "country_id": 154,
        "country_code": "NP",
        "country_name": "Nepal",
        "latitude": "27.97887990",
        "longitude": "82.46841760",
        "timezone": null,
        "wikiDataId": "Q28066"
    },
    {
        "id": 79723,
        "name": "Eastern Rukum",
        "state_id": 2067,
        "state_code": "P5",
        "state_name": "Lumbini",
        "country_id": 154,
        "country_code": "NP",
        "country_name": "Nepal",
        "latitude": "28.67248040",
        "longitude": "82.48940030",
        "timezone": null,
        "wikiDataId": "Q51844688"
    },
    {
        "id": 79725,
        "name": "Gulmi ",
        "state_id": 2067,
        "state_code": "P5",
        "state_name": "Lumbini",
        "country_id": 154,
        "country_code": "NP",
        "country_name": "Nepal",
        "latitude": "28.09597820",
        "longitude": "82.98379720",
        "timezone": null,
        "wikiDataId": "Q28572"
    },
    {
        "id": 79748,
        "name": "Kapilvastu ",
        "state_id": 2067,
        "state_code": "P5",
        "state_name": "Lumbini",
        "country_id": 154,
        "country_code": "NP",
        "country_name": "Nepal",
        "latitude": "27.54506960",
        "longitude": "82.97552520",
        "timezone": null,
        "wikiDataId": "Q30610827"
    },
    {
        "id": 79752,
        "name": "Nawalparasi (West of Bardaghat Susta)",
        "state_id": 2067,
        "state_code": "P5",
        "state_name": "Lumbini",
        "country_id": 154,
        "country_code": "NP",
        "country_name": "Nepal",
        "latitude": "27.51977900",
        "longitude": "83.40494810",
        "timezone": null,
        "wikiDataId": "Q28588"
    },
    {
        "id": 79757,
        "name": "Palpa ",
        "state_id": 2067,
        "state_code": "P5",
        "state_name": "Lumbini",
        "country_id": 154,
        "country_code": "NP",
        "country_name": "Nepal",
        "latitude": "27.81068740",
        "longitude": "83.30000220",
        "timezone": null,
        "wikiDataId": "Q28440"
    },
    {
        "id": 79758,
        "name": "Pyuthan ",
        "state_id": 2067,
        "state_code": "P5",
        "state_name": "Lumbini",
        "country_id": 154,
        "country_code": "NP",
        "country_name": "Nepal",
        "latitude": "28.10805440",
        "longitude": "82.78532440",
        "timezone": null,
        "wikiDataId": "Q28094"
    },
    {
        "id": 153799,
        "name": "Rolpa ",
        "state_id": 2067,
        "state_code": "P5",
        "state_name": "Lumbini",
        "country_id": 154,
        "country_code": "NP",
        "country_name": "Nepal",
        "latitude": "28.32573400",
        "longitude": "82.32376150",
        "timezone": null,
        "wikiDataId": "Q28597"
    },
    {
        "id": 153800,
        "name": "Rupandehi ",
        "state_id": 2067,
        "state_code": "P5",
        "state_name": "Lumbini",
        "country_id": 154,
        "country_code": "NP",
        "country_name": "Nepal",
        "latitude": "27.54931420",
        "longitude": "83.08930670",
        "timezone": null,
        "wikiDataId": "Q28438"
    },
    {
        "id": 153809,
        "name": "Bara ",
        "state_id": 5240,
        "state_code": "P2",
        "state_name": "Madhesh",
        "country_id": 154,
        "country_code": "NP",
        "country_name": "Nepal",
        "latitude": "27.10766310",
        "longitude": "84.73878940",
        "timezone": null,
        "wikiDataId": "Q28608"
    },
    {
        "id": 153807,
        "name": "Dhanusha ",
        "state_id": 5240,
        "state_code": "P2",
        "state_name": "Madhesh",
        "country_id": 154,
        "country_code": "NP",
        "country_name": "Nepal",
        "latitude": "26.85112570",
        "longitude": "85.72433070",
        "timezone": null,
        "wikiDataId": "Q29036"
    },
    {
        "id": 153813,
        "name": "Mahottari ",
        "state_id": 5240,
        "state_code": "P2",
        "state_name": "Madhesh",
        "country_id": 154,
        "country_code": "NP",
        "country_name": "Nepal",
        "latitude": "26.88439340",
        "longitude": "85.21963240",
        "timezone": null,
        "wikiDataId": "Q28618"
    },
    {
        "id": 153814,
        "name": "Parsa ",
        "state_id": 5240,
        "state_code": "P2",
        "state_name": "Madhesh",
        "country_id": 154,
        "country_code": "NP",
        "country_name": "Nepal",
        "latitude": "27.21960860",
        "longitude": "83.54541570",
        "timezone": null,
        "wikiDataId": "Q28625"
    },
    {
        "id": 153810,
        "name": "Rautahat ",
        "state_id": 5240,
        "state_code": "P2",
        "state_name": "Madhesh",
        "country_id": 154,
        "country_code": "NP",
        "country_name": "Nepal",
        "latitude": "26.98892410",
        "longitude": "85.00379450",
        "timezone": null,
        "wikiDataId": "Q28098"
    },
    {
        "id": 153811,
        "name": "Saptari ",
        "state_id": 5240,
        "state_code": "P2",
        "state_name": "Madhesh",
        "country_id": 154,
        "country_code": "NP",
        "country_name": "Nepal",
        "latitude": "26.60706670",
        "longitude": "86.42052270",
        "timezone": null,
        "wikiDataId": "Q28613"
    },
    {
        "id": 153808,
        "name": "Sarlahi ",
        "state_id": 5240,
        "state_code": "P2",
        "state_name": "Madhesh",
        "country_id": 154,
        "country_code": "NP",
        "country_name": "Nepal",
        "latitude": "26.96861190",
        "longitude": "85.23906480",
        "timezone": null,
        "wikiDataId": "Q28074"
    },
    {
        "id": 153812,
        "name": "Siraha ",
        "state_id": 5240,
        "state_code": "P2",
        "state_name": "Madhesh",
        "country_id": 154,
        "country_code": "NP",
        "country_name": "Nepal",
        "latitude": "26.74287390",
        "longitude": "86.01304490",
        "timezone": null,
        "wikiDataId": "Q28088"
    },
    {
        "id": 153815,
        "name": "Achham ",
        "state_id": 5241,
        "state_code": "P7",
        "state_name": "Sudurpashchim",
        "country_id": 154,
        "country_code": "NP",
        "country_name": "Nepal",
        "latitude": "29.06759620",
        "longitude": "80.97452850",
        "timezone": null,
        "wikiDataId": "Q28426"
    },
    {
        "id": 153816,
        "name": "Baitadi ",
        "state_id": 5241,
        "state_code": "P7",
        "state_name": "Sudurpashchim",
        "country_id": 154,
        "country_code": "NP",
        "country_name": "Nepal",
        "latitude": "29.50832630",
        "longitude": "80.24534200",
        "timezone": null,
        "wikiDataId": "Q28076"
    },
    {
        "id": 153817,
        "name": "Bajhang ",
        "state_id": 5241,
        "state_code": "P7",
        "state_name": "Sudurpashchim",
        "country_id": 154,
        "country_code": "NP",
        "country_name": "Nepal",
        "latitude": "29.72211100",
        "longitude": "80.49591420",
        "timezone": null,
        "wikiDataId": "Q28592"
    },
    {
        "id": 153818,
        "name": "Bajura ",
        "state_id": 5241,
        "state_code": "P7",
        "state_name": "Sudurpashchim",
        "country_id": 154,
        "country_code": "NP",
        "country_name": "Nepal",
        "latitude": "29.61008120",
        "longitude": "80.82948020",
        "timezone": null,
        "wikiDataId": "Q28071"
    },
    {
        "id": 153819,
        "name": "Dadeldhura ",
        "state_id": 5241,
        "state_code": "P7",
        "state_name": "Sudurpashchim",
        "country_id": 154,
        "country_code": "NP",
        "country_name": "Nepal",
        "latitude": "29.20934090",
        "longitude": "80.15536460",
        "timezone": null,
        "wikiDataId": "Q28594"
    },
    {
        "id": 153820,
        "name": "Darchula ",
        "state_id": 5241,
        "state_code": "P7",
        "state_name": "Sudurpashchim",
        "country_id": 154,
        "country_code": "NP",
        "country_name": "Nepal",
        "latitude": "29.91273330",
        "longitude": "80.79371590",
        "timezone": null,
        "wikiDataId": "Q28601"
    },
    {
        "id": 153821,
        "name": "Doti ",
        "state_id": 5241,
        "state_code": "P7",
        "state_name": "Sudurpashchim",
        "country_id": 154,
        "country_code": "NP",
        "country_name": "Nepal",
        "latitude": "29.18833610",
        "longitude": "80.52682610",
        "timezone": null,
        "wikiDataId": "Q28600"
    },
    {
        "id": 153822,
        "name": "Kailali ",
        "state_id": 5241,
        "state_code": "P7",
        "state_name": "Sudurpashchim",
        "country_id": 154,
        "country_code": "NP",
        "country_name": "Nepal",
        "latitude": "28.73090610",
        "longitude": "80.21847770",
        "timezone": null,
        "wikiDataId": "Q28153"
    },
    {
        "id": 153823,
        "name": "Kanchanpur ",
        "state_id": 5241,
        "state_code": "P7",
        "state_name": "Sudurpashchim",
        "country_id": 154,
        "country_code": "NP",
        "country_name": "Nepal",
        "latitude": "28.84394510",
        "longitude": "80.28330710",
        "timezone": null,
        "wikiDataId": "Q28981"
    }
]