[
    {
        "id": 79930,
        "name": "Bahlā’",
        "state_id": 3058,
        "state_code": "DA",
        "state_name": "Ad Dakhiliyah",
        "country_id": 166,
        "country_code": "OM",
        "country_name": "Oman",
        "latitude": "22.97886000",
        "longitude": "57.30470000",
        "timezone": null,
        "wikiDataId": "Q49345172"
    },
    {
        "id": 79934,
        "name": "Bidbid",
        "state_id": 3058,
        "state_code": "DA",
        "state_name": "Ad Dakhiliyah",
        "country_id": 166,
        "country_code": "OM",
        "country_name": "Oman",
        "latitude": "23.40787000",
        "longitude": "58.12830000",
        "timezone": null,
        "wikiDataId": "Q2892151"
    },
    {
        "id": 79937,
        "name": "Izkī",
        "state_id": 3058,
        "state_code": "DA",
        "state_name": "Ad Dakhiliyah",
        "country_id": 166,
        "country_code": "OM",
        "country_name": "Oman",
        "latitude": "22.93333000",
        "longitude": "57.76667000",
        "timezone": null,
        "wikiDataId": "Q2709635"
    },
    {
        "id": 79942,
        "name": "Nizwá",
        "state_id": 3058,
        "state_code": "DA",
        "state_name": "Ad Dakhiliyah",
        "country_id": 166,
        "country_code": "OM",
        "country_name": "Oman",
        "latitude": "22.93333000",
        "longitude": "57.53333000",
        "timezone": null,
        "wikiDataId": "Q1915327"
    },
    {
        "id": 79948,
        "name": "Sufālat Samā’il",
        "state_id": 3058,
        "state_code": "DA",
        "state_name": "Ad Dakhiliyah",
        "country_id": 166,
        "country_code": "OM",
        "country_name": "Oman",
        "latitude": "23.31667000",
        "longitude": "58.01667000",
        "timezone": null,
        "wikiDataId": "Q943270"
    },
    {
        "id": 79953,
        "name": "‘Ibrī",
        "state_id": 3047,
        "state_code": "ZA",
        "state_name": "Ad Dhahirah",
        "country_id": 166,
        "country_code": "OM",
        "country_name": "Oman",
        "latitude": "23.22573000",
        "longitude": "56.51572000",
        "timezone": null,
        "wikiDataId": "Q225376"
    },
    {
        "id": 79950,
        "name": "Yanqul",
        "state_id": 3047,
        "state_code": "ZA",
        "state_name": "Ad Dhahirah",
        "country_id": 166,
        "country_code": "OM",
        "country_name": "Oman",
        "latitude": "23.58645000",
        "longitude": "56.53969000",
        "timezone": null,
        "wikiDataId": "Q737270"
    },
    {
        "id": 79928,
        "name": "Al Khābūrah",
        "state_id": 3048,
        "state_code": "BS",
        "state_name": "Al Batinah North",
        "country_id": 166,
        "country_code": "OM",
        "country_name": "Oman",
        "latitude": "23.97144000",
        "longitude": "57.09313000",
        "timezone": null,
        "wikiDataId": "Q8032610"
    },
    {
        "id": 79929,
        "name": "As Suwayq",
        "state_id": 3048,
        "state_code": "BS",
        "state_name": "Al Batinah North",
        "country_id": 166,
        "country_code": "OM",
        "country_name": "Oman",
        "latitude": "23.84944000",
        "longitude": "57.43861000",
        "timezone": null,
        "wikiDataId": "Q8032610"
    },
    {
        "id": 79939,
        "name": "Liwá",
        "state_id": 3048,
        "state_code": "BS",
        "state_name": "Al Batinah North",
        "country_id": 166,
        "country_code": "OM",
        "country_name": "Oman",
        "latitude": "24.53077000",
        "longitude": "56.56300000",
        "timezone": null,
        "wikiDataId": "Q426646"
    },
    {
        "id": 79952,
        "name": "Şaḩam",
        "state_id": 3048,
        "state_code": "BS",
        "state_name": "Al Batinah North",
        "country_id": 166,
        "country_code": "OM",
        "country_name": "Oman",
        "latitude": "24.17222000",
        "longitude": "56.88861000",
        "timezone": null,
        "wikiDataId": "Q1294439"
    },
    {
        "id": 79946,
        "name": "Shināş",
        "state_id": 3048,
        "state_code": "BS",
        "state_name": "Al Batinah North",
        "country_id": 166,
        "country_code": "OM",
        "country_name": "Oman",
        "latitude": "24.74260000",
        "longitude": "56.46698000",
        "timezone": null,
        "wikiDataId": "Q948050"
    },
    {
        "id": 79947,
        "name": "Sohar",
        "state_id": 3048,
        "state_code": "BS",
        "state_name": "Al Batinah North",
        "country_id": 166,
        "country_code": "OM",
        "country_name": "Oman",
        "latitude": "24.34745000",
        "longitude": "56.70937000",
        "timezone": null,
        "wikiDataId": "Q943270"
    },
    {
        "id": 79931,
        "name": "Barkā’",
        "state_id": 3050,
        "state_code": "BA",
        "state_name": "Al Batinah Region",
        "country_id": 166,
        "country_code": "OM",
        "country_name": "Oman",
        "latitude": "23.67872000",
        "longitude": "57.88605000",
        "timezone": null,
        "wikiDataId": "Q49345172"
    },
    {
        "id": 79933,
        "name": "Bayt al ‘Awābī",
        "state_id": 3050,
        "state_code": "BA",
        "state_name": "Al Batinah Region",
        "country_id": 166,
        "country_code": "OM",
        "country_name": "Oman",
        "latitude": "23.30324000",
        "longitude": "57.52459000",
        "timezone": null,
        "wikiDataId": "Q2892151"
    },
    {
        "id": 79943,
        "name": "Oman Smart Future City",
        "state_id": 3050,
        "state_code": "BA",
        "state_name": "Al Batinah Region",
        "country_id": 166,
        "country_code": "OM",
        "country_name": "Oman",
        "latitude": "23.65270000",
        "longitude": "57.59926000",
        "timezone": null,
        "wikiDataId": "Q1915327"
    },
    {
        "id": 79944,
        "name": "Rustaq",
        "state_id": 3050,
        "state_code": "BA",
        "state_name": "Al Batinah Region",
        "country_id": 166,
        "country_code": "OM",
        "country_name": "Oman",
        "latitude": "23.39083000",
        "longitude": "57.42444000",
        "timezone": null,
        "wikiDataId": "Q542678"
    },
    {
        "id": 79927,
        "name": "Al Buraymī",
        "state_id": 3059,
        "state_code": "BU",
        "state_name": "Al Buraimi",
        "country_id": 166,
        "country_code": "OM",
        "country_name": "Oman",
        "latitude": "24.25088000",
        "longitude": "55.79312000",
        "timezone": null,
        "wikiDataId": "Q8032610"
    },
    {
        "id": 79936,
        "name": "Haymā’",
        "state_id": 3056,
        "state_code": "WU",
        "state_name": "Al Wusta",
        "country_id": 166,
        "country_code": "OM",
        "country_name": "Oman",
        "latitude": "19.95931000",
        "longitude": "56.27575000",
        "timezone": null,
        "wikiDataId": "Q2892151"
    },
    {
        "id": 79949,
        "name": "Sur",
        "state_id": 3051,
        "state_code": "SH",
        "state_name": "Ash Sharqiyah Region",
        "country_id": 166,
        "country_code": "OM",
        "country_name": "Oman",
        "latitude": "22.56667000",
        "longitude": "59.52889000",
        "timezone": null,
        "wikiDataId": "Q737270"
    },
    {
        "id": 79951,
        "name": "Şalālah",
        "state_id": 3057,
        "state_code": "ZU",
        "state_name": "Dhofar",
        "country_id": 166,
        "country_code": "OM",
        "country_name": "Oman",
        "latitude": "17.01505000",
        "longitude": "54.09237000",
        "timezone": null,
        "wikiDataId": "Q1294439"
    },
    {
        "id": 79935,
        "name": "Dib Dibba",
        "state_id": 3052,
        "state_code": "MU",
        "state_name": "Musandam",
        "country_id": 166,
        "country_code": "OM",
        "country_name": "Oman",
        "latitude": "26.19778000",
        "longitude": "56.25778000",
        "timezone": null,
        "wikiDataId": "Q2892151"
    },
    {
        "id": 79938,
        "name": "Khasab",
        "state_id": 3052,
        "state_code": "MU",
        "state_name": "Musandam",
        "country_id": 166,
        "country_code": "OM",
        "country_name": "Oman",
        "latitude": "26.17993000",
        "longitude": "56.24774000",
        "timezone": null,
        "wikiDataId": "Q426646"
    },
    {
        "id": 79940,
        "name": "Madḩā’ al Jadīdah",
        "state_id": 3052,
        "state_code": "MU",
        "state_name": "Musandam",
        "country_id": 166,
        "country_code": "OM",
        "country_name": "Oman",
        "latitude": "25.28345000",
        "longitude": "56.33280000",
        "timezone": null,
        "wikiDataId": "Q1883385"
    },
    {
        "id": 79932,
        "name": "Bawshar",
        "state_id": 3055,
        "state_code": "MA",
        "state_name": "Muscat",
        "country_id": 166,
        "country_code": "OM",
        "country_name": "Oman",
        "latitude": "23.57769000",
        "longitude": "58.39982000",
        "timezone": null,
        "wikiDataId": "Q2892151"
    },
    {
        "id": 79941,
        "name": "Muscat",
        "state_id": 3055,
        "state_code": "MA",
        "state_name": "Muscat",
        "country_id": 166,
        "country_code": "OM",
        "country_name": "Oman",
        "latitude": "23.58413000",
        "longitude": "58.40778000",
        "timezone": null,
        "wikiDataId": "Q3826"
    },
    {
        "id": 79945,
        "name": "Seeb",
        "state_id": 3055,
        "state_code": "MA",
        "state_name": "Muscat",
        "country_id": 166,
        "country_code": "OM",
        "country_name": "Oman",
        "latitude": "23.67027000",
        "longitude": "58.18911000",
        "timezone": null,
        "wikiDataId": "Q948050"
    }
]