[
    {
        "id": 89768,
        "name": "Fuerte Olimpo",
        "state_id": 2785,
        "state_code": "16",
        "state_name": "Alto Paraguay",
        "country_id": 172,
        "country_code": "PY",
        "country_name": "Paraguay",
        "latitude": "-21.04153000",
        "longitude": "-57.87377000",
        "timezone": null,
        "wikiDataId": "Q47062"
    },
    {
        "id": 89743,
        "name": "Cedrales",
        "state_id": 2784,
        "state_code": "10",
        "state_name": "Alto Paraná",
        "country_id": 172,
        "country_code": "PY",
        "country_name": "Paraguay",
        "latitude": "-25.65668000",
        "longitude": "-54.72272000",
        "timezone": null,
        "wikiDataId": "Q733792"
    },
    {
        "id": 89745,
        "name": "Ciudad del Este",
        "state_id": 2784,
        "state_code": "10",
        "state_name": "Alto Paraná",
        "country_id": 172,
        "country_code": "PY",
        "country_name": "Paraguay",
        "latitude": "-25.50972000",
        "longitude": "-54.61111000",
        "timezone": null,
        "wikiDataId": "Q192235"
    },
    {
        "id": 89751,
        "name": "Colonia Minga Porá",
        "state_id": 2784,
        "state_code": "10",
        "state_name": "Alto Paraná",
        "country_id": 172,
        "country_code": "PY",
        "country_name": "Paraguay",
        "latitude": "-24.86667000",
        "longitude": "-54.90000000",
        "timezone": null,
        "wikiDataId": "Q34796137"
    },
    {
        "id": 89759,
        "name": "Doctor Juan León Mallorquín",
        "state_id": 2784,
        "state_code": "10",
        "state_name": "Alto Paraná",
        "country_id": 172,
        "country_code": "PY",
        "country_name": "Paraguay",
        "latitude": "-25.43053000",
        "longitude": "-55.25412000",
        "timezone": null,
        "wikiDataId": "Q935504"
    },
    {
        "id": 89782,
        "name": "Itakyry",
        "state_id": 2784,
        "state_code": "10",
        "state_name": "Alto Paraná",
        "country_id": 172,
        "country_code": "PY",
        "country_name": "Paraguay",
        "latitude": "-24.98611000",
        "longitude": "-55.14963000",
        "timezone": null,
        "wikiDataId": "Q1988977"
    },
    {
        "id": 89799,
        "name": "Naranjal",
        "state_id": 2784,
        "state_code": "10",
        "state_name": "Alto Paraná",
        "country_id": 172,
        "country_code": "PY",
        "country_name": "Paraguay",
        "latitude": "-25.96667000",
        "longitude": "-55.18333000",
        "timezone": null,
        "wikiDataId": "Q541522"
    },
    {
        "id": 89812,
        "name": "Presidente Franco",
        "state_id": 2784,
        "state_code": "10",
        "state_name": "Alto Paraná",
        "country_id": 172,
        "country_code": "PY",
        "country_name": "Paraguay",
        "latitude": "-25.56384000",
        "longitude": "-54.61097000",
        "timezone": null,
        "wikiDataId": "Q135970"
    },
    {
        "id": 89818,
        "name": "San Alberto",
        "state_id": 2784,
        "state_code": "10",
        "state_name": "Alto Paraná",
        "country_id": 172,
        "country_code": "PY",
        "country_name": "Paraguay",
        "latitude": "-24.96667000",
        "longitude": "-54.90000000",
        "timezone": null,
        "wikiDataId": "Q135983"
    },
    {
        "id": 89835,
        "name": "Santa Rita",
        "state_id": 2784,
        "state_code": "10",
        "state_name": "Alto Paraná",
        "country_id": 172,
        "country_code": "PY",
        "country_name": "Paraguay",
        "latitude": "-25.78333000",
        "longitude": "-55.06667000",
        "timezone": null,
        "wikiDataId": "Q1751103"
    },
    {
        "id": 89852,
        "name": "Yguazú",
        "state_id": 2784,
        "state_code": "10",
        "state_name": "Alto Paraná",
        "country_id": 172,
        "country_code": "PY",
        "country_name": "Paraguay",
        "latitude": "-25.46187000",
        "longitude": "-55.00007000",
        "timezone": null,
        "wikiDataId": "Q34796144"
    },
    {
        "id": 89725,
        "name": "Bella Vista",
        "state_id": 2782,
        "state_code": "13",
        "state_name": "Amambay",
        "country_id": 172,
        "country_code": "PY",
        "country_name": "Paraguay",
        "latitude": "-22.13333000",
        "longitude": "-56.51667000",
        "timezone": null,
        "wikiDataId": "Q31913669"
    },
    {
        "id": 89734,
        "name": "Capitán Bado",
        "state_id": 2782,
        "state_code": "13",
        "state_name": "Amambay",
        "country_id": 172,
        "country_code": "PY",
        "country_name": "Paraguay",
        "latitude": "-23.26667000",
        "longitude": "-55.53333000",
        "timezone": null,
        "wikiDataId": "Q2717429"
    },
    {
        "id": 89807,
        "name": "Pedro Juan Caballero",
        "state_id": 2782,
        "state_code": "13",
        "state_name": "Amambay",
        "country_id": 172,
        "country_code": "PY",
        "country_name": "Paraguay",
        "latitude": "-22.54722000",
        "longitude": "-55.73333000",
        "timezone": null,
        "wikiDataId": "Q849292"
    },
    {
        "id": 89750,
        "name": "Colonia Menno",
        "state_id": 2780,
        "state_code": "19",
        "state_name": "Boquerón",
        "country_id": 172,
        "country_code": "PY",
        "country_name": "Paraguay",
        "latitude": "-22.36667000",
        "longitude": "-59.81667000",
        "timezone": null,
        "wikiDataId": "Q6817183"
    },
    {
        "id": 89752,
        "name": "Colonia Neuland",
        "state_id": 2780,
        "state_code": "19",
        "state_name": "Boquerón",
        "country_id": 172,
        "country_code": "PY",
        "country_name": "Paraguay",
        "latitude": "-22.66667000",
        "longitude": "-60.11667000",
        "timezone": null,
        "wikiDataId": "Q1709409"
    },
    {
        "id": 89766,
        "name": "Filadelfia",
        "state_id": 2780,
        "state_code": "19",
        "state_name": "Boquerón",
        "country_id": 172,
        "country_code": "PY",
        "country_name": "Paraguay",
        "latitude": "-22.33936000",
        "longitude": "-60.03157000",
        "timezone": null,
        "wikiDataId": "Q47062"
    },
    {
        "id": 89730,
        "name": "Caaguazú",
        "state_id": 2773,
        "state_code": "5",
        "state_name": "Caaguazú",
        "country_id": 172,
        "country_code": "PY",
        "country_name": "Paraguay",
        "latitude": "-25.47104000",
        "longitude": "-56.01603000",
        "timezone": null,
        "wikiDataId": "Q858120"
    },
    {
        "id": 89740,
        "name": "Carayaó",
        "state_id": 2773,
        "state_code": "5",
        "state_name": "Caaguazú",
        "country_id": 172,
        "country_code": "PY",
        "country_name": "Paraguay",
        "latitude": "-25.19750000",
        "longitude": "-56.39878000",
        "timezone": null,
        "wikiDataId": "Q17564711"
    },
    {
        "id": 89742,
        "name": "Cecilio Baez",
        "state_id": 2773,
        "state_code": "5",
        "state_name": "Caaguazú",
        "country_id": 172,
        "country_code": "PY",
        "country_name": "Paraguay",
        "latitude": "-25.07158000",
        "longitude": "-56.24386000",
        "timezone": null,
        "wikiDataId": "Q733792"
    },
    {
        "id": 89748,
        "name": "Colonia General Alfredo Stroessner",
        "state_id": 2773,
        "state_code": "5",
        "state_name": "Caaguazú",
        "country_id": 172,
        "country_code": "PY",
        "country_name": "Paraguay",
        "latitude": "-25.36395000",
        "longitude": "-55.70690000",
        "timezone": null,
        "wikiDataId": "Q34796112"
    },
    {
        "id": 89757,
        "name": "Coronel Oviedo",
        "state_id": 2773,
        "state_code": "5",
        "state_name": "Caaguazú",
        "country_id": 172,
        "country_code": "PY",
        "country_name": "Paraguay",
        "latitude": "-25.44444000",
        "longitude": "-56.44028000",
        "timezone": null,
        "wikiDataId": "Q935504"
    },
    {
        "id": 89760,
        "name": "Doctor Juan Manuel Frutos",
        "state_id": 2773,
        "state_code": "5",
        "state_name": "Caaguazú",
        "country_id": 172,
        "country_code": "PY",
        "country_name": "Paraguay",
        "latitude": "-25.38380000",
        "longitude": "-55.83215000",
        "timezone": null,
        "wikiDataId": "Q935504"
    },
    {
        "id": 89796,
        "name": "Mbutuý",
        "state_id": 2773,
        "state_code": "5",
        "state_name": "Caaguazú",
        "country_id": 172,
        "country_code": "PY",
        "country_name": "Paraguay",
        "latitude": "-24.97518000",
        "longitude": "-56.30927000",
        "timezone": null,
        "wikiDataId": "Q1751124"
    },
    {
        "id": 89816,
        "name": "Repatriación",
        "state_id": 2773,
        "state_code": "5",
        "state_name": "Caaguazú",
        "country_id": 172,
        "country_code": "PY",
        "country_name": "Paraguay",
        "latitude": "-25.53333000",
        "longitude": "-55.95000000",
        "timezone": null,
        "wikiDataId": "Q135970"
    },
    {
        "id": 89823,
        "name": "San Joaquín",
        "state_id": 2773,
        "state_code": "5",
        "state_name": "Caaguazú",
        "country_id": 172,
        "country_code": "PY",
        "country_name": "Paraguay",
        "latitude": "-25.02853000",
        "longitude": "-56.04280000",
        "timezone": null,
        "wikiDataId": "Q135983"
    },
    {
        "id": 89824,
        "name": "San José",
        "state_id": 2773,
        "state_code": "5",
        "state_name": "Caaguazú",
        "country_id": 172,
        "country_code": "PY",
        "country_name": "Paraguay",
        "latitude": "-25.53333000",
        "longitude": "-56.73333000",
        "timezone": null,
        "wikiDataId": "Q135983"
    },
    {
        "id": 89853,
        "name": "Yhú",
        "state_id": 2773,
        "state_code": "5",
        "state_name": "Caaguazú",
        "country_id": 172,
        "country_code": "PY",
        "country_name": "Paraguay",
        "latitude": "-25.05784000",
        "longitude": "-55.92267000",
        "timezone": null,
        "wikiDataId": "Q1751168"
    },
    {
        "id": 89716,
        "name": "Abaí",
        "state_id": 2775,
        "state_code": "6",
        "state_name": "Caazapá",
        "country_id": 172,
        "country_code": "PY",
        "country_name": "Paraguay",
        "latitude": "-26.03333000",
        "longitude": "-55.93333000",
        "timezone": null,
        "wikiDataId": "Q3481073"
    },
    {
        "id": 89728,
        "name": "Buena Vista",
        "state_id": 2775,
        "state_code": "6",
        "state_name": "Caazapá",
        "country_id": 172,
        "country_code": "PY",
        "country_name": "Paraguay",
        "latitude": "-26.18387000",
        "longitude": "-56.08171000",
        "timezone": null,
        "wikiDataId": "Q34783829"
    },
    {
        "id": 89732,
        "name": "Caazapá",
        "state_id": 2775,
        "state_code": "6",
        "state_name": "Caazapá",
        "country_id": 172,
        "country_code": "PY",
        "country_name": "Paraguay",
        "latitude": "-26.19583000",
        "longitude": "-56.36806000",
        "timezone": null,
        "wikiDataId": "Q2410335"
    },
    {
        "id": 89772,
        "name": "General Higinio Morínigo",
        "state_id": 2775,
        "state_code": "6",
        "state_name": "Caazapá",
        "country_id": 172,
        "country_code": "PY",
        "country_name": "Paraguay",
        "latitude": "-25.95000000",
        "longitude": "-55.91667000",
        "timezone": null,
        "wikiDataId": "Q47062"
    },
    {
        "id": 89826,
        "name": "San Juan Nepomuceno",
        "state_id": 2775,
        "state_code": "6",
        "state_name": "Caazapá",
        "country_id": 172,
        "country_code": "PY",
        "country_name": "Paraguay",
        "latitude": "-26.11229000",
        "longitude": "-55.93861000",
        "timezone": null,
        "wikiDataId": "Q135983"
    },
    {
        "id": 89850,
        "name": "Yegros",
        "state_id": 2775,
        "state_code": "6",
        "state_name": "Caazapá",
        "country_id": 172,
        "country_code": "PY",
        "country_name": "Paraguay",
        "latitude": "-26.45000000",
        "longitude": "-56.40000000",
        "timezone": null,
        "wikiDataId": "Q1983624"
    },
    {
        "id": 89855,
        "name": "Yuty",
        "state_id": 2775,
        "state_code": "6",
        "state_name": "Caazapá",
        "country_id": 172,
        "country_code": "PY",
        "country_name": "Paraguay",
        "latitude": "-26.61471000",
        "longitude": "-56.24607000",
        "timezone": null,
        "wikiDataId": "Q2475423"
    },
    {
        "id": 89747,
        "name": "Colonia Catuete",
        "state_id": 2771,
        "state_code": "14",
        "state_name": "Canindeyú",
        "country_id": 172,
        "country_code": "PY",
        "country_name": "Paraguay",
        "latitude": "-24.13333000",
        "longitude": "-54.61667000",
        "timezone": null,
        "wikiDataId": "Q34796107"
    },
    {
        "id": 89758,
        "name": "Corpus Christi",
        "state_id": 2771,
        "state_code": "14",
        "state_name": "Canindeyú",
        "country_id": 172,
        "country_code": "PY",
        "country_name": "Paraguay",
        "latitude": "-24.08040000",
        "longitude": "-54.93933000",
        "timezone": null,
        "wikiDataId": "Q935504"
    },
    {
        "id": 89790,
        "name": "La Paloma",
        "state_id": 2771,
        "state_code": "14",
        "state_name": "Canindeyú",
        "country_id": 172,
        "country_code": "PY",
        "country_name": "Paraguay",
        "latitude": "-24.12957000",
        "longitude": "-54.61376000",
        "timezone": null,
        "wikiDataId": "Q1988977"
    },
    {
        "id": 89803,
        "name": "Nueva Esperanza",
        "state_id": 2771,
        "state_code": "14",
        "state_name": "Canindeyú",
        "country_id": 172,
        "country_code": "PY",
        "country_name": "Paraguay",
        "latitude": "-24.50760000",
        "longitude": "-54.85510000",
        "timezone": null,
        "wikiDataId": "Q541522"
    },
    {
        "id": 89817,
        "name": "Salto del Guairá",
        "state_id": 2771,
        "state_code": "14",
        "state_name": "Canindeyú",
        "country_id": 172,
        "country_code": "PY",
        "country_name": "Paraguay",
        "latitude": "-24.06250000",
        "longitude": "-54.30694000",
        "timezone": null,
        "wikiDataId": "Q135983"
    },
    {
        "id": 89822,
        "name": "San Isidro de Curuguaty",
        "state_id": 2771,
        "state_code": "14",
        "state_name": "Canindeyú",
        "country_id": 172,
        "country_code": "PY",
        "country_name": "Paraguay",
        "latitude": "-24.47184000",
        "longitude": "-55.69227000",
        "timezone": null,
        "wikiDataId": "Q135983"
    },
    {
        "id": 89851,
        "name": "Ygatimi",
        "state_id": 2771,
        "state_code": "14",
        "state_name": "Canindeyú",
        "country_id": 172,
        "country_code": "PY",
        "country_name": "Paraguay",
        "latitude": "-24.12371000",
        "longitude": "-55.64418000",
        "timezone": null,
        "wikiDataId": "Q1987369"
    },
    {
        "id": 89720,
        "name": "Areguá",
        "state_id": 2777,
        "state_code": "11",
        "state_name": "Central",
        "country_id": 172,
        "country_code": "PY",
        "country_name": "Paraguay",
        "latitude": "-25.31250000",
        "longitude": "-57.38472000",
        "timezone": null,
        "wikiDataId": "Q31884178"
    },
    {
        "id": 89733,
        "name": "Capiatá",
        "state_id": 2777,
        "state_code": "11",
        "state_name": "Central",
        "country_id": 172,
        "country_code": "PY",
        "country_name": "Paraguay",
        "latitude": "-25.35520000",
        "longitude": "-57.44545000",
        "timezone": null,
        "wikiDataId": "Q723811"
    },
    {
        "id": 89765,
        "name": "Fernando de la Mora",
        "state_id": 2777,
        "state_code": "11",
        "state_name": "Central",
        "country_id": 172,
        "country_code": "PY",
        "country_name": "Paraguay",
        "latitude": "-25.33860000",
        "longitude": "-57.52167000",
        "timezone": null,
        "wikiDataId": "Q47062"
    },
    {
        "id": 89774,
        "name": "Guarambaré",
        "state_id": 2777,
        "state_code": "11",
        "state_name": "Central",
        "country_id": 172,
        "country_code": "PY",
        "country_name": "Paraguay",
        "latitude": "-25.49096000",
        "longitude": "-57.45567000",
        "timezone": null,
        "wikiDataId": "Q47062"
    },
    {
        "id": 89786,
        "name": "Itá",
        "state_id": 2777,
        "state_code": "11",
        "state_name": "Central",
        "country_id": 172,
        "country_code": "PY",
        "country_name": "Paraguay",
        "latitude": "-25.50054000",
        "longitude": "-57.36717000",
        "timezone": null,
        "wikiDataId": "Q1988977"
    },
    {
        "id": 89784,
        "name": "Itauguá",
        "state_id": 2777,
        "state_code": "11",
        "state_name": "Central",
        "country_id": 172,
        "country_code": "PY",
        "country_name": "Paraguay",
        "latitude": "-25.39258000",
        "longitude": "-57.35421000",
        "timezone": null,
        "wikiDataId": "Q1988977"
    },
    {
        "id": 89791,
        "name": "Lambaré",
        "state_id": 2777,
        "state_code": "11",
        "state_name": "Central",
        "country_id": 172,
        "country_code": "PY",
        "country_name": "Paraguay",
        "latitude": "-25.34682000",
        "longitude": "-57.60647000",
        "timezone": null,
        "wikiDataId": "Q47052"
    },
    {
        "id": 89793,
        "name": "Limpio",
        "state_id": 2777,
        "state_code": "11",
        "state_name": "Central",
        "country_id": 172,
        "country_code": "PY",
        "country_name": "Paraguay",
        "latitude": "-25.16611000",
        "longitude": "-57.48562000",
        "timezone": null,
        "wikiDataId": "Q47052"
    },
    {
        "id": 89794,
        "name": "Mariano Roque Alonso",
        "state_id": 2777,
        "state_code": "11",
        "state_name": "Central",
        "country_id": 172,
        "country_code": "PY",
        "country_name": "Paraguay",
        "latitude": "-25.20791000",
        "longitude": "-57.53202000",
        "timezone": null,
        "wikiDataId": "Q47052"
    },
    {
        "id": 89802,
        "name": "Nemby",
        "state_id": 2777,
        "state_code": "11",
        "state_name": "Central",
        "country_id": 172,
        "country_code": "PY",
        "country_name": "Paraguay",
        "latitude": "-25.39490000",
        "longitude": "-57.53574000",
        "timezone": null,
        "wikiDataId": "Q541522"
    },
    {
        "id": 89804,
        "name": "Nueva Italia",
        "state_id": 2777,
        "state_code": "11",
        "state_name": "Central",
        "country_id": 172,
        "country_code": "PY",
        "country_name": "Paraguay",
        "latitude": "-25.61080000",
        "longitude": "-57.46563000",
        "timezone": null,
        "wikiDataId": "Q541522"
    },
    {
        "id": 89819,
        "name": "San Antonio",
        "state_id": 2777,
        "state_code": "11",
        "state_name": "Central",
        "country_id": 172,
        "country_code": "PY",
        "country_name": "Paraguay",
        "latitude": "-25.42126000",
        "longitude": "-57.54725000",
        "timezone": null,
        "wikiDataId": "Q135983"
    },
    {
        "id": 89828,
        "name": "San Lorenzo",
        "state_id": 2777,
        "state_code": "11",
        "state_name": "Central",
        "country_id": 172,
        "country_code": "PY",
        "country_name": "Paraguay",
        "latitude": "-25.33968000",
        "longitude": "-57.50879000",
        "timezone": null,
        "wikiDataId": "Q938739"
    },
    {
        "id": 89843,
        "name": "Villa Elisa",
        "state_id": 2777,
        "state_code": "11",
        "state_name": "Central",
        "country_id": 172,
        "country_code": "PY",
        "country_name": "Paraguay",
        "latitude": "-25.36760000",
        "longitude": "-57.59274000",
        "timezone": null,
        "wikiDataId": "Q1092820"
    },
    {
        "id": 89854,
        "name": "Ypacarai",
        "state_id": 2777,
        "state_code": "11",
        "state_name": "Central",
        "country_id": 172,
        "country_code": "PY",
        "country_name": "Paraguay",
        "latitude": "-25.40777000",
        "longitude": "-57.28889000",
        "timezone": null,
        "wikiDataId": "Q1751168"
    },
    {
        "id": 89726,
        "name": "Belén",
        "state_id": 2779,
        "state_code": "1",
        "state_name": "Concepción",
        "country_id": 172,
        "country_code": "PY",
        "country_name": "Paraguay",
        "latitude": "-23.46611000",
        "longitude": "-57.26194000",
        "timezone": null,
        "wikiDataId": "Q31913669"
    },
    {
        "id": 89755,
        "name": "Concepción",
        "state_id": 2779,
        "state_code": "1",
        "state_name": "Concepción",
        "country_id": 172,
        "country_code": "PY",
        "country_name": "Paraguay",
        "latitude": "-23.39985000",
        "longitude": "-57.43236000",
        "timezone": null,
        "wikiDataId": "Q840962"
    },
    {
        "id": 89777,
        "name": "Horqueta",
        "state_id": 2779,
        "state_code": "1",
        "state_name": "Concepción",
        "country_id": 172,
        "country_code": "PY",
        "country_name": "Paraguay",
        "latitude": "-23.34278000",
        "longitude": "-57.05972000",
        "timezone": null,
        "wikiDataId": "Q47062"
    },
    {
        "id": 89718,
        "name": "Altos",
        "state_id": 2783,
        "state_code": "3",
        "state_name": "Cordillera",
        "country_id": 172,
        "country_code": "PY",
        "country_name": "Paraguay",
        "latitude": "-25.26263000",
        "longitude": "-57.25443000",
        "timezone": null,
        "wikiDataId": "Q926511"
    },
    {
        "id": 89722,
        "name": "Arroyos y Esteros",
        "state_id": 2783,
        "state_code": "3",
        "state_name": "Cordillera",
        "country_id": 172,
        "country_code": "PY",
        "country_name": "Paraguay",
        "latitude": "-25.05478000",
        "longitude": "-57.09873000",
        "timezone": null,
        "wikiDataId": "Q2639218"
    },
    {
        "id": 89723,
        "name": "Atyrá",
        "state_id": 2783,
        "state_code": "3",
        "state_name": "Cordillera",
        "country_id": 172,
        "country_code": "PY",
        "country_name": "Paraguay",
        "latitude": "-25.27876000",
        "longitude": "-57.17192000",
        "timezone": null,
        "wikiDataId": "Q2639218"
    },
    {
        "id": 89729,
        "name": "Caacupé",
        "state_id": 2783,
        "state_code": "3",
        "state_name": "Cordillera",
        "country_id": 172,
        "country_code": "PY",
        "country_name": "Paraguay",
        "latitude": "-25.38575000",
        "longitude": "-57.14217000",
        "timezone": null,
        "wikiDataId": "Q34783829"
    },
    {
        "id": 89738,
        "name": "Caraguatay",
        "state_id": 2783,
        "state_code": "3",
        "state_name": "Cordillera",
        "country_id": 172,
        "country_code": "PY",
        "country_name": "Paraguay",
        "latitude": "-25.23844000",
        "longitude": "-56.82693000",
        "timezone": null,
        "wikiDataId": "Q17564711"
    },
    {
        "id": 89762,
        "name": "Emboscada",
        "state_id": 2783,
        "state_code": "3",
        "state_name": "Cordillera",
        "country_id": 172,
        "country_code": "PY",
        "country_name": "Paraguay",
        "latitude": "-25.15000000",
        "longitude": "-57.35000000",
        "timezone": null,
        "wikiDataId": "Q935504"
    },
    {
        "id": 89764,
        "name": "Eusebio Ayala",
        "state_id": 2783,
        "state_code": "3",
        "state_name": "Cordillera",
        "country_id": 172,
        "country_code": "PY",
        "country_name": "Paraguay",
        "latitude": "-25.38276000",
        "longitude": "-56.96088000",
        "timezone": null,
        "wikiDataId": "Q47138"
    },
    {
        "id": 89779,
        "name": "Isla Pucú",
        "state_id": 2783,
        "state_code": "3",
        "state_name": "Cordillera",
        "country_id": 172,
        "country_code": "PY",
        "country_name": "Paraguay",
        "latitude": "-25.30853000",
        "longitude": "-56.89986000",
        "timezone": null,
        "wikiDataId": "Q47062"
    },
    {
        "id": 89780,
        "name": "Itacurubí de la Cordillera",
        "state_id": 2783,
        "state_code": "3",
        "state_name": "Cordillera",
        "country_id": 172,
        "country_code": "PY",
        "country_name": "Paraguay",
        "latitude": "-25.46158000",
        "longitude": "-56.85333000",
        "timezone": null,
        "wikiDataId": "Q47062"
    },
    {
        "id": 89811,
        "name": "Piribebuy",
        "state_id": 2783,
        "state_code": "3",
        "state_name": "Cordillera",
        "country_id": 172,
        "country_code": "PY",
        "country_name": "Paraguay",
        "latitude": "-25.46498000",
        "longitude": "-57.04183000",
        "timezone": null,
        "wikiDataId": "Q135970"
    },
    {
        "id": 89820,
        "name": "San Bernardino",
        "state_id": 2783,
        "state_code": "3",
        "state_name": "Cordillera",
        "country_id": 172,
        "country_code": "PY",
        "country_name": "Paraguay",
        "latitude": "-25.31067000",
        "longitude": "-57.29628000",
        "timezone": null,
        "wikiDataId": "Q135983"
    },
    {
        "id": 89833,
        "name": "Santa Elena",
        "state_id": 2783,
        "state_code": "3",
        "state_name": "Cordillera",
        "country_id": 172,
        "country_code": "PY",
        "country_name": "Paraguay",
        "latitude": "-25.41327000",
        "longitude": "-56.79708000",
        "timezone": null,
        "wikiDataId": "Q1751103"
    },
    {
        "id": 89840,
        "name": "Tobatí",
        "state_id": 2783,
        "state_code": "3",
        "state_name": "Cordillera",
        "country_id": 172,
        "country_code": "PY",
        "country_name": "Paraguay",
        "latitude": "-25.26111000",
        "longitude": "-57.08329000",
        "timezone": null,
        "wikiDataId": "Q1092820"
    },
    {
        "id": 89749,
        "name": "Colonia Mauricio José Troche",
        "state_id": 2772,
        "state_code": "4",
        "state_name": "Guairá",
        "country_id": 172,
        "country_code": "PY",
        "country_name": "Paraguay",
        "latitude": "-25.56667000",
        "longitude": "-56.28333000",
        "timezone": null,
        "wikiDataId": "Q34796123"
    },
    {
        "id": 89756,
        "name": "Coronel Martínez",
        "state_id": 2772,
        "state_code": "4",
        "state_name": "Guairá",
        "country_id": 172,
        "country_code": "PY",
        "country_name": "Paraguay",
        "latitude": "-25.75862000",
        "longitude": "-56.61677000",
        "timezone": null,
        "wikiDataId": "Q840962"
    },
    {
        "id": 89778,
        "name": "Independencia",
        "state_id": 2772,
        "state_code": "4",
        "state_name": "Guairá",
        "country_id": 172,
        "country_code": "PY",
        "country_name": "Paraguay",
        "latitude": "-25.69100000",
        "longitude": "-56.26781000",
        "timezone": null,
        "wikiDataId": "Q47062"
    },
    {
        "id": 89783,
        "name": "Itapé",
        "state_id": 2772,
        "state_code": "4",
        "state_name": "Guairá",
        "country_id": 172,
        "country_code": "PY",
        "country_name": "Paraguay",
        "latitude": "-25.85172000",
        "longitude": "-56.61385000",
        "timezone": null,
        "wikiDataId": "Q1988977"
    },
    {
        "id": 89785,
        "name": "Iturbe",
        "state_id": 2772,
        "state_code": "4",
        "state_name": "Guairá",
        "country_id": 172,
        "country_code": "PY",
        "country_name": "Paraguay",
        "latitude": "-26.05508000",
        "longitude": "-56.48463000",
        "timezone": null,
        "wikiDataId": "Q1988977"
    },
    {
        "id": 89795,
        "name": "Mbocayaty",
        "state_id": 2772,
        "state_code": "4",
        "state_name": "Guairá",
        "country_id": 172,
        "country_code": "PY",
        "country_name": "Paraguay",
        "latitude": "-25.71938000",
        "longitude": "-56.42179000",
        "timezone": null,
        "wikiDataId": "Q47052"
    },
    {
        "id": 89800,
        "name": "Natalicio Talavera",
        "state_id": 2772,
        "state_code": "4",
        "state_name": "Guairá",
        "country_id": 172,
        "country_code": "PY",
        "country_name": "Paraguay",
        "latitude": "-25.63333000",
        "longitude": "-56.30000000",
        "timezone": null,
        "wikiDataId": "Q541522"
    },
    {
        "id": 89846,
        "name": "Villarrica",
        "state_id": 2772,
        "state_code": "4",
        "state_name": "Guairá",
        "country_id": 172,
        "country_code": "PY",
        "country_name": "Paraguay",
        "latitude": "-25.74946000",
        "longitude": "-56.43518000",
        "timezone": null,
        "wikiDataId": "Q1092820"
    },
    {
        "id": 89721,
        "name": "Arquitecto Tomás Romero Pereira",
        "state_id": 2778,
        "state_code": "7",
        "state_name": "Itapúa",
        "country_id": 172,
        "country_code": "PY",
        "country_name": "Paraguay",
        "latitude": "-26.48333000",
        "longitude": "-55.25000000",
        "timezone": null,
        "wikiDataId": "Q31884178"
    },
    {
        "id": 89724,
        "name": "Bella Vista",
        "state_id": 2778,
        "state_code": "7",
        "state_name": "Itapúa",
        "country_id": 172,
        "country_code": "PY",
        "country_name": "Paraguay",
        "latitude": "-27.05000000",
        "longitude": "-55.55000000",
        "timezone": null,
        "wikiDataId": "Q2639218"
    },
    {
        "id": 89735,
        "name": "Capitán Miranda",
        "state_id": 2778,
        "state_code": "7",
        "state_name": "Itapúa",
        "country_id": 172,
        "country_code": "PY",
        "country_name": "Paraguay",
        "latitude": "-27.20000000",
        "longitude": "-55.80000000",
        "timezone": null,
        "wikiDataId": "Q2717429"
    },
    {
        "id": 89741,
        "name": "Carmen del Paraná",
        "state_id": 2778,
        "state_code": "7",
        "state_name": "Itapúa",
        "country_id": 172,
        "country_code": "PY",
        "country_name": "Paraguay",
        "latitude": "-27.22232000",
        "longitude": "-56.15243000",
        "timezone": null,
        "wikiDataId": "Q17564711"
    },
    {
        "id": 89746,
        "name": "Colonia Carlos Antonio López",
        "state_id": 2778,
        "state_code": "7",
        "state_name": "Itapúa",
        "country_id": 172,
        "country_code": "PY",
        "country_name": "Paraguay",
        "latitude": "-26.39853000",
        "longitude": "-54.75690000",
        "timezone": null,
        "wikiDataId": "Q192235"
    },
    {
        "id": 89754,
        "name": "Colonia San Lorenzo",
        "state_id": 2778,
        "state_code": "7",
        "state_name": "Itapúa",
        "country_id": 172,
        "country_code": "PY",
        "country_name": "Paraguay",
        "latitude": "-26.49324000",
        "longitude": "-54.79989000",
        "timezone": null,
        "wikiDataId": "Q1709409"
    },
    {
        "id": 89761,
        "name": "Edelira",
        "state_id": 2778,
        "state_code": "7",
        "state_name": "Itapúa",
        "country_id": 172,
        "country_code": "PY",
        "country_name": "Paraguay",
        "latitude": "-26.76734000",
        "longitude": "-55.27872000",
        "timezone": null,
        "wikiDataId": "Q935504"
    },
    {
        "id": 89763,
        "name": "Encarnación",
        "state_id": 2778,
        "state_code": "7",
        "state_name": "Itapúa",
        "country_id": 172,
        "country_code": "PY",
        "country_name": "Paraguay",
        "latitude": "-27.33056000",
        "longitude": "-55.86667000",
        "timezone": null,
        "wikiDataId": "Q47138"
    },
    {
        "id": 89767,
        "name": "Fram",
        "state_id": 2778,
        "state_code": "7",
        "state_name": "Itapúa",
        "country_id": 172,
        "country_code": "PY",
        "country_name": "Paraguay",
        "latitude": "-26.98333000",
        "longitude": "-55.88333000",
        "timezone": null,
        "wikiDataId": "Q47062"
    },
    {
        "id": 89769,
        "name": "General Artigas",
        "state_id": 2778,
        "state_code": "7",
        "state_name": "Itapúa",
        "country_id": 172,
        "country_code": "PY",
        "country_name": "Paraguay",
        "latitude": "-26.93522000",
        "longitude": "-56.22168000",
        "timezone": null,
        "wikiDataId": "Q47062"
    },
    {
        "id": 89770,
        "name": "General Delgado",
        "state_id": 2778,
        "state_code": "7",
        "state_name": "Itapúa",
        "country_id": 172,
        "country_code": "PY",
        "country_name": "Paraguay",
        "latitude": "-27.09046000",
        "longitude": "-56.52474000",
        "timezone": null,
        "wikiDataId": "Q47062"
    },
    {
        "id": 89776,
        "name": "Hohenau",
        "state_id": 2778,
        "state_code": "7",
        "state_name": "Itapúa",
        "country_id": 172,
        "country_code": "PY",
        "country_name": "Paraguay",
        "latitude": "-27.07315000",
        "longitude": "-55.64247000",
        "timezone": null,
        "wikiDataId": "Q47062"
    },
    {
        "id": 89787,
        "name": "Jesús",
        "state_id": 2778,
        "state_code": "7",
        "state_name": "Itapúa",
        "country_id": 172,
        "country_code": "PY",
        "country_name": "Paraguay",
        "latitude": "-27.05598000",
        "longitude": "-55.74130000",
        "timezone": null,
        "wikiDataId": "Q1988977"
    },
    {
        "id": 89801,
        "name": "Natalio",
        "state_id": 2778,
        "state_code": "7",
        "state_name": "Itapúa",
        "country_id": 172,
        "country_code": "PY",
        "country_name": "Paraguay",
        "latitude": "-26.75702000",
        "longitude": "-55.13777000",
        "timezone": null,
        "wikiDataId": "Q541522"
    },
    {
        "id": 89805,
        "name": "Obligado",
        "state_id": 2778,
        "state_code": "7",
        "state_name": "Itapúa",
        "country_id": 172,
        "country_code": "PY",
        "country_name": "Paraguay",
        "latitude": "-27.03333000",
        "longitude": "-55.63333000",
        "timezone": null,
        "wikiDataId": "Q541522"
    },
    {
        "id": 89809,
        "name": "Pirapó",
        "state_id": 2778,
        "state_code": "7",
        "state_name": "Itapúa",
        "country_id": 172,
        "country_code": "PY",
        "country_name": "Paraguay",
        "latitude": "-26.86012000",
        "longitude": "-55.54357000",
        "timezone": null,
        "wikiDataId": "Q135970"
    },
    {
        "id": 89813,
        "name": "Puerto Mayor Otaño",
        "state_id": 2778,
        "state_code": "7",
        "state_name": "Itapúa",
        "country_id": 172,
        "country_code": "PY",
        "country_name": "Paraguay",
        "latitude": "-26.40000000",
        "longitude": "-54.70000000",
        "timezone": null,
        "wikiDataId": "Q135970"
    },
    {
        "id": 89821,
        "name": "San Cosme y Damián",
        "state_id": 2778,
        "state_code": "7",
        "state_name": "Itapúa",
        "country_id": 172,
        "country_code": "PY",
        "country_name": "Paraguay",
        "latitude": "-27.31741000",
        "longitude": "-56.33087000",
        "timezone": null,
        "wikiDataId": "Q135983"
    },
    {
        "id": 89827,
        "name": "San Juan del Paraná",
        "state_id": 2778,
        "state_code": "7",
        "state_name": "Itapúa",
        "country_id": 172,
        "country_code": "PY",
        "country_name": "Paraguay",
        "latitude": "-27.30168000",
        "longitude": "-55.96509000",
        "timezone": null,
        "wikiDataId": "Q135983"
    },
    {
        "id": 89832,
        "name": "San Pedro del Paraná",
        "state_id": 2778,
        "state_code": "7",
        "state_name": "Itapúa",
        "country_id": 172,
        "country_code": "PY",
        "country_name": "Paraguay",
        "latitude": "-26.83268000",
        "longitude": "-56.20575000",
        "timezone": null,
        "wikiDataId": "Q135993"
    },
    {
        "id": 89841,
        "name": "Trinidad",
        "state_id": 2778,
        "state_code": "7",
        "state_name": "Itapúa",
        "country_id": 172,
        "country_code": "PY",
        "country_name": "Paraguay",
        "latitude": "-27.11667000",
        "longitude": "-55.78333000",
        "timezone": null,
        "wikiDataId": "Q1092820"
    },
    {
        "id": 89788,
        "name": "Juan de Ayolas",
        "state_id": 2786,
        "state_code": "8",
        "state_name": "Misiones",
        "country_id": 172,
        "country_code": "PY",
        "country_name": "Paraguay",
        "latitude": "-27.38662000",
        "longitude": "-56.84724000",
        "timezone": null,
        "wikiDataId": "Q1988977"
    },
    {
        "id": 89825,
        "name": "San Juan Bautista",
        "state_id": 2786,
        "state_code": "8",
        "state_name": "Misiones",
        "country_id": 172,
        "country_code": "PY",
        "country_name": "Paraguay",
        "latitude": "-26.66944000",
        "longitude": "-57.14583000",
        "timezone": null,
        "wikiDataId": "Q135983"
    },
    {
        "id": 89829,
        "name": "San Miguel",
        "state_id": 2786,
        "state_code": "8",
        "state_name": "Misiones",
        "country_id": 172,
        "country_code": "PY",
        "country_name": "Paraguay",
        "latitude": "-26.50000000",
        "longitude": "-57.05000000",
        "timezone": null,
        "wikiDataId": "Q938739"
    },
    {
        "id": 89830,
        "name": "San Patricio",
        "state_id": 2786,
        "state_code": "8",
        "state_name": "Misiones",
        "country_id": 172,
        "country_code": "PY",
        "country_name": "Paraguay",
        "latitude": "-26.96667000",
        "longitude": "-56.81667000",
        "timezone": null,
        "wikiDataId": "Q938739"
    },
    {
        "id": 89834,
        "name": "Santa María",
        "state_id": 2786,
        "state_code": "8",
        "state_name": "Misiones",
        "country_id": 172,
        "country_code": "PY",
        "country_name": "Paraguay",
        "latitude": "-26.78333000",
        "longitude": "-56.93333000",
        "timezone": null,
        "wikiDataId": "Q1751103"
    },
    {
        "id": 89836,
        "name": "Santa Rosa Misiones",
        "state_id": 2786,
        "state_code": "8",
        "state_name": "Misiones",
        "country_id": 172,
        "country_code": "PY",
        "country_name": "Paraguay",
        "latitude": "-26.88730000",
        "longitude": "-56.84905000",
        "timezone": null,
        "wikiDataId": "Q1751103"
    },
    {
        "id": 89837,
        "name": "Santiago",
        "state_id": 2786,
        "state_code": "8",
        "state_name": "Misiones",
        "country_id": 172,
        "country_code": "PY",
        "country_name": "Paraguay",
        "latitude": "-27.14310000",
        "longitude": "-56.76803000",
        "timezone": null,
        "wikiDataId": "Q1751103"
    },
    {
        "id": 89844,
        "name": "Villa Florida",
        "state_id": 2786,
        "state_code": "8",
        "state_name": "Misiones",
        "country_id": 172,
        "country_code": "PY",
        "country_name": "Paraguay",
        "latitude": "-26.38333000",
        "longitude": "-57.15000000",
        "timezone": null,
        "wikiDataId": "Q1092820"
    },
    {
        "id": 89744,
        "name": "Cerrito",
        "state_id": 2781,
        "state_code": "12",
        "state_name": "Ñeembucú",
        "country_id": 172,
        "country_code": "PY",
        "country_name": "Paraguay",
        "latitude": "-27.34215000",
        "longitude": "-57.64119000",
        "timezone": null,
        "wikiDataId": "Q733792"
    },
    {
        "id": 89773,
        "name": "General José Eduvigis Díaz",
        "state_id": 2781,
        "state_code": "12",
        "state_name": "Ñeembucú",
        "country_id": 172,
        "country_code": "PY",
        "country_name": "Paraguay",
        "latitude": "-27.20136000",
        "longitude": "-58.36740000",
        "timezone": null,
        "wikiDataId": "Q47062"
    },
    {
        "id": 89808,
        "name": "Pilar",
        "state_id": 2781,
        "state_code": "12",
        "state_name": "Ñeembucú",
        "country_id": 172,
        "country_code": "PY",
        "country_name": "Paraguay",
        "latitude": "-26.85874000",
        "longitude": "-58.30639000",
        "timezone": null,
        "wikiDataId": "Q135970"
    },
    {
        "id": 89717,
        "name": "Acahay",
        "state_id": 2774,
        "state_code": "9",
        "state_name": "Paraguarí",
        "country_id": 172,
        "country_code": "PY",
        "country_name": "Paraguay",
        "latitude": "-25.91667000",
        "longitude": "-57.15000000",
        "timezone": null,
        "wikiDataId": "Q926511"
    },
    {
        "id": 89731,
        "name": "Caapucú",
        "state_id": 2774,
        "state_code": "9",
        "state_name": "Paraguarí",
        "country_id": 172,
        "country_code": "PY",
        "country_name": "Paraguay",
        "latitude": "-26.23523000",
        "longitude": "-57.18212000",
        "timezone": null,
        "wikiDataId": "Q2410335"
    },
    {
        "id": 89739,
        "name": "Carapeguá",
        "state_id": 2774,
        "state_code": "9",
        "state_name": "Paraguarí",
        "country_id": 172,
        "country_code": "PY",
        "country_name": "Paraguay",
        "latitude": "-25.80000000",
        "longitude": "-57.23333000",
        "timezone": null,
        "wikiDataId": "Q17564711"
    },
    {
        "id": 89789,
        "name": "La Colmena",
        "state_id": 2774,
        "state_code": "9",
        "state_name": "Paraguarí",
        "country_id": 172,
        "country_code": "PY",
        "country_name": "Paraguay",
        "latitude": "-25.88627000",
        "longitude": "-56.84084000",
        "timezone": null,
        "wikiDataId": "Q1988977"
    },
    {
        "id": 89797,
        "name": "Mbuyapey",
        "state_id": 2774,
        "state_code": "9",
        "state_name": "Paraguarí",
        "country_id": 172,
        "country_code": "PY",
        "country_name": "Paraguay",
        "latitude": "-26.21921000",
        "longitude": "-56.75777000",
        "timezone": null,
        "wikiDataId": "Q2410379"
    },
    {
        "id": 89806,
        "name": "Paraguarí",
        "state_id": 2774,
        "state_code": "9",
        "state_name": "Paraguarí",
        "country_id": 172,
        "country_code": "PY",
        "country_name": "Paraguay",
        "latitude": "-25.62083000",
        "longitude": "-57.14722000",
        "timezone": null,
        "wikiDataId": "Q541522"
    },
    {
        "id": 89810,
        "name": "Pirayú",
        "state_id": 2774,
        "state_code": "9",
        "state_name": "Paraguarí",
        "country_id": 172,
        "country_code": "PY",
        "country_name": "Paraguay",
        "latitude": "-25.48406000",
        "longitude": "-57.23490000",
        "timezone": null,
        "wikiDataId": "Q135970"
    },
    {
        "id": 89815,
        "name": "Quiindy",
        "state_id": 2774,
        "state_code": "9",
        "state_name": "Paraguarí",
        "country_id": 172,
        "country_code": "PY",
        "country_name": "Paraguay",
        "latitude": "-25.97606000",
        "longitude": "-57.23353000",
        "timezone": null,
        "wikiDataId": "Q135970"
    },
    {
        "id": 89838,
        "name": "Sapucaí",
        "state_id": 2774,
        "state_code": "9",
        "state_name": "Paraguarí",
        "country_id": 172,
        "country_code": "PY",
        "country_name": "Paraguay",
        "latitude": "-25.66652000",
        "longitude": "-56.95215000",
        "timezone": null,
        "wikiDataId": "Q1751103"
    },
    {
        "id": 89847,
        "name": "Yaguarón",
        "state_id": 2774,
        "state_code": "9",
        "state_name": "Paraguarí",
        "country_id": 172,
        "country_code": "PY",
        "country_name": "Paraguay",
        "latitude": "-25.56139000",
        "longitude": "-57.28343000",
        "timezone": null,
        "wikiDataId": "Q2638696"
    },
    {
        "id": 89849,
        "name": "Ybycuí",
        "state_id": 2774,
        "state_code": "9",
        "state_name": "Paraguarí",
        "country_id": 172,
        "country_code": "PY",
        "country_name": "Paraguay",
        "latitude": "-26.01667000",
        "longitude": "-57.05000000",
        "timezone": null,
        "wikiDataId": "Q2410864"
    },
    {
        "id": 89727,
        "name": "Benjamín Aceval",
        "state_id": 2770,
        "state_code": "15",
        "state_name": "Presidente Hayes",
        "country_id": 172,
        "country_code": "PY",
        "country_name": "Paraguay",
        "latitude": "-24.96667000",
        "longitude": "-57.56667000",
        "timezone": null,
        "wikiDataId": "Q31913669"
    },
    {
        "id": 89798,
        "name": "Nanawua",
        "state_id": 2770,
        "state_code": "15",
        "state_name": "Presidente Hayes",
        "country_id": 172,
        "country_code": "PY",
        "country_name": "Paraguay",
        "latitude": "-25.27930000",
        "longitude": "-57.70307000",
        "timezone": null,
        "wikiDataId": "Q541522"
    },
    {
        "id": 89845,
        "name": "Villa Hayes",
        "state_id": 2770,
        "state_code": "15",
        "state_name": "Presidente Hayes",
        "country_id": 172,
        "country_code": "PY",
        "country_name": "Paraguay",
        "latitude": "-25.09306000",
        "longitude": "-57.52361000",
        "timezone": null,
        "wikiDataId": "Q1092820"
    },
    {
        "id": 89719,
        "name": "Antequera",
        "state_id": 2776,
        "state_code": "2",
        "state_name": "San Pedro",
        "country_id": 172,
        "country_code": "PY",
        "country_name": "Paraguay",
        "latitude": "-24.08526000",
        "longitude": "-57.20221000",
        "timezone": null,
        "wikiDataId": "Q31884178"
    },
    {
        "id": 89737,
        "name": "Capiíbary",
        "state_id": 2776,
        "state_code": "2",
        "state_name": "San Pedro",
        "country_id": 172,
        "country_code": "PY",
        "country_name": "Paraguay",
        "latitude": "-24.80000000",
        "longitude": "-56.03333000",
        "timezone": null,
        "wikiDataId": "Q17564711"
    },
    {
        "id": 89753,
        "name": "Colonia Nueva Germania",
        "state_id": 2776,
        "state_code": "2",
        "state_name": "San Pedro",
        "country_id": 172,
        "country_code": "PY",
        "country_name": "Paraguay",
        "latitude": "-23.91137000",
        "longitude": "-56.70091000",
        "timezone": null,
        "wikiDataId": "Q1709409"
    },
    {
        "id": 89771,
        "name": "General Elizardo Aquino",
        "state_id": 2776,
        "state_code": "2",
        "state_name": "San Pedro",
        "country_id": 172,
        "country_code": "PY",
        "country_name": "Paraguay",
        "latitude": "-24.44417000",
        "longitude": "-56.90061000",
        "timezone": null,
        "wikiDataId": "Q47062"
    },
    {
        "id": 89775,
        "name": "Guayaybi",
        "state_id": 2776,
        "state_code": "2",
        "state_name": "San Pedro",
        "country_id": 172,
        "country_code": "PY",
        "country_name": "Paraguay",
        "latitude": "-24.53333000",
        "longitude": "-56.43333000",
        "timezone": null,
        "wikiDataId": "Q47062"
    },
    {
        "id": 89781,
        "name": "Itacurubí del Rosario",
        "state_id": 2776,
        "state_code": "2",
        "state_name": "San Pedro",
        "country_id": 172,
        "country_code": "PY",
        "country_name": "Paraguay",
        "latitude": "-24.53541000",
        "longitude": "-56.82352000",
        "timezone": null,
        "wikiDataId": "Q1988977"
    },
    {
        "id": 89792,
        "name": "Lima",
        "state_id": 2776,
        "state_code": "2",
        "state_name": "San Pedro",
        "country_id": 172,
        "country_code": "PY",
        "country_name": "Paraguay",
        "latitude": "-23.88327000",
        "longitude": "-56.48217000",
        "timezone": null,
        "wikiDataId": "Q47052"
    },
    {
        "id": 89814,
        "name": "Puerto Rosario",
        "state_id": 2776,
        "state_code": "2",
        "state_name": "San Pedro",
        "country_id": 172,
        "country_code": "PY",
        "country_name": "Paraguay",
        "latitude": "-24.44127000",
        "longitude": "-57.14272000",
        "timezone": null,
        "wikiDataId": "Q135970"
    },
    {
        "id": 89831,
        "name": "San Pedro de Ycuamandiyú",
        "state_id": 2776,
        "state_code": "2",
        "state_name": "San Pedro",
        "country_id": 172,
        "country_code": "PY",
        "country_name": "Paraguay",
        "latitude": "-24.08534000",
        "longitude": "-57.08745000",
        "timezone": null,
        "wikiDataId": "Q135993"
    },
    {
        "id": 89839,
        "name": "Tacuatí",
        "state_id": 2776,
        "state_code": "2",
        "state_name": "San Pedro",
        "country_id": 172,
        "country_code": "PY",
        "country_name": "Paraguay",
        "latitude": "-23.45000000",
        "longitude": "-56.58333000",
        "timezone": null,
        "wikiDataId": "Q1751103"
    },
    {
        "id": 89842,
        "name": "Unión",
        "state_id": 2776,
        "state_code": "2",
        "state_name": "San Pedro",
        "country_id": 172,
        "country_code": "PY",
        "country_name": "Paraguay",
        "latitude": "-24.80790000",
        "longitude": "-56.52148000",
        "timezone": null,
        "wikiDataId": "Q1092820"
    },
    {
        "id": 89848,
        "name": "Yataity del Norte",
        "state_id": 2776,
        "state_code": "2",
        "state_name": "San Pedro",
        "country_id": 172,
        "country_code": "PY",
        "country_name": "Paraguay",
        "latitude": "-24.83333000",
        "longitude": "-56.35000000",
        "timezone": null,
        "wikiDataId": "Q2638696"
    }
]