[
    {
        "id": 155015,
        "name": "La Plaine-des-Palmistes",
        "state_id": 5436,
        "state_code": "01",
        "state_name": "Saint-Benoît",
        "country_id": 180,
        "country_code": "RE",
        "country_name": "Reunion",
        "latitude": "-21.15295070",
        "longitude": "55.56180140",
        "timezone": null,
        "wikiDataId": "Q579430"
    },
    {
        "id": 155016,
        "name": "Saint-André",
        "state_id": 5436,
        "state_code": "01",
        "state_name": "Saint-Benoît",
        "country_id": 180,
        "country_code": "RE",
        "country_name": "Reunion",
        "latitude": "-20.95677270",
        "longitude": "55.55486740",
        "timezone": null,
        "wikiDataId": "Q1649370"
    },
    {
        "id": 155017,
        "name": "Saint-Benoît",
        "state_id": 5436,
        "state_code": "01",
        "state_name": "Saint-Benoît",
        "country_id": 180,
        "country_code": "RE",
        "country_name": "Reunion",
        "latitude": "-21.08859460",
        "longitude": "55.46640760",
        "timezone": null,
        "wikiDataId": "Q478215"
    },
    {
        "id": 155018,
        "name": "Sainte-Rose",
        "state_id": 5436,
        "state_code": "01",
        "state_name": "Saint-Benoît",
        "country_id": 180,
        "country_code": "RE",
        "country_name": "Reunion",
        "latitude": "-21.17782890",
        "longitude": "55.65939810",
        "timezone": null,
        "wikiDataId": "Q1014731"
    },
    {
        "id": 155019,
        "name": "Salazie",
        "state_id": 5436,
        "state_code": "01",
        "state_name": "Saint-Benoît",
        "country_id": 180,
        "country_code": "RE",
        "country_name": "Reunion",
        "latitude": "-21.05240970",
        "longitude": "55.43213370",
        "timezone": null,
        "wikiDataId": "Q1014778"
    },
    {
        "id": 155020,
        "name": "Saint-Denis",
        "state_id": 5437,
        "state_code": "02",
        "state_name": "Saint-Denis",
        "country_id": 180,
        "country_code": "RE",
        "country_name": "Reunion",
        "latitude": "-20.96456720",
        "longitude": "55.41835300",
        "timezone": null,
        "wikiDataId": "Q47045"
    },
    {
        "id": 155021,
        "name": "Sainte-Marie",
        "state_id": 5437,
        "state_code": "02",
        "state_name": "Saint-Denis",
        "country_id": 180,
        "country_code": "RE",
        "country_name": "Reunion",
        "latitude": "-20.94628420",
        "longitude": "55.44095870",
        "timezone": null,
        "wikiDataId": "Q662942"
    },
    {
        "id": 155022,
        "name": "Sainte-Suzanne",
        "state_id": 5437,
        "state_code": "02",
        "state_name": "Saint-Denis",
        "country_id": 180,
        "country_code": "RE",
        "country_name": "Reunion",
        "latitude": "-20.95063790",
        "longitude": "55.51114750",
        "timezone": null,
        "wikiDataId": "Q1757048"
    },
    {
        "id": 155024,
        "name": "La Possession",
        "state_id": 5438,
        "state_code": "03",
        "state_name": "Saint-Paul",
        "country_id": 180,
        "country_code": "RE",
        "country_name": "Reunion",
        "latitude": "-20.99667150",
        "longitude": "55.30941960",
        "timezone": null,
        "wikiDataId": "Q429770"
    },
    {
        "id": 155023,
        "name": "Le Port",
        "state_id": 5438,
        "state_code": "03",
        "state_name": "Saint-Paul",
        "country_id": 180,
        "country_code": "RE",
        "country_name": "Reunion",
        "latitude": "-20.94599810",
        "longitude": "55.26258390",
        "timezone": null,
        "wikiDataId": "Q956943"
    },
    {
        "id": 155027,
        "name": "Les Trois-Bassins",
        "state_id": 5438,
        "state_code": "03",
        "state_name": "Saint-Paul",
        "country_id": 180,
        "country_code": "RE",
        "country_name": "Reunion",
        "latitude": "-21.11380650",
        "longitude": "55.25534670",
        "timezone": null,
        "wikiDataId": "Q1014763"
    },
    {
        "id": 155025,
        "name": "Saint-Leu",
        "state_id": 5438,
        "state_code": "03",
        "state_name": "Saint-Paul",
        "country_id": 180,
        "country_code": "RE",
        "country_name": "Reunion",
        "latitude": "-21.18153740",
        "longitude": "55.26075530",
        "timezone": null,
        "wikiDataId": "Q1649363"
    },
    {
        "id": 155026,
        "name": "Saint-Paul",
        "state_id": 5438,
        "state_code": "03",
        "state_name": "Saint-Paul",
        "country_id": 180,
        "country_code": "RE",
        "country_name": "Reunion",
        "latitude": "-21.03656340",
        "longitude": "55.17542230",
        "timezone": null,
        "wikiDataId": "Q316887"
    },
    {
        "id": 155029,
        "name": "Cilaos",
        "state_id": 5439,
        "state_code": "04",
        "state_name": "Saint-Pierre",
        "country_id": 180,
        "country_code": "RE",
        "country_name": "Reunion",
        "latitude": "-21.14026750",
        "longitude": "55.37314150",
        "timezone": null,
        "wikiDataId": "Q1014746"
    },
    {
        "id": 155030,
        "name": "Entre-Deux",
        "state_id": 5439,
        "state_code": "04",
        "state_name": "Saint-Pierre",
        "country_id": 180,
        "country_code": "RE",
        "country_name": "Reunion",
        "latitude": "-21.21073870",
        "longitude": "55.41125940",
        "timezone": null,
        "wikiDataId": "Q1014800"
    },
    {
        "id": 155031,
        "name": "L'Étang-Salé",
        "state_id": 5439,
        "state_code": "04",
        "state_name": "Saint-Pierre",
        "country_id": 180,
        "country_code": "RE",
        "country_name": "Reunion",
        "latitude": "-21.23474080",
        "longitude": "55.31636860",
        "timezone": null,
        "wikiDataId": "Q1014771"
    },
    {
        "id": 155037,
        "name": "Le Tampon",
        "state_id": 5439,
        "state_code": "04",
        "state_name": "Saint-Pierre",
        "country_id": 180,
        "country_code": "RE",
        "country_name": "Reunion",
        "latitude": "-21.22500920",
        "longitude": "55.48765410",
        "timezone": null,
        "wikiDataId": "Q13648"
    },
    {
        "id": 155028,
        "name": "Les Avirons",
        "state_id": 5439,
        "state_code": "04",
        "state_name": "Saint-Pierre",
        "country_id": 180,
        "country_code": "RE",
        "country_name": "Reunion",
        "latitude": "-21.20186830",
        "longitude": "55.32166090",
        "timezone": null,
        "wikiDataId": "Q1014814"
    },
    {
        "id": 155032,
        "name": "Petite-Île",
        "state_id": 5439,
        "state_code": "04",
        "state_name": "Saint-Pierre",
        "country_id": 180,
        "country_code": "RE",
        "country_name": "Reunion",
        "latitude": "-21.33296780",
        "longitude": "55.52942050",
        "timezone": null,
        "wikiDataId": "Q1326390"
    },
    {
        "id": 155033,
        "name": "Saint-Joseph",
        "state_id": 5439,
        "state_code": "04",
        "state_name": "Saint-Pierre",
        "country_id": 180,
        "country_code": "RE",
        "country_name": "Reunion",
        "latitude": "-21.29211860",
        "longitude": "55.56161730",
        "timezone": null,
        "wikiDataId": "Q305275"
    },
    {
        "id": 155034,
        "name": "Saint-Louis",
        "state_id": 5439,
        "state_code": "04",
        "state_name": "Saint-Pierre",
        "country_id": 180,
        "country_code": "RE",
        "country_name": "Reunion",
        "latitude": "-21.22548290",
        "longitude": "55.34004400",
        "timezone": null,
        "wikiDataId": "Q1617681"
    },
    {
        "id": 155035,
        "name": "Saint-Philippe",
        "state_id": 5439,
        "state_code": "04",
        "state_name": "Saint-Pierre",
        "country_id": 180,
        "country_code": "RE",
        "country_name": "Reunion",
        "latitude": "-21.30837500",
        "longitude": "55.66118340",
        "timezone": null,
        "wikiDataId": "Q652100"
    },
    {
        "id": 155036,
        "name": "Saint-Pierre",
        "state_id": 5439,
        "state_code": "04",
        "state_name": "Saint-Pierre",
        "country_id": 180,
        "country_code": "RE",
        "country_name": "Reunion",
        "latitude": "-21.30893030",
        "longitude": "55.33953130",
        "timezone": null,
        "wikiDataId": "Q249884"
    }
]