[
    {
        "id": 89875,
        "name": "Abrud-Sat",
        "state_id": 4724,
        "state_code": "AB",
        "state_name": "Alba",
        "country_id": 181,
        "country_code": "RO",
        "country_name": "Romania",
        "latitude": "46.28166000",
        "longitude": "23.06098000",
        "timezone": null,
        "wikiDataId": "Q480831"
    },
    {
        "id": 89907,
        "name": "Aiud",
        "state_id": 4724,
        "state_code": "AB",
        "state_name": "Alba",
        "country_id": 181,
        "country_code": "RO",
        "country_name": "Romania",
        "latitude": "46.31006000",
        "longitude": "23.72128000",
        "timezone": null,
        "wikiDataId": "Q16897929"
    },
    {
        "id": 89908,
        "name": "Aiudul de Sus",
        "state_id": 4724,
        "state_code": "AB",
        "state_name": "Alba",
        "country_id": 181,
        "country_code": "RO",
        "country_name": "Romania",
        "latitude": "46.31653000",
        "longitude": "23.69053000",
        "timezone": null,
        "wikiDataId": "Q678022"
    },
    {
        "id": 89910,
        "name": "Alba Iulia",
        "state_id": 4724,
        "state_code": "AB",
        "state_name": "Alba",
        "country_id": 181,
        "country_code": "RO",
        "country_name": "Romania",
        "latitude": "46.06667000",
        "longitude": "23.58333000",
        "timezone": null,
        "wikiDataId": "Q16897566"
    },
    {
        "id": 89911,
        "name": "Albac",
        "state_id": 4724,
        "state_code": "AB",
        "state_name": "Alba",
        "country_id": 181,
        "country_code": "RO",
        "country_name": "Romania",
        "latitude": "46.45246000",
        "longitude": "22.95164000",
        "timezone": null,
        "wikiDataId": "Q15141083"
    },
    {
        "id": 89937,
        "name": "Almaşu Mare",
        "state_id": 4724,
        "state_code": "AB",
        "state_name": "Alba",
        "country_id": 181,
        "country_code": "RO",
        "country_name": "Romania",
        "latitude": "46.11014000",
        "longitude": "23.11721000",
        "timezone": null,
        "wikiDataId": "Q914176"
    },
    {
        "id": 89992,
        "name": "Arieşeni",
        "state_id": 4724,
        "state_code": "AB",
        "state_name": "Alba",
        "country_id": 181,
        "country_code": "RO",
        "country_name": "Romania",
        "latitude": "46.47641000",
        "longitude": "22.75741000",
        "timezone": null,
        "wikiDataId": "Q15293538"
    },
    {
        "id": 90006,
        "name": "Avram Iancu",
        "state_id": 4724,
        "state_code": "AB",
        "state_name": "Alba",
        "country_id": 181,
        "country_code": "RO",
        "country_name": "Romania",
        "latitude": "46.35816430",
        "longitude": "22.82572250",
        "timezone": null,
        "wikiDataId": "Q1027854"
    },
    {
        "id": 90032,
        "name": "Baia de Arieş",
        "state_id": 4724,
        "state_code": "AB",
        "state_name": "Alba",
        "country_id": 181,
        "country_code": "RO",
        "country_name": "Romania",
        "latitude": "46.38045000",
        "longitude": "23.28115000",
        "timezone": null,
        "wikiDataId": "Q16898073"
    },
    {
        "id": 90504,
        "name": "Bălcaciu",
        "state_id": 4724,
        "state_code": "AB",
        "state_name": "Alba",
        "country_id": 181,
        "country_code": "RO",
        "country_name": "Romania",
        "latitude": "46.19122000",
        "longitude": "24.06139000",
        "timezone": null,
        "wikiDataId": "Q253915"
    },
    {
        "id": 90545,
        "name": "Bărăbanț",
        "state_id": 4724,
        "state_code": "AB",
        "state_name": "Alba",
        "country_id": 181,
        "country_code": "RO",
        "country_name": "Romania",
        "latitude": "46.09930000",
        "longitude": "23.58487000",
        "timezone": null,
        "wikiDataId": "Q12082303"
    },
    {
        "id": 90109,
        "name": "Berghin",
        "state_id": 4724,
        "state_code": "AB",
        "state_name": "Alba",
        "country_id": 181,
        "country_code": "RO",
        "country_name": "Romania",
        "latitude": "46.07782000",
        "longitude": "23.73742000",
        "timezone": null,
        "wikiDataId": "Q1092886"
    },
    {
        "id": 90132,
        "name": "Biia",
        "state_id": 4724,
        "state_code": "AB",
        "state_name": "Alba",
        "country_id": 181,
        "country_code": "RO",
        "country_name": "Romania",
        "latitude": "46.23097000",
        "longitude": "24.00461000",
        "timezone": null,
        "wikiDataId": "Q823156"
    },
    {
        "id": 90143,
        "name": "Bistra",
        "state_id": 4724,
        "state_code": "AB",
        "state_name": "Alba",
        "country_id": 181,
        "country_code": "RO",
        "country_name": "Romania",
        "latitude": "46.37820000",
        "longitude": "23.10081000",
        "timezone": null,
        "wikiDataId": "Q804075"
    },
    {
        "id": 90156,
        "name": "Blaj",
        "state_id": 4724,
        "state_code": "AB",
        "state_name": "Alba",
        "country_id": 181,
        "country_code": "RO",
        "country_name": "Romania",
        "latitude": "46.17508000",
        "longitude": "23.91578000",
        "timezone": null,
        "wikiDataId": "Q583332"
    },
    {
        "id": 90161,
        "name": "Blândiana",
        "state_id": 4724,
        "state_code": "AB",
        "state_name": "Alba",
        "country_id": 181,
        "country_code": "RO",
        "country_name": "Romania",
        "latitude": "45.97943000",
        "longitude": "23.38543000",
        "timezone": null,
        "wikiDataId": "Q1027845"
    },
    {
        "id": 90159,
        "name": "Blideşti",
        "state_id": 4724,
        "state_code": "AB",
        "state_name": "Alba",
        "country_id": 181,
        "country_code": "RO",
        "country_name": "Romania",
        "latitude": "46.30000000",
        "longitude": "23.13333000",
        "timezone": null,
        "wikiDataId": "Q12082997"
    },
    {
        "id": 90344,
        "name": "Bucerdea-Grânoasă",
        "state_id": 4724,
        "state_code": "AB",
        "state_name": "Alba",
        "country_id": 181,
        "country_code": "RO",
        "country_name": "Romania",
        "latitude": "46.20000000",
        "longitude": "23.83333000",
        "timezone": null,
        "wikiDataId": "Q1092561"
    },
    {
        "id": 90350,
        "name": "Bucium",
        "state_id": 4724,
        "state_code": "AB",
        "state_name": "Alba",
        "country_id": 181,
        "country_code": "RO",
        "country_name": "Romania",
        "latitude": "46.26402000",
        "longitude": "23.17910000",
        "timezone": null,
        "wikiDataId": "Q1193905"
    },
    {
        "id": 93791,
        "name": "Câlnic",
        "state_id": 4724,
        "state_code": "AB",
        "state_name": "Alba",
        "country_id": 181,
        "country_code": "RO",
        "country_name": "Romania",
        "latitude": "45.88333000",
        "longitude": "23.66667000",
        "timezone": null,
        "wikiDataId": "Q5137511"
    },
    {
        "id": 93796,
        "name": "Câmpeni",
        "state_id": 4724,
        "state_code": "AB",
        "state_name": "Alba",
        "country_id": 181,
        "country_code": "RO",
        "country_name": "Romania",
        "latitude": "46.36667000",
        "longitude": "23.05000000",
        "timezone": null,
        "wikiDataId": "Q748451"
    },
    {
        "id": 90614,
        "name": "Cenade",
        "state_id": 4724,
        "state_code": "AB",
        "state_name": "Alba",
        "country_id": 181,
        "country_code": "RO",
        "country_name": "Romania",
        "latitude": "46.05000000",
        "longitude": "24.01667000",
        "timezone": null,
        "wikiDataId": "Q1195548"
    },
    {
        "id": 90625,
        "name": "Cergău Mare",
        "state_id": 4724,
        "state_code": "AB",
        "state_name": "Alba",
        "country_id": 181,
        "country_code": "RO",
        "country_name": "Romania",
        "latitude": "46.09869000",
        "longitude": "23.92284000",
        "timezone": null,
        "wikiDataId": "Q741543"
    },
    {
        "id": 90626,
        "name": "Cergău Mic",
        "state_id": 4724,
        "state_code": "AB",
        "state_name": "Alba",
        "country_id": 181,
        "country_code": "RO",
        "country_name": "Romania",
        "latitude": "46.08333000",
        "longitude": "23.93333000",
        "timezone": null,
        "wikiDataId": "Q718007"
    },
    {
        "id": 90642,
        "name": "Ceru-Băcăinţi",
        "state_id": 4724,
        "state_code": "AB",
        "state_name": "Alba",
        "country_id": 181,
        "country_code": "RO",
        "country_name": "Romania",
        "latitude": "45.98333000",
        "longitude": "23.25000000",
        "timezone": null,
        "wikiDataId": "Q937980"
    },
    {
        "id": 90649,
        "name": "Cetatea de Baltă",
        "state_id": 4724,
        "state_code": "AB",
        "state_name": "Alba",
        "country_id": 181,
        "country_code": "RO",
        "country_name": "Romania",
        "latitude": "46.24794000",
        "longitude": "24.17244000",
        "timezone": null,
        "wikiDataId": "Q935602"
    },
    {
        "id": 90746,
        "name": "Ciugud",
        "state_id": 4724,
        "state_code": "AB",
        "state_name": "Alba",
        "country_id": 181,
        "country_code": "RO",
        "country_name": "Romania",
        "latitude": "46.05000000",
        "longitude": "23.61667000",
        "timezone": null,
        "wikiDataId": "Q936124"
    },
    {
        "id": 90750,
        "name": "Ciumbrud",
        "state_id": 4724,
        "state_code": "AB",
        "state_name": "Alba",
        "country_id": 181,
        "country_code": "RO",
        "country_name": "Romania",
        "latitude": "46.30810000",
        "longitude": "23.76222000",
        "timezone": null,
        "wikiDataId": "Q720811"
    },
    {
        "id": 90759,
        "name": "Ciuruleasa",
        "state_id": 4724,
        "state_code": "AB",
        "state_name": "Alba",
        "country_id": 181,
        "country_code": "RO",
        "country_name": "Romania",
        "latitude": "46.25000000",
        "longitude": "23.03333000",
        "timezone": null,
        "wikiDataId": "Q874875"
    },
    {
        "id": 90837,
        "name": "Comuna Albac",
        "state_id": 4724,
        "state_code": "AB",
        "state_name": "Alba",
        "country_id": 181,
        "country_code": "RO",
        "country_name": "Romania",
        "latitude": "46.45246000",
        "longitude": "22.95027000",
        "timezone": null,
        "wikiDataId": "Q1027784"
    },
    {
        "id": 90857,
        "name": "Comuna Almaşu Mare",
        "state_id": 4724,
        "state_code": "AB",
        "state_name": "Alba",
        "country_id": 181,
        "country_code": "RO",
        "country_name": "Romania",
        "latitude": "46.10877000",
        "longitude": "23.12038000",
        "timezone": null,
        "wikiDataId": "Q16423977"
    },
    {
        "id": 90892,
        "name": "Comuna Arieşeni",
        "state_id": 4724,
        "state_code": "AB",
        "state_name": "Alba",
        "country_id": 181,
        "country_code": "RO",
        "country_name": "Romania",
        "latitude": "46.47659000",
        "longitude": "22.75535000",
        "timezone": null,
        "wikiDataId": "Q1820095"
    },
    {
        "id": 90968,
        "name": "Comuna Berghin",
        "state_id": 4724,
        "state_code": "AB",
        "state_name": "Alba",
        "country_id": 181,
        "country_code": "RO",
        "country_name": "Romania",
        "latitude": "46.07484000",
        "longitude": "23.73768000",
        "timezone": null,
        "wikiDataId": "Q16425208"
    },
    {
        "id": 90995,
        "name": "Comuna Bistra",
        "state_id": 4724,
        "state_code": "AB",
        "state_name": "Alba",
        "country_id": 181,
        "country_code": "RO",
        "country_name": "Romania",
        "latitude": "46.37856000",
        "longitude": "23.10150000",
        "timezone": null,
        "wikiDataId": "Q16425212"
    },
    {
        "id": 91005,
        "name": "Comuna Blândiana",
        "state_id": 4724,
        "state_code": "AB",
        "state_name": "Alba",
        "country_id": 181,
        "country_code": "RO",
        "country_name": "Romania",
        "latitude": "45.98146000",
        "longitude": "23.38543000",
        "timezone": null,
        "wikiDataId": "Q16425215"
    },
    {
        "id": 91125,
        "name": "Comuna Bucerdea-Grânoasă",
        "state_id": 4724,
        "state_code": "AB",
        "state_name": "Alba",
        "country_id": 181,
        "country_code": "RO",
        "country_name": "Romania",
        "latitude": "46.20878000",
        "longitude": "23.85614000",
        "timezone": null,
        "wikiDataId": "Q13583662"
    },
    {
        "id": 91129,
        "name": "Comuna Bucium",
        "state_id": 4724,
        "state_code": "AB",
        "state_name": "Alba",
        "country_id": 181,
        "country_code": "RO",
        "country_name": "Romania",
        "latitude": "46.26131000",
        "longitude": "23.15742000",
        "timezone": null,
        "wikiDataId": "Q16425220"
    },
    {
        "id": 91540,
        "name": "Comuna Câlnic",
        "state_id": 4724,
        "state_code": "AB",
        "state_name": "Alba",
        "country_id": 181,
        "country_code": "RO",
        "country_name": "Romania",
        "latitude": "45.87305000",
        "longitude": "23.64329000",
        "timezone": null,
        "wikiDataId": "Q510532"
    },
    {
        "id": 91281,
        "name": "Comuna Cenade",
        "state_id": 4724,
        "state_code": "AB",
        "state_name": "Alba",
        "country_id": 181,
        "country_code": "RO",
        "country_name": "Romania",
        "latitude": "46.08045000",
        "longitude": "24.01382000",
        "timezone": null,
        "wikiDataId": "Q16425223"
    },
    {
        "id": 91289,
        "name": "Comuna Cergău",
        "state_id": 4724,
        "state_code": "AB",
        "state_name": "Alba",
        "country_id": 181,
        "country_code": "RO",
        "country_name": "Romania",
        "latitude": "46.09314000",
        "longitude": "23.94597000",
        "timezone": null,
        "wikiDataId": "Q957862"
    },
    {
        "id": 91299,
        "name": "Comuna Ceru-Băcăinţi",
        "state_id": 4724,
        "state_code": "AB",
        "state_name": "Alba",
        "country_id": 181,
        "country_code": "RO",
        "country_name": "Romania",
        "latitude": "46.00117000",
        "longitude": "23.26983000",
        "timezone": null,
        "wikiDataId": "Q16425227"
    },
    {
        "id": 91305,
        "name": "Comuna Cetatea de Baltă",
        "state_id": 4724,
        "state_code": "AB",
        "state_name": "Alba",
        "country_id": 181,
        "country_code": "RO",
        "country_name": "Romania",
        "latitude": "46.21619000",
        "longitude": "24.16716000",
        "timezone": null,
        "wikiDataId": "Q16425231"
    },
    {
        "id": 91367,
        "name": "Comuna Ciugud",
        "state_id": 4724,
        "state_code": "AB",
        "state_name": "Alba",
        "country_id": 181,
        "country_code": "RO",
        "country_name": "Romania",
        "latitude": "46.06526000",
        "longitude": "23.62794000",
        "timezone": null,
        "wikiDataId": "Q16425234"
    },
    {
        "id": 91377,
        "name": "Comuna Ciuruleasa",
        "state_id": 4724,
        "state_code": "AB",
        "state_name": "Alba",
        "country_id": 181,
        "country_code": "RO",
        "country_name": "Romania",
        "latitude": "46.24481000",
        "longitude": "23.01644000",
        "timezone": null,
        "wikiDataId": "Q16425238"
    },
    {
        "id": 91516,
        "name": "Comuna Crăciunelu de Jos",
        "state_id": 4724,
        "state_code": "AB",
        "state_name": "Alba",
        "country_id": 181,
        "country_code": "RO",
        "country_name": "Romania",
        "latitude": "46.17285000",
        "longitude": "23.83585000",
        "timezone": null,
        "wikiDataId": "Q16425241"
    },
    {
        "id": 91495,
        "name": "Comuna Cricău",
        "state_id": 4724,
        "state_code": "AB",
        "state_name": "Alba",
        "country_id": 181,
        "country_code": "RO",
        "country_name": "Romania",
        "latitude": "46.18689000",
        "longitude": "23.55309000",
        "timezone": null,
        "wikiDataId": "Q15997439"
    },
    {
        "id": 91601,
        "name": "Comuna Daia Română",
        "state_id": 4724,
        "state_code": "AB",
        "state_name": "Alba",
        "country_id": 181,
        "country_code": "RO",
        "country_name": "Romania",
        "latitude": "46.00709000",
        "longitude": "23.66816000",
        "timezone": null,
        "wikiDataId": "Q16425250"
    },
    {
        "id": 91668,
        "name": "Comuna Doştat",
        "state_id": 4724,
        "state_code": "AB",
        "state_name": "Alba",
        "country_id": 181,
        "country_code": "RO",
        "country_name": "Romania",
        "latitude": "45.96143000",
        "longitude": "23.83313000",
        "timezone": null,
        "wikiDataId": "Q16425254"
    },
    {
        "id": 91825,
        "name": "Comuna Fărău",
        "state_id": 4724,
        "state_code": "AB",
        "state_name": "Alba",
        "country_id": 181,
        "country_code": "RO",
        "country_name": "Romania",
        "latitude": "46.32999000",
        "longitude": "24.04335000",
        "timezone": null,
        "wikiDataId": "Q16425258"
    },
    {
        "id": 91829,
        "name": "Comuna Galda de Jos",
        "state_id": 4724,
        "state_code": "AB",
        "state_name": "Alba",
        "country_id": 181,
        "country_code": "RO",
        "country_name": "Romania",
        "latitude": "46.21776000",
        "longitude": "23.56918000",
        "timezone": null,
        "wikiDataId": "Q16425261"
    },
    {
        "id": 91965,
        "name": "Comuna Gârbova",
        "state_id": 4724,
        "state_code": "AB",
        "state_name": "Alba",
        "country_id": 181,
        "country_code": "RO",
        "country_name": "Romania",
        "latitude": "45.85277000",
        "longitude": "23.68693000",
        "timezone": null,
        "wikiDataId": "Q16425265"
    },
    {
        "id": 91971,
        "name": "Comuna Gârda de Sus",
        "state_id": 4724,
        "state_code": "AB",
        "state_name": "Alba",
        "country_id": 181,
        "country_code": "RO",
        "country_name": "Romania",
        "latitude": "46.46719000",
        "longitude": "22.81519000",
        "timezone": null,
        "wikiDataId": "Q16425268"
    },
    {
        "id": 92014,
        "name": "Comuna Hopârta",
        "state_id": 4724,
        "state_code": "AB",
        "state_name": "Alba",
        "country_id": 181,
        "country_code": "RO",
        "country_name": "Romania",
        "latitude": "46.33134000",
        "longitude": "23.90340000",
        "timezone": null,
        "wikiDataId": "Q16425272"
    },
    {
        "id": 92015,
        "name": "Comuna Horea",
        "state_id": 4724,
        "state_code": "AB",
        "state_name": "Alba",
        "country_id": 181,
        "country_code": "RO",
        "country_name": "Romania",
        "latitude": "46.50058000",
        "longitude": "22.94915000",
        "timezone": null,
        "wikiDataId": "Q16425275"
    },
    {
        "id": 92066,
        "name": "Comuna Ighiu",
        "state_id": 4724,
        "state_code": "AB",
        "state_name": "Alba",
        "country_id": 181,
        "country_code": "RO",
        "country_name": "Romania",
        "latitude": "46.14854000",
        "longitude": "23.51232000",
        "timezone": null,
        "wikiDataId": "Q16425280"
    },
    {
        "id": 93494,
        "name": "Comuna Întregalde",
        "state_id": 4724,
        "state_code": "AB",
        "state_name": "Alba",
        "country_id": 181,
        "country_code": "RO",
        "country_name": "Romania",
        "latitude": "46.24908000",
        "longitude": "23.39213000",
        "timezone": null,
        "wikiDataId": "Q16425283"
    },
    {
        "id": 92121,
        "name": "Comuna Jidvei",
        "state_id": 4724,
        "state_code": "AB",
        "state_name": "Alba",
        "country_id": 181,
        "country_code": "RO",
        "country_name": "Romania",
        "latitude": "46.23083000",
        "longitude": "24.11475000",
        "timezone": null,
        "wikiDataId": "Q16425286"
    },
    {
        "id": 92176,
        "name": "Comuna Livezile",
        "state_id": 4724,
        "state_code": "AB",
        "state_name": "Alba",
        "country_id": 181,
        "country_code": "RO",
        "country_name": "Romania",
        "latitude": "46.37559000",
        "longitude": "23.58563000",
        "timezone": null,
        "wikiDataId": "Q16425290"
    },
    {
        "id": 92183,
        "name": "Comuna Lopadea Nouă",
        "state_id": 4724,
        "state_code": "AB",
        "state_name": "Alba",
        "country_id": 181,
        "country_code": "RO",
        "country_name": "Romania",
        "latitude": "46.27782000",
        "longitude": "23.84975000",
        "timezone": null,
        "wikiDataId": "Q16425294"
    },
    {
        "id": 92205,
        "name": "Comuna Lunca Mureşului",
        "state_id": 4724,
        "state_code": "AB",
        "state_name": "Alba",
        "country_id": 181,
        "country_code": "RO",
        "country_name": "Romania",
        "latitude": "46.42943000",
        "longitude": "23.93272000",
        "timezone": null,
        "wikiDataId": "Q12118816"
    },
    {
        "id": 92216,
        "name": "Comuna Lupşa",
        "state_id": 4724,
        "state_code": "AB",
        "state_name": "Alba",
        "country_id": 181,
        "country_code": "RO",
        "country_name": "Romania",
        "latitude": "46.34891000",
        "longitude": "23.20455000",
        "timezone": null,
        "wikiDataId": "Q12696316"
    },
    {
        "id": 92262,
        "name": "Comuna Meteş",
        "state_id": 4724,
        "state_code": "AB",
        "state_name": "Alba",
        "country_id": 181,
        "country_code": "RO",
        "country_name": "Romania",
        "latitude": "46.10543000",
        "longitude": "23.41707000",
        "timezone": null,
        "wikiDataId": "Q16425301"
    },
    {
        "id": 92278,
        "name": "Comuna Mihalţ",
        "state_id": 4724,
        "state_code": "AB",
        "state_name": "Alba",
        "country_id": 181,
        "country_code": "RO",
        "country_name": "Romania",
        "latitude": "46.17641000",
        "longitude": "23.73841000",
        "timezone": null,
        "wikiDataId": "Q16425304"
    },
    {
        "id": 92303,
        "name": "Comuna Mirăslău",
        "state_id": 4724,
        "state_code": "AB",
        "state_name": "Alba",
        "country_id": 181,
        "country_code": "RO",
        "country_name": "Romania",
        "latitude": "46.38660000",
        "longitude": "23.69329000",
        "timezone": null,
        "wikiDataId": "Q16425308"
    },
    {
        "id": 92317,
        "name": "Comuna Mogoş",
        "state_id": 4724,
        "state_code": "AB",
        "state_name": "Alba",
        "country_id": 181,
        "country_code": "RO",
        "country_name": "Romania",
        "latitude": "46.28356000",
        "longitude": "23.31873000",
        "timezone": null,
        "wikiDataId": "Q16425313"
    },
    {
        "id": 92453,
        "name": "Comuna Noşlac",
        "state_id": 4724,
        "state_code": "AB",
        "state_name": "Alba",
        "country_id": 181,
        "country_code": "RO",
        "country_name": "Romania",
        "latitude": "46.41300000",
        "longitude": "23.97668000",
        "timezone": null,
        "wikiDataId": "Q16425317"
    },
    {
        "id": 92480,
        "name": "Comuna Ocoliş",
        "state_id": 4724,
        "state_code": "AB",
        "state_name": "Alba",
        "country_id": 181,
        "country_code": "RO",
        "country_name": "Romania",
        "latitude": "46.49636000",
        "longitude": "23.46581000",
        "timezone": null,
        "wikiDataId": "Q16425320"
    },
    {
        "id": 92487,
        "name": "Comuna Ohaba",
        "state_id": 4724,
        "state_code": "AB",
        "state_name": "Alba",
        "country_id": 181,
        "country_code": "RO",
        "country_name": "Romania",
        "latitude": "46.08263000",
        "longitude": "23.80106000",
        "timezone": null,
        "wikiDataId": "Q16425324"
    },
    {
        "id": 92572,
        "name": "Comuna Pianu",
        "state_id": 4724,
        "state_code": "AB",
        "state_name": "Alba",
        "country_id": 181,
        "country_code": "RO",
        "country_name": "Romania",
        "latitude": "45.87127000",
        "longitude": "23.49549000",
        "timezone": null,
        "wikiDataId": "Q182693"
    },
    {
        "id": 92634,
        "name": "Comuna Poiana Vadului",
        "state_id": 4724,
        "state_code": "AB",
        "state_name": "Alba",
        "country_id": 181,
        "country_code": "RO",
        "country_name": "Romania",
        "latitude": "46.40457000",
        "longitude": "22.87080000",
        "timezone": null,
        "wikiDataId": "Q16425329"
    },
    {
        "id": 92651,
        "name": "Comuna Ponor",
        "state_id": 4724,
        "state_code": "AB",
        "state_name": "Alba",
        "country_id": 181,
        "country_code": "RO",
        "country_name": "Romania",
        "latitude": "46.32065000",
        "longitude": "23.40376000",
        "timezone": null,
        "wikiDataId": "Q16425333"
    },
    {
        "id": 92666,
        "name": "Comuna Poşaga",
        "state_id": 4724,
        "state_code": "AB",
        "state_name": "Alba",
        "country_id": 181,
        "country_code": "RO",
        "country_name": "Romania",
        "latitude": "46.45354000",
        "longitude": "23.36115000",
        "timezone": null,
        "wikiDataId": "Q935480"
    },
    {
        "id": 92842,
        "name": "Comuna Rădeşti",
        "state_id": 4724,
        "state_code": "AB",
        "state_name": "Alba",
        "country_id": 181,
        "country_code": "RO",
        "country_name": "Romania",
        "latitude": "46.24931000",
        "longitude": "23.74444000",
        "timezone": null,
        "wikiDataId": "Q12147304"
    },
    {
        "id": 92822,
        "name": "Comuna Râmeţ",
        "state_id": 4724,
        "state_code": "AB",
        "state_name": "Alba",
        "country_id": 181,
        "country_code": "RO",
        "country_name": "Romania",
        "latitude": "46.31564000",
        "longitude": "23.52602000",
        "timezone": null,
        "wikiDataId": "Q2285124"
    },
    {
        "id": 92821,
        "name": "Comuna Râmetea",
        "state_id": 4724,
        "state_code": "AB",
        "state_name": "Alba",
        "country_id": 181,
        "country_code": "RO",
        "country_name": "Romania",
        "latitude": "46.43815000",
        "longitude": "23.56579000",
        "timezone": null,
        "wikiDataId": "Q16467066"
    },
    {
        "id": 92799,
        "name": "Comuna Roşia de Secaş",
        "state_id": 4724,
        "state_code": "AB",
        "state_name": "Alba",
        "country_id": 181,
        "country_code": "RO",
        "country_name": "Romania",
        "latitude": "46.04807000",
        "longitude": "23.85329000",
        "timezone": null,
        "wikiDataId": "Q12148995"
    },
    {
        "id": 92798,
        "name": "Comuna Roşia Montană",
        "state_id": 4724,
        "state_code": "AB",
        "state_name": "Alba",
        "country_id": 181,
        "country_code": "RO",
        "country_name": "Romania",
        "latitude": "46.30991000",
        "longitude": "23.08697000",
        "timezone": null,
        "wikiDataId": "Q12148992"
    },
    {
        "id": 93096,
        "name": "Comuna Sălciua",
        "state_id": 4724,
        "state_code": "AB",
        "state_name": "Alba",
        "country_id": 181,
        "country_code": "RO",
        "country_name": "Romania",
        "latitude": "46.38261000",
        "longitude": "23.41526000",
        "timezone": null,
        "wikiDataId": "Q766780"
    },
    {
        "id": 93076,
        "name": "Comuna Sãliştea",
        "state_id": 4724,
        "state_code": "AB",
        "state_name": "Alba",
        "country_id": 181,
        "country_code": "RO",
        "country_name": "Romania",
        "latitude": "45.91425000",
        "longitude": "23.41294000",
        "timezone": null,
        "wikiDataId": "Q16425339"
    },
    {
        "id": 93049,
        "name": "Comuna Sâncel",
        "state_id": 4724,
        "state_code": "AB",
        "state_name": "Alba",
        "country_id": 181,
        "country_code": "RO",
        "country_name": "Romania",
        "latitude": "46.21176000",
        "longitude": "23.94791000",
        "timezone": null,
        "wikiDataId": "Q16425352"
    },
    {
        "id": 93067,
        "name": "Comuna Sântimbru",
        "state_id": 4724,
        "state_code": "AB",
        "state_name": "Alba",
        "country_id": 181,
        "country_code": "RO",
        "country_name": "Romania",
        "latitude": "46.12974000",
        "longitude": "23.66899000",
        "timezone": null,
        "wikiDataId": "Q16425356"
    },
    {
        "id": 93112,
        "name": "Comuna Săsciori",
        "state_id": 4724,
        "state_code": "AB",
        "state_name": "Alba",
        "country_id": 181,
        "country_code": "RO",
        "country_name": "Romania",
        "latitude": "45.85629000",
        "longitude": "23.56898000",
        "timezone": null,
        "wikiDataId": "Q16425343"
    },
    {
        "id": 92905,
        "name": "Comuna Scărişoara",
        "state_id": 4724,
        "state_code": "AB",
        "state_name": "Alba",
        "country_id": 181,
        "country_code": "RO",
        "country_name": "Romania",
        "latitude": "46.46072000",
        "longitude": "22.88166000",
        "timezone": null,
        "wikiDataId": "Q16425349"
    },
    {
        "id": 93512,
        "name": "Comuna Şibot",
        "state_id": 4724,
        "state_code": "AB",
        "state_name": "Alba",
        "country_id": 181,
        "country_code": "RO",
        "country_name": "Romania",
        "latitude": "45.94093000",
        "longitude": "23.32226000",
        "timezone": null,
        "wikiDataId": "Q396988"
    },
    {
        "id": 92972,
        "name": "Comuna Sohodol",
        "state_id": 4724,
        "state_code": "AB",
        "state_name": "Alba",
        "country_id": 181,
        "country_code": "RO",
        "country_name": "Romania",
        "latitude": "46.32748000",
        "longitude": "22.99414000",
        "timezone": null,
        "wikiDataId": "Q16425359"
    },
    {
        "id": 93540,
        "name": "Comuna Şona",
        "state_id": 4724,
        "state_code": "AB",
        "state_name": "Alba",
        "country_id": 181,
        "country_code": "RO",
        "country_name": "Romania",
        "latitude": "46.25089000",
        "longitude": "24.00259000",
        "timezone": null,
        "wikiDataId": "Q4675794"
    },
    {
        "id": 93545,
        "name": "Comuna Şpring",
        "state_id": 4724,
        "state_code": "AB",
        "state_name": "Alba",
        "country_id": 181,
        "country_code": "RO",
        "country_name": "Romania",
        "latitude": "45.96833000",
        "longitude": "23.73449000",
        "timezone": null,
        "wikiDataId": "Q16425367"
    },
    {
        "id": 93003,
        "name": "Comuna Stremţ",
        "state_id": 4724,
        "state_code": "AB",
        "state_name": "Alba",
        "country_id": 181,
        "country_code": "RO",
        "country_name": "Romania",
        "latitude": "46.25606000",
        "longitude": "23.59340000",
        "timezone": null,
        "wikiDataId": "Q16425363"
    },
    {
        "id": 93558,
        "name": "Comuna Şugag",
        "state_id": 4724,
        "state_code": "AB",
        "state_name": "Alba",
        "country_id": 181,
        "country_code": "RO",
        "country_name": "Romania",
        "latitude": "45.74780000",
        "longitude": "23.59957000",
        "timezone": null,
        "wikiDataId": "Q16425371"
    },
    {
        "id": 93274,
        "name": "Comuna Unirea",
        "state_id": 4724,
        "state_code": "AB",
        "state_name": "Alba",
        "country_id": 181,
        "country_code": "RO",
        "country_name": "Romania",
        "latitude": "46.41948000",
        "longitude": "23.76260000",
        "timezone": null,
        "wikiDataId": "Q16425375"
    },
    {
        "id": 93293,
        "name": "Comuna Vadu Moţilor",
        "state_id": 4724,
        "state_code": "AB",
        "state_name": "Alba",
        "country_id": 181,
        "country_code": "RO",
        "country_name": "Romania",
        "latitude": "46.40910000",
        "longitude": "22.95532000",
        "timezone": null,
        "wikiDataId": "Q12087211"
    },
    {
        "id": 93308,
        "name": "Comuna Valea Lungă",
        "state_id": 4724,
        "state_code": "AB",
        "state_name": "Alba",
        "country_id": 181,
        "country_code": "RO",
        "country_name": "Romania",
        "latitude": "46.13355000",
        "longitude": "24.08280000",
        "timezone": null,
        "wikiDataId": "Q16425379"
    },
    {
        "id": 93354,
        "name": "Comuna Vidra",
        "state_id": 4724,
        "state_code": "AB",
        "state_name": "Alba",
        "country_id": 181,
        "country_code": "RO",
        "country_name": "Romania",
        "latitude": "46.37067000",
        "longitude": "22.92726000",
        "timezone": null,
        "wikiDataId": "Q16425383"
    },
    {
        "id": 93368,
        "name": "Comuna Vinţu de Jos",
        "state_id": 4724,
        "state_code": "AB",
        "state_name": "Alba",
        "country_id": 181,
        "country_code": "RO",
        "country_name": "Romania",
        "latitude": "46.02229000",
        "longitude": "23.45647000",
        "timezone": null,
        "wikiDataId": "Q16425386"
    },
    {
        "id": 93751,
        "name": "Crăciunelu de Jos",
        "state_id": 4724,
        "state_code": "AB",
        "state_name": "Alba",
        "country_id": 181,
        "country_code": "RO",
        "country_name": "Romania",
        "latitude": "46.18333000",
        "longitude": "23.83333000",
        "timezone": null,
        "wikiDataId": "Q664814"
    },
    {
        "id": 93717,
        "name": "Cricău",
        "state_id": 4724,
        "state_code": "AB",
        "state_name": "Alba",
        "country_id": 181,
        "country_code": "RO",
        "country_name": "Romania",
        "latitude": "46.18333000",
        "longitude": "23.56667000",
        "timezone": null,
        "wikiDataId": "Q1009957"
    },
    {
        "id": 93765,
        "name": "Cugir",
        "state_id": 4724,
        "state_code": "AB",
        "state_name": "Alba",
        "country_id": 181,
        "country_code": "RO",
        "country_name": "Romania",
        "latitude": "45.83651000",
        "longitude": "23.36998000",
        "timezone": null,
        "wikiDataId": "Q12116333"
    },
    {
        "id": 93780,
        "name": "Cut",
        "state_id": 4724,
        "state_code": "AB",
        "state_name": "Alba",
        "country_id": 181,
        "country_code": "RO",
        "country_name": "Romania",
        "latitude": "45.93972450",
        "longitude": "23.66719340",
        "timezone": null,
        "wikiDataId": "Q1059410"
    },
    {
        "id": 93889,
        "name": "Daia Română",
        "state_id": 4724,
        "state_code": "AB",
        "state_name": "Alba",
        "country_id": 181,
        "country_code": "RO",
        "country_name": "Romania",
        "latitude": "46.01667000",
        "longitude": "23.66667000",
        "timezone": null,
        "wikiDataId": "Q1008424"
    },
    {
        "id": 93947,
        "name": "Dobra",
        "state_id": 4724,
        "state_code": "AB",
        "state_name": "Alba",
        "country_id": 181,
        "country_code": "RO",
        "country_name": "Romania",
        "latitude": "45.76913000",
        "longitude": "23.64218000",
        "timezone": null,
        "wikiDataId": "Q12101458"
    },
    {
        "id": 94008,
        "name": "Doştat",
        "state_id": 4724,
        "state_code": "AB",
        "state_name": "Alba",
        "country_id": 181,
        "country_code": "RO",
        "country_name": "Romania",
        "latitude": "45.96667000",
        "longitude": "23.85000000",
        "timezone": null,
        "wikiDataId": "Q1019308"
    },
    {
        "id": 94268,
        "name": "Fărău",
        "state_id": 4724,
        "state_code": "AB",
        "state_name": "Alba",
        "country_id": 181,
        "country_code": "RO",
        "country_name": "Romania",
        "latitude": "46.33333000",
        "longitude": "24.01667000",
        "timezone": null,
        "wikiDataId": "Q936137"
    },
    {
        "id": 94151,
        "name": "Feisa",
        "state_id": 4724,
        "state_code": "AB",
        "state_name": "Alba",
        "country_id": 181,
        "country_code": "RO",
        "country_name": "Romania",
        "latitude": "46.22608000",
        "longitude": "24.14492000",
        "timezone": null,
        "wikiDataId": "Q251676"
    },
    {
        "id": 94157,
        "name": "Feneș",
        "state_id": 4724,
        "state_code": "AB",
        "state_name": "Alba",
        "country_id": 181,
        "country_code": "RO",
        "country_name": "Romania",
        "latitude": "46.10431000",
        "longitude": "23.29511000",
        "timezone": null,
        "wikiDataId": "Q752223"
    },
    {
        "id": 94276,
        "name": "Galda de Jos",
        "state_id": 4724,
        "state_code": "AB",
        "state_name": "Alba",
        "country_id": 181,
        "country_code": "RO",
        "country_name": "Romania",
        "latitude": "46.18333000",
        "longitude": "23.61667000",
        "timezone": null,
        "wikiDataId": "Q664479"
    },
    {
        "id": 94483,
        "name": "Gârbova",
        "state_id": 4724,
        "state_code": "AB",
        "state_name": "Alba",
        "country_id": 181,
        "country_code": "RO",
        "country_name": "Romania",
        "latitude": "45.86667000",
        "longitude": "23.73333000",
        "timezone": null,
        "wikiDataId": "Q949473"
    },
    {
        "id": 94489,
        "name": "Gârda de Sus",
        "state_id": 4724,
        "state_code": "AB",
        "state_name": "Alba",
        "country_id": 181,
        "country_code": "RO",
        "country_name": "Romania",
        "latitude": "46.45000000",
        "longitude": "22.81667000",
        "timezone": null,
        "wikiDataId": "Q936118"
    },
    {
        "id": 94556,
        "name": "Hopârta",
        "state_id": 4724,
        "state_code": "AB",
        "state_name": "Alba",
        "country_id": 181,
        "country_code": "RO",
        "country_name": "Romania",
        "latitude": "46.32134000",
        "longitude": "23.87244000",
        "timezone": null,
        "wikiDataId": "Q1008443"
    },
    {
        "id": 94557,
        "name": "Horea",
        "state_id": 4724,
        "state_code": "AB",
        "state_name": "Alba",
        "country_id": 181,
        "country_code": "RO",
        "country_name": "Romania",
        "latitude": "46.50246000",
        "longitude": "22.95034000",
        "timezone": null,
        "wikiDataId": "Q774739"
    },
    {
        "id": 94647,
        "name": "Ighiel",
        "state_id": 4724,
        "state_code": "AB",
        "state_name": "Alba",
        "country_id": 181,
        "country_code": "RO",
        "country_name": "Romania",
        "latitude": "46.14680000",
        "longitude": "23.47968000",
        "timezone": null,
        "wikiDataId": "Q723969"
    },
    {
        "id": 94648,
        "name": "Ighiu",
        "state_id": 4724,
        "state_code": "AB",
        "state_name": "Alba",
        "country_id": 181,
        "country_code": "RO",
        "country_name": "Romania",
        "latitude": "46.15000000",
        "longitude": "23.51667000",
        "timezone": null,
        "wikiDataId": "Q1022813"
    },
    {
        "id": 94671,
        "name": "Intregalde",
        "state_id": 4724,
        "state_code": "AB",
        "state_name": "Alba",
        "country_id": 181,
        "country_code": "RO",
        "country_name": "Romania",
        "latitude": "46.25000000",
        "longitude": "23.41667000",
        "timezone": null,
        "wikiDataId": "Q980510"
    },
    {
        "id": 94710,
        "name": "Izvoarele",
        "state_id": 4724,
        "state_code": "AB",
        "state_name": "Alba",
        "country_id": 181,
        "country_code": "RO",
        "country_name": "Romania",
        "latitude": "46.17011000",
        "longitude": "23.90377000",
        "timezone": null,
        "wikiDataId": "Q12074017"
    },
    {
        "id": 94733,
        "name": "Jidvei",
        "state_id": 4724,
        "state_code": "AB",
        "state_name": "Alba",
        "country_id": 181,
        "country_code": "RO",
        "country_name": "Romania",
        "latitude": "46.21667000",
        "longitude": "24.10000000",
        "timezone": null,
        "wikiDataId": "Q937616"
    },
    {
        "id": 94758,
        "name": "Lancrăm",
        "state_id": 4724,
        "state_code": "AB",
        "state_name": "Alba",
        "country_id": 181,
        "country_code": "RO",
        "country_name": "Romania",
        "latitude": "45.98708000",
        "longitude": "23.55665000",
        "timezone": null,
        "wikiDataId": "Q835580"
    },
    {
        "id": 94823,
        "name": "Livezile",
        "state_id": 4724,
        "state_code": "AB",
        "state_name": "Alba",
        "country_id": 181,
        "country_code": "RO",
        "country_name": "Romania",
        "latitude": "46.35000000",
        "longitude": "23.63333000",
        "timezone": null,
        "wikiDataId": "Q937028"
    },
    {
        "id": 94832,
        "name": "Lopadea Nouă",
        "state_id": 4724,
        "state_code": "AB",
        "state_name": "Alba",
        "country_id": 181,
        "country_code": "RO",
        "country_name": "Romania",
        "latitude": "46.29090000",
        "longitude": "23.81901000",
        "timezone": null,
        "wikiDataId": "Q937029"
    },
    {
        "id": 94868,
        "name": "Lunca Mureşului",
        "state_id": 4724,
        "state_code": "AB",
        "state_name": "Alba",
        "country_id": 181,
        "country_code": "RO",
        "country_name": "Romania",
        "latitude": "46.43333000",
        "longitude": "23.90000000",
        "timezone": null,
        "wikiDataId": "Q949873"
    },
    {
        "id": 94886,
        "name": "Lupşa",
        "state_id": 4724,
        "state_code": "AB",
        "state_name": "Alba",
        "country_id": 181,
        "country_code": "RO",
        "country_name": "Romania",
        "latitude": "46.36667000",
        "longitude": "23.20000000",
        "timezone": null,
        "wikiDataId": "Q913412"
    },
    {
        "id": 94962,
        "name": "Meteş",
        "state_id": 4724,
        "state_code": "AB",
        "state_name": "Alba",
        "country_id": 181,
        "country_code": "RO",
        "country_name": "Romania",
        "latitude": "46.10000000",
        "longitude": "23.41667000",
        "timezone": null,
        "wikiDataId": "Q858192"
    },
    {
        "id": 94967,
        "name": "Micești",
        "state_id": 4724,
        "state_code": "AB",
        "state_name": "Alba",
        "country_id": 181,
        "country_code": "RO",
        "country_name": "Romania",
        "latitude": "46.10141000",
        "longitude": "23.55573000",
        "timezone": null,
        "wikiDataId": "Q840024"
    },
    {
        "id": 94985,
        "name": "Mihalţ",
        "state_id": 4724,
        "state_code": "AB",
        "state_name": "Alba",
        "country_id": 181,
        "country_code": "RO",
        "country_name": "Romania",
        "latitude": "46.15000000",
        "longitude": "23.73333000",
        "timezone": null,
        "wikiDataId": "Q731535"
    },
    {
        "id": 95025,
        "name": "Mirăslău",
        "state_id": 4724,
        "state_code": "AB",
        "state_name": "Alba",
        "country_id": 181,
        "country_code": "RO",
        "country_name": "Romania",
        "latitude": "46.36667000",
        "longitude": "23.71667000",
        "timezone": null,
        "wikiDataId": "Q1096653"
    },
    {
        "id": 95056,
        "name": "Mogoș",
        "state_id": 4724,
        "state_code": "AB",
        "state_name": "Alba",
        "country_id": 181,
        "country_code": "RO",
        "country_name": "Romania",
        "latitude": "46.27554000",
        "longitude": "23.28038000",
        "timezone": null,
        "wikiDataId": "Q913650"
    },
    {
        "id": 95106,
        "name": "Municipiul Aiud",
        "state_id": 4724,
        "state_code": "AB",
        "state_name": "Alba",
        "country_id": 181,
        "country_code": "RO",
        "country_name": "Romania",
        "latitude": "46.30440000",
        "longitude": "23.69751000",
        "timezone": null,
        "wikiDataId": "Q411080"
    },
    {
        "id": 95107,
        "name": "Municipiul Alba Iulia",
        "state_id": 4724,
        "state_code": "AB",
        "state_name": "Alba",
        "country_id": 181,
        "country_code": "RO",
        "country_name": "Romania",
        "latitude": "46.06346000",
        "longitude": "23.57494000",
        "timezone": null,
        "wikiDataId": "Q174665"
    },
    {
        "id": 95114,
        "name": "Municipiul Blaj",
        "state_id": 4724,
        "state_code": "AB",
        "state_name": "Alba",
        "country_id": 181,
        "country_code": "RO",
        "country_name": "Romania",
        "latitude": "46.15084000",
        "longitude": "23.91041000",
        "timezone": null,
        "wikiDataId": "Q624236"
    },
    {
        "id": 95179,
        "name": "Municipiul Sebeş",
        "state_id": 4724,
        "state_code": "AB",
        "state_name": "Alba",
        "country_id": 181,
        "country_code": "RO",
        "country_name": "Romania",
        "latitude": "45.94237000",
        "longitude": "23.57681000",
        "timezone": null,
        "wikiDataId": "Q732376"
    },
    {
        "id": 95358,
        "name": "Noşlac",
        "state_id": 4724,
        "state_code": "AB",
        "state_name": "Alba",
        "country_id": 181,
        "country_code": "RO",
        "country_name": "Romania",
        "latitude": "46.40000000",
        "longitude": "23.93333000",
        "timezone": null,
        "wikiDataId": "Q949496"
    },
    {
        "id": 95382,
        "name": "Oarda",
        "state_id": 4724,
        "state_code": "AB",
        "state_name": "Alba",
        "country_id": 181,
        "country_code": "RO",
        "country_name": "Romania",
        "latitude": "46.03333000",
        "longitude": "23.56667000",
        "timezone": null,
        "wikiDataId": "Q528120"
    },
    {
        "id": 95395,
        "name": "Ocna Mureş",
        "state_id": 4724,
        "state_code": "AB",
        "state_name": "Alba",
        "country_id": 181,
        "country_code": "RO",
        "country_name": "Romania",
        "latitude": "46.38333000",
        "longitude": "23.85000000",
        "timezone": null,
        "wikiDataId": "Q16898078"
    },
    {
        "id": 95402,
        "name": "Ocoliş",
        "state_id": 4724,
        "state_code": "AB",
        "state_name": "Alba",
        "country_id": 181,
        "country_code": "RO",
        "country_name": "Romania",
        "latitude": "46.48333000",
        "longitude": "23.46667000",
        "timezone": null,
        "wikiDataId": "Q1191542"
    },
    {
        "id": 95417,
        "name": "Ohaba",
        "state_id": 4724,
        "state_code": "AB",
        "state_name": "Alba",
        "country_id": 181,
        "country_code": "RO",
        "country_name": "Romania",
        "latitude": "46.06667000",
        "longitude": "23.78333000",
        "timezone": null,
        "wikiDataId": "Q383997"
    },
    {
        "id": 95626,
        "name": "Oraş abrud",
        "state_id": 4724,
        "state_code": "AB",
        "state_name": "Alba",
        "country_id": 181,
        "country_code": "RO",
        "country_name": "Romania",
        "latitude": "46.27409000",
        "longitude": "23.06129000",
        "timezone": null,
        "wikiDataId": "Q331577"
    },
    {
        "id": 95456,
        "name": "Oraş Baia de Arieş",
        "state_id": 4724,
        "state_code": "AB",
        "state_name": "Alba",
        "country_id": 181,
        "country_code": "RO",
        "country_name": "Romania",
        "latitude": "46.37933000",
        "longitude": "23.29903000",
        "timezone": null,
        "wikiDataId": "Q775799"
    },
    {
        "id": 95503,
        "name": "Oraş Câmpeni",
        "state_id": 4724,
        "state_code": "AB",
        "state_name": "Alba",
        "country_id": 181,
        "country_code": "RO",
        "country_name": "Romania",
        "latitude": "46.38493000",
        "longitude": "23.04553000",
        "timezone": null,
        "wikiDataId": "Q855187"
    },
    {
        "id": 95501,
        "name": "Oraş Cugir",
        "state_id": 4724,
        "state_code": "AB",
        "state_name": "Alba",
        "country_id": 181,
        "country_code": "RO",
        "country_name": "Romania",
        "latitude": "45.81371000",
        "longitude": "23.40740000",
        "timezone": null,
        "wikiDataId": "Q221214"
    },
    {
        "id": 95556,
        "name": "Oraş Ocna Mureş",
        "state_id": 4724,
        "state_code": "AB",
        "state_name": "Alba",
        "country_id": 181,
        "country_code": "RO",
        "country_name": "Romania",
        "latitude": "46.38475000",
        "longitude": "23.84070000",
        "timezone": null,
        "wikiDataId": "Q837152"
    },
    {
        "id": 95602,
        "name": "Oraş Teiuş",
        "state_id": 4724,
        "state_code": "AB",
        "state_name": "Alba",
        "country_id": 181,
        "country_code": "RO",
        "country_name": "Romania",
        "latitude": "46.20959000",
        "longitude": "23.70812000",
        "timezone": null,
        "wikiDataId": "Q946893"
    },
    {
        "id": 95624,
        "name": "Oraş Zlatna",
        "state_id": 4724,
        "state_code": "AB",
        "state_name": "Alba",
        "country_id": 181,
        "country_code": "RO",
        "country_name": "Romania",
        "latitude": "46.13753000",
        "longitude": "23.20215000",
        "timezone": null,
        "wikiDataId": "Q207196"
    },
    {
        "id": 95750,
        "name": "Petrești",
        "state_id": 4724,
        "state_code": "AB",
        "state_name": "Alba",
        "country_id": 181,
        "country_code": "RO",
        "country_name": "Romania",
        "latitude": "45.92102000",
        "longitude": "23.56083000",
        "timezone": null,
        "wikiDataId": "Q597592"
    },
    {
        "id": 95766,
        "name": "Pianu de Jos",
        "state_id": 4724,
        "state_code": "AB",
        "state_name": "Alba",
        "country_id": 181,
        "country_code": "RO",
        "country_name": "Romania",
        "latitude": "45.93528000",
        "longitude": "23.48912000",
        "timezone": null,
        "wikiDataId": "Q570790"
    },
    {
        "id": 95767,
        "name": "Pianu de Sus",
        "state_id": 4724,
        "state_code": "AB",
        "state_name": "Alba",
        "country_id": 181,
        "country_code": "RO",
        "country_name": "Romania",
        "latitude": "45.90000000",
        "longitude": "23.48333000",
        "timezone": null,
        "wikiDataId": "Q568352"
    },
    {
        "id": 95883,
        "name": "Poiana Vadului",
        "state_id": 4724,
        "state_code": "AB",
        "state_name": "Alba",
        "country_id": 181,
        "country_code": "RO",
        "country_name": "Romania",
        "latitude": "46.40000000",
        "longitude": "22.88333000",
        "timezone": null,
        "wikiDataId": "Q691885"
    },
    {
        "id": 95896,
        "name": "Poienile-Mogoş",
        "state_id": 4724,
        "state_code": "AB",
        "state_name": "Alba",
        "country_id": 181,
        "country_code": "RO",
        "country_name": "Romania",
        "latitude": "46.28333000",
        "longitude": "23.28333000",
        "timezone": null,
        "wikiDataId": "Q10862270"
    },
    {
        "id": 95906,
        "name": "Ponor",
        "state_id": 4724,
        "state_code": "AB",
        "state_name": "Alba",
        "country_id": 181,
        "country_code": "RO",
        "country_name": "Romania",
        "latitude": "46.33333000",
        "longitude": "23.41667000",
        "timezone": null,
        "wikiDataId": "Q937236"
    },
    {
        "id": 95936,
        "name": "Poşaga de Sus",
        "state_id": 4724,
        "state_code": "AB",
        "state_name": "Alba",
        "country_id": 181,
        "country_code": "RO",
        "country_name": "Romania",
        "latitude": "46.46667000",
        "longitude": "23.38333000",
        "timezone": null,
        "wikiDataId": "Q390347"
    },
    {
        "id": 96195,
        "name": "Rădeşti",
        "state_id": 4724,
        "state_code": "AB",
        "state_name": "Alba",
        "country_id": 181,
        "country_code": "RO",
        "country_name": "Romania",
        "latitude": "46.26667000",
        "longitude": "23.71667000",
        "timezone": null,
        "wikiDataId": "Q937558"
    },
    {
        "id": 96214,
        "name": "Războieni-Cetate",
        "state_id": 4724,
        "state_code": "AB",
        "state_name": "Alba",
        "country_id": 181,
        "country_code": "RO",
        "country_name": "Romania",
        "latitude": "46.41335000",
        "longitude": "23.87158000",
        "timezone": null,
        "wikiDataId": "Q831423"
    },
    {
        "id": 96094,
        "name": "Rimetea",
        "state_id": 4724,
        "state_code": "AB",
        "state_name": "Alba",
        "country_id": 181,
        "country_code": "RO",
        "country_name": "Romania",
        "latitude": "46.45000000",
        "longitude": "23.56667000",
        "timezone": null,
        "wikiDataId": "Q935515"
    },
    {
        "id": 96129,
        "name": "Roşia de Secaş",
        "state_id": 4724,
        "state_code": "AB",
        "state_name": "Alba",
        "country_id": 181,
        "country_code": "RO",
        "country_name": "Romania",
        "latitude": "46.05000000",
        "longitude": "23.88333000",
        "timezone": null,
        "wikiDataId": "Q936179"
    },
    {
        "id": 96136,
        "name": "Roșia Montană",
        "state_id": 4724,
        "state_code": "AB",
        "state_name": "Alba",
        "country_id": 181,
        "country_code": "RO",
        "country_name": "Romania",
        "latitude": "46.30669000",
        "longitude": "23.13373000",
        "timezone": null,
        "wikiDataId": "Q857008"
    },
    {
        "id": 106013,
        "name": "Sălciua de Sus",
        "state_id": 4724,
        "state_code": "AB",
        "state_name": "Alba",
        "country_id": 181,
        "country_code": "RO",
        "country_name": "Romania",
        "latitude": "46.40000000",
        "longitude": "23.41667000",
        "timezone": null,
        "wikiDataId": "Q3893080"
    },
    {
        "id": 106020,
        "name": "Săliștea",
        "state_id": 4724,
        "state_code": "AB",
        "state_name": "Alba",
        "country_id": 181,
        "country_code": "RO",
        "country_name": "Romania",
        "latitude": "45.90744000",
        "longitude": "23.39789000",
        "timezone": null,
        "wikiDataId": "Q663939"
    },
    {
        "id": 106019,
        "name": "Săliştea-Deal",
        "state_id": 4724,
        "state_code": "AB",
        "state_name": "Alba",
        "country_id": 181,
        "country_code": "RO",
        "country_name": "Romania",
        "latitude": "45.90000000",
        "longitude": "23.40000000",
        "timezone": null,
        "wikiDataId": "Q1315617"
    },
    {
        "id": 96523,
        "name": "Sâncel",
        "state_id": 4724,
        "state_code": "AB",
        "state_name": "Alba",
        "country_id": 181,
        "country_code": "RO",
        "country_name": "Romania",
        "latitude": "46.20000000",
        "longitude": "23.95000000",
        "timezone": null,
        "wikiDataId": "Q634408"
    },
    {
        "id": 96525,
        "name": "Sâncrai",
        "state_id": 4724,
        "state_code": "AB",
        "state_name": "Alba",
        "country_id": 181,
        "country_code": "RO",
        "country_name": "Romania",
        "latitude": "46.29394000",
        "longitude": "23.75209000",
        "timezone": null,
        "wikiDataId": "Q844633"
    },
    {
        "id": 105979,
        "name": "Sântimbru",
        "state_id": 4724,
        "state_code": "AB",
        "state_name": "Alba",
        "country_id": 181,
        "country_code": "RO",
        "country_name": "Romania",
        "latitude": "46.13333000",
        "longitude": "23.65000000",
        "timezone": null,
        "wikiDataId": "Q949485"
    },
    {
        "id": 97114,
        "name": "Șard",
        "state_id": 4724,
        "state_code": "AB",
        "state_name": "Alba",
        "country_id": 181,
        "country_code": "RO",
        "country_name": "Romania",
        "latitude": "46.12814000",
        "longitude": "23.53520000",
        "timezone": null,
        "wikiDataId": "Q396884"
    },
    {
        "id": 106039,
        "name": "Săsciori",
        "state_id": 4724,
        "state_code": "AB",
        "state_name": "Alba",
        "country_id": 181,
        "country_code": "RO",
        "country_name": "Romania",
        "latitude": "45.86667000",
        "longitude": "23.58333000",
        "timezone": null,
        "wikiDataId": "Q648947"
    },
    {
        "id": 96296,
        "name": "Scărişoara",
        "state_id": 4724,
        "state_code": "AB",
        "state_name": "Alba",
        "country_id": 181,
        "country_code": "RO",
        "country_name": "Romania",
        "latitude": "46.46667000",
        "longitude": "22.85000000",
        "timezone": null,
        "wikiDataId": "Q775822"
    },
    {
        "id": 96302,
        "name": "Sebeş",
        "state_id": 4724,
        "state_code": "AB",
        "state_name": "Alba",
        "country_id": 181,
        "country_code": "RO",
        "country_name": "Romania",
        "latitude": "45.95646000",
        "longitude": "23.57100000",
        "timezone": null,
        "wikiDataId": "Q12325414"
    },
    {
        "id": 96303,
        "name": "Sebeșel",
        "state_id": 4724,
        "state_code": "AB",
        "state_name": "Alba",
        "country_id": 181,
        "country_code": "RO",
        "country_name": "Romania",
        "latitude": "45.88771000",
        "longitude": "23.56606000",
        "timezone": null,
        "wikiDataId": "Q757197"
    },
    {
        "id": 97042,
        "name": "Şibot",
        "state_id": 4724,
        "state_code": "AB",
        "state_name": "Alba",
        "country_id": 181,
        "country_code": "RO",
        "country_name": "Romania",
        "latitude": "45.95000000",
        "longitude": "23.33333000",
        "timezone": null,
        "wikiDataId": "Q13482009"
    },
    {
        "id": 96403,
        "name": "Sohodol",
        "state_id": 4724,
        "state_code": "AB",
        "state_name": "Alba",
        "country_id": 181,
        "country_code": "RO",
        "country_name": "Romania",
        "latitude": "46.35581000",
        "longitude": "23.02923000",
        "timezone": null,
        "wikiDataId": "Q764699"
    },
    {
        "id": 97070,
        "name": "Şona",
        "state_id": 4724,
        "state_code": "AB",
        "state_name": "Alba",
        "country_id": 181,
        "country_code": "RO",
        "country_name": "Romania",
        "latitude": "46.21667000",
        "longitude": "24.01667000",
        "timezone": null,
        "wikiDataId": "Q289331"
    },
    {
        "id": 97076,
        "name": "Şpring",
        "state_id": 4724,
        "state_code": "AB",
        "state_name": "Alba",
        "country_id": 181,
        "country_code": "RO",
        "country_name": "Romania",
        "latitude": "45.96667000",
        "longitude": "23.78333000",
        "timezone": null,
        "wikiDataId": "Q397068"
    },
    {
        "id": 96453,
        "name": "Stremţ",
        "state_id": 4724,
        "state_code": "AB",
        "state_name": "Alba",
        "country_id": 181,
        "country_code": "RO",
        "country_name": "Romania",
        "latitude": "46.21667000",
        "longitude": "23.63333000",
        "timezone": null,
        "wikiDataId": "Q906696"
    },
    {
        "id": 97090,
        "name": "Şugag",
        "state_id": 4724,
        "state_code": "AB",
        "state_name": "Alba",
        "country_id": 181,
        "country_code": "RO",
        "country_name": "Romania",
        "latitude": "45.76667000",
        "longitude": "23.63333000",
        "timezone": null,
        "wikiDataId": "Q587657"
    },
    {
        "id": 106072,
        "name": "Teiuş",
        "state_id": 4724,
        "state_code": "AB",
        "state_name": "Alba",
        "country_id": 181,
        "country_code": "RO",
        "country_name": "Romania",
        "latitude": "46.20000000",
        "longitude": "23.68333000",
        "timezone": null,
        "wikiDataId": "Q2626018"
    },
    {
        "id": 97137,
        "name": "Țelna",
        "state_id": 4724,
        "state_code": "AB",
        "state_name": "Alba",
        "country_id": 181,
        "country_code": "RO",
        "country_name": "Romania",
        "latitude": "46.15902000",
        "longitude": "23.50099000",
        "timezone": null,
        "wikiDataId": "Q3892256"
    },
    {
        "id": 106111,
        "name": "Tiur",
        "state_id": 4724,
        "state_code": "AB",
        "state_name": "Alba",
        "country_id": 181,
        "country_code": "RO",
        "country_name": "Romania",
        "latitude": "46.16009000",
        "longitude": "23.88927000",
        "timezone": null,
        "wikiDataId": "Q12163256"
    },
    {
        "id": 96641,
        "name": "Uioara de Jos",
        "state_id": 4724,
        "state_code": "AB",
        "state_name": "Alba",
        "country_id": 181,
        "country_code": "RO",
        "country_name": "Romania",
        "latitude": "46.37087000",
        "longitude": "23.83863000",
        "timezone": null,
        "wikiDataId": "Q738105"
    },
    {
        "id": 96668,
        "name": "Unirea",
        "state_id": 4724,
        "state_code": "AB",
        "state_name": "Alba",
        "country_id": 181,
        "country_code": "RO",
        "country_name": "Romania",
        "latitude": "46.40387000",
        "longitude": "23.81314000",
        "timezone": null,
        "wikiDataId": "Q1024232"
    },
    {
        "id": 96698,
        "name": "Vadu Moţilor",
        "state_id": 4724,
        "state_code": "AB",
        "state_name": "Alba",
        "country_id": 181,
        "country_code": "RO",
        "country_name": "Romania",
        "latitude": "46.40000000",
        "longitude": "22.96667000",
        "timezone": null,
        "wikiDataId": "Q250889"
    },
    {
        "id": 96729,
        "name": "Valea Lungă Alba Romania",
        "state_id": 4724,
        "state_code": "AB",
        "state_name": "Alba",
        "country_id": 181,
        "country_code": "RO",
        "country_name": "Romania",
        "latitude": "46.12592000",
        "longitude": "24.04541000",
        "timezone": null,
        "wikiDataId": "Q1027068"
    },
    {
        "id": 96794,
        "name": "Veseuș",
        "state_id": 4724,
        "state_code": "AB",
        "state_name": "Alba",
        "country_id": 181,
        "country_code": "RO",
        "country_name": "Romania",
        "latitude": "46.27456000",
        "longitude": "24.14276000",
        "timezone": null,
        "wikiDataId": "Q843112"
    },
    {
        "id": 96797,
        "name": "Veza",
        "state_id": 4724,
        "state_code": "AB",
        "state_name": "Alba",
        "country_id": 181,
        "country_code": "RO",
        "country_name": "Romania",
        "latitude": "46.16747000",
        "longitude": "23.92470000",
        "timezone": null,
        "wikiDataId": "Q2549105"
    },
    {
        "id": 96808,
        "name": "Vidra",
        "state_id": 4724,
        "state_code": "AB",
        "state_name": "Alba",
        "country_id": 181,
        "country_code": "RO",
        "country_name": "Romania",
        "latitude": "46.36758000",
        "longitude": "22.88811000",
        "timezone": null,
        "wikiDataId": "Q920013"
    },
    {
        "id": 96831,
        "name": "Vinerea",
        "state_id": 4724,
        "state_code": "AB",
        "state_name": "Alba",
        "country_id": 181,
        "country_code": "RO",
        "country_name": "Romania",
        "latitude": "45.88632000",
        "longitude": "23.35289000",
        "timezone": null,
        "wikiDataId": "Q2548666"
    },
    {
        "id": 96837,
        "name": "Vințu de Jos",
        "state_id": 4724,
        "state_code": "AB",
        "state_name": "Alba",
        "country_id": 181,
        "country_code": "RO",
        "country_name": "Romania",
        "latitude": "45.99462000",
        "longitude": "23.48612000",
        "timezone": null,
        "wikiDataId": "Q684638"
    },
    {
        "id": 96915,
        "name": "Vurpăr",
        "state_id": 4724,
        "state_code": "AB",
        "state_name": "Alba",
        "country_id": 181,
        "country_code": "RO",
        "country_name": "Romania",
        "latitude": "46.00000000",
        "longitude": "23.46667000",
        "timezone": null,
        "wikiDataId": "Q743662"
    },
    {
        "id": 96998,
        "name": "Zlatna",
        "state_id": 4724,
        "state_code": "AB",
        "state_name": "Alba",
        "country_id": 181,
        "country_code": "RO",
        "country_name": "Romania",
        "latitude": "46.10633000",
        "longitude": "23.23162000",
        "timezone": null,
        "wikiDataId": "Q740224"
    },
    {
        "id": 89880,
        "name": "Adea",
        "state_id": 4739,
        "state_code": "AR",
        "state_name": "Arad",
        "country_id": 181,
        "country_code": "RO",
        "country_name": "Romania",
        "latitude": "46.55511000",
        "longitude": "21.58433000",
        "timezone": null,
        "wikiDataId": "Q742656"
    },
    {
        "id": 89902,
        "name": "Agrișu Mare",
        "state_id": 4739,
        "state_code": "AR",
        "state_name": "Arad",
        "country_id": 181,
        "country_code": "RO",
        "country_name": "Romania",
        "latitude": "46.27243000",
        "longitude": "21.75558000",
        "timezone": null,
        "wikiDataId": "Q632242"
    },
    {
        "id": 89935,
        "name": "Almaş",
        "state_id": 4739,
        "state_code": "AR",
        "state_name": "Arad",
        "country_id": 181,
        "country_code": "RO",
        "country_name": "Romania",
        "latitude": "46.28333000",
        "longitude": "22.23333000",
        "timezone": null,
        "wikiDataId": "Q4799101"
    },
    {
        "id": 89955,
        "name": "Andrei Șaguna",
        "state_id": 4739,
        "state_code": "AR",
        "state_name": "Arad",
        "country_id": 181,
        "country_code": "RO",
        "country_name": "Romania",
        "latitude": "46.28810000",
        "longitude": "21.39175000",
        "timezone": null,
        "wikiDataId": "Q379016"
    },
    {
        "id": 89970,
        "name": "Apateu",
        "state_id": 4739,
        "state_code": "AR",
        "state_name": "Arad",
        "country_id": 181,
        "country_code": "RO",
        "country_name": "Romania",
        "latitude": "46.61667000",
        "longitude": "21.78333000",
        "timezone": null,
        "wikiDataId": "Q1075817"
    },
    {
        "id": 89977,
        "name": "Arad",
        "state_id": 4739,
        "state_code": "AR",
        "state_name": "Arad",
        "country_id": 181,
        "country_code": "RO",
        "country_name": "Romania",
        "latitude": "46.18333000",
        "longitude": "21.31667000",
        "timezone": null,
        "wikiDataId": "Q16898082"
    },
    {
        "id": 89980,
        "name": "Archiş",
        "state_id": 4739,
        "state_code": "AR",
        "state_name": "Arad",
        "country_id": 181,
        "country_code": "RO",
        "country_name": "Romania",
        "latitude": "46.48333000",
        "longitude": "22.05000000",
        "timezone": null,
        "wikiDataId": "Q1077625"
    },
    {
        "id": 90454,
        "name": "Bârsa",
        "state_id": 4739,
        "state_code": "AR",
        "state_name": "Arad",
        "country_id": 181,
        "country_code": "RO",
        "country_name": "Romania",
        "latitude": "46.38333000",
        "longitude": "22.06667000",
        "timezone": null,
        "wikiDataId": "Q791066"
    },
    {
        "id": 90460,
        "name": "Bârzava",
        "state_id": 4739,
        "state_code": "AR",
        "state_name": "Arad",
        "country_id": 181,
        "country_code": "RO",
        "country_name": "Romania",
        "latitude": "46.11667000",
        "longitude": "21.98333000",
        "timezone": null,
        "wikiDataId": "Q1059019"
    },
    {
        "id": 90069,
        "name": "Bata",
        "state_id": 4739,
        "state_code": "AR",
        "state_name": "Arad",
        "country_id": 181,
        "country_code": "RO",
        "country_name": "Romania",
        "latitude": "46.01667000",
        "longitude": "22.03333000",
        "timezone": null,
        "wikiDataId": "Q791370"
    },
    {
        "id": 90090,
        "name": "Beliu",
        "state_id": 4739,
        "state_code": "AR",
        "state_name": "Arad",
        "country_id": 181,
        "country_code": "RO",
        "country_name": "Romania",
        "latitude": "46.48333000",
        "longitude": "21.98333000",
        "timezone": null,
        "wikiDataId": "Q854214"
    },
    {
        "id": 90139,
        "name": "Birchiş",
        "state_id": 4739,
        "state_code": "AR",
        "state_name": "Arad",
        "country_id": 181,
        "country_code": "RO",
        "country_name": "Romania",
        "latitude": "45.96667000",
        "longitude": "22.16667000",
        "timezone": null,
        "wikiDataId": "Q1066879"
    },
    {
        "id": 90176,
        "name": "Bocsig",
        "state_id": 4739,
        "state_code": "AR",
        "state_name": "Arad",
        "country_id": 181,
        "country_code": "RO",
        "country_name": "Romania",
        "latitude": "46.41667000",
        "longitude": "21.95000000",
        "timezone": null,
        "wikiDataId": "Q2296567"
    },
    {
        "id": 90279,
        "name": "Brazii",
        "state_id": 4739,
        "state_code": "AR",
        "state_name": "Arad",
        "country_id": 181,
        "country_code": "RO",
        "country_name": "Romania",
        "latitude": "46.23333000",
        "longitude": "22.33333000",
        "timezone": null,
        "wikiDataId": "Q1047450"
    },
    {
        "id": 90426,
        "name": "Buteni",
        "state_id": 4739,
        "state_code": "AR",
        "state_name": "Arad",
        "country_id": 181,
        "country_code": "RO",
        "country_name": "Romania",
        "latitude": "46.31667000",
        "longitude": "22.11667000",
        "timezone": null,
        "wikiDataId": "Q852398"
    },
    {
        "id": 90568,
        "name": "Caporal Alexa",
        "state_id": 4739,
        "state_code": "AR",
        "state_name": "Arad",
        "country_id": 181,
        "country_code": "RO",
        "country_name": "Romania",
        "latitude": "46.33793000",
        "longitude": "21.58316000",
        "timezone": null,
        "wikiDataId": "Q13581071"
    },
    {
        "id": 93866,
        "name": "Cărand",
        "state_id": 4739,
        "state_code": "AR",
        "state_name": "Arad",
        "country_id": 181,
        "country_code": "RO",
        "country_name": "Romania",
        "latitude": "46.45000000",
        "longitude": "22.08333000",
        "timezone": null,
        "wikiDataId": "Q1057559"
    },
    {
        "id": 90627,
        "name": "Cermei",
        "state_id": 4739,
        "state_code": "AR",
        "state_name": "Arad",
        "country_id": 181,
        "country_code": "RO",
        "country_name": "Romania",
        "latitude": "46.55000000",
        "longitude": "21.85000000",
        "timezone": null,
        "wikiDataId": "Q872231"
    },
    {
        "id": 90657,
        "name": "Chereluș",
        "state_id": 4739,
        "state_code": "AR",
        "state_name": "Arad",
        "country_id": 181,
        "country_code": "RO",
        "country_name": "Romania",
        "latitude": "46.46860000",
        "longitude": "21.70706000",
        "timezone": null,
        "wikiDataId": "Q747171"
    },
    {
        "id": 90658,
        "name": "Chesinț",
        "state_id": 4739,
        "state_code": "AR",
        "state_name": "Arad",
        "country_id": 181,
        "country_code": "RO",
        "country_name": "Romania",
        "latitude": "46.04973000",
        "longitude": "21.57944000",
        "timezone": null,
        "wikiDataId": "Q753410"
    },
    {
        "id": 90664,
        "name": "Chier",
        "state_id": 4739,
        "state_code": "AR",
        "state_name": "Arad",
        "country_id": 181,
        "country_code": "RO",
        "country_name": "Romania",
        "latitude": "46.34199000",
        "longitude": "21.82488000",
        "timezone": null,
        "wikiDataId": "Q755949"
    },
    {
        "id": 90683,
        "name": "Chisindia",
        "state_id": 4739,
        "state_code": "AR",
        "state_name": "Arad",
        "country_id": 181,
        "country_code": "RO",
        "country_name": "Romania",
        "latitude": "46.28333000",
        "longitude": "22.10000000",
        "timezone": null,
        "wikiDataId": "Q1067664"
    },
    {
        "id": 90687,
        "name": "Chişineu-Criş",
        "state_id": 4739,
        "state_code": "AR",
        "state_name": "Arad",
        "country_id": 181,
        "country_code": "RO",
        "country_name": "Romania",
        "latitude": "46.52509000",
        "longitude": "21.51844000",
        "timezone": null,
        "wikiDataId": "Q1126087"
    },
    {
        "id": 90704,
        "name": "Cintei",
        "state_id": 4739,
        "state_code": "AR",
        "state_name": "Arad",
        "country_id": 181,
        "country_code": "RO",
        "country_name": "Romania",
        "latitude": "46.44434000",
        "longitude": "21.56556000",
        "timezone": null,
        "wikiDataId": "Q755727"
    },
    {
        "id": 90855,
        "name": "Comuna Almaş",
        "state_id": 4739,
        "state_code": "AR",
        "state_name": "Arad",
        "country_id": 181,
        "country_code": "RO",
        "country_name": "Romania",
        "latitude": "46.28480000",
        "longitude": "22.23173000",
        "timezone": null,
        "wikiDataId": "Q857467"
    },
    {
        "id": 90877,
        "name": "Comuna Apateu",
        "state_id": 4739,
        "state_code": "AR",
        "state_name": "Arad",
        "country_id": 181,
        "country_code": "RO",
        "country_name": "Romania",
        "latitude": "46.62598000",
        "longitude": "21.82530000",
        "timezone": null,
        "wikiDataId": "Q16425390"
    },
    {
        "id": 90884,
        "name": "Comuna Archiş",
        "state_id": 4739,
        "state_code": "AR",
        "state_name": "Arad",
        "country_id": 181,
        "country_code": "RO",
        "country_name": "Romania",
        "latitude": "46.48333000",
        "longitude": "22.09663000",
        "timezone": null,
        "wikiDataId": "Q12682828"
    },
    {
        "id": 91191,
        "name": "Comuna Bârsa",
        "state_id": 4739,
        "state_code": "AR",
        "state_name": "Arad",
        "country_id": 181,
        "country_code": "RO",
        "country_name": "Romania",
        "latitude": "46.38410000",
        "longitude": "22.04459000",
        "timezone": null,
        "wikiDataId": "Q5060824"
    },
    {
        "id": 91197,
        "name": "Comuna Bârzava",
        "state_id": 4739,
        "state_code": "AR",
        "state_name": "Arad",
        "country_id": 181,
        "country_code": "RO",
        "country_name": "Romania",
        "latitude": "46.09910000",
        "longitude": "22.06096000",
        "timezone": null,
        "wikiDataId": "Q4798554"
    },
    {
        "id": 90939,
        "name": "Comuna Bata",
        "state_id": 4739,
        "state_code": "AR",
        "state_name": "Arad",
        "country_id": 181,
        "country_code": "RO",
        "country_name": "Romania",
        "latitude": "45.99641000",
        "longitude": "22.07805000",
        "timezone": null,
        "wikiDataId": "Q5060807"
    },
    {
        "id": 90954,
        "name": "Comuna Beliu",
        "state_id": 4739,
        "state_code": "AR",
        "state_name": "Arad",
        "country_id": 181,
        "country_code": "RO",
        "country_name": "Romania",
        "latitude": "46.52965000",
        "longitude": "21.99566000",
        "timezone": null,
        "wikiDataId": "Q5060686"
    },
    {
        "id": 90992,
        "name": "Comuna Birchiş",
        "state_id": 4739,
        "state_code": "AR",
        "state_name": "Arad",
        "country_id": 181,
        "country_code": "RO",
        "country_name": "Romania",
        "latitude": "45.96987000",
        "longitude": "22.16845000",
        "timezone": null,
        "wikiDataId": "Q5061643"
    },
    {
        "id": 91015,
        "name": "Comuna Bocsig",
        "state_id": 4739,
        "state_code": "AR",
        "state_name": "Arad",
        "country_id": 181,
        "country_code": "RO",
        "country_name": "Romania",
        "latitude": "46.41893000",
        "longitude": "21.98424000",
        "timezone": null,
        "wikiDataId": "Q5062541"
    },
    {
        "id": 91087,
        "name": "Comuna Brazii",
        "state_id": 4739,
        "state_code": "AR",
        "state_name": "Arad",
        "country_id": 181,
        "country_code": "RO",
        "country_name": "Romania",
        "latitude": "46.22177000",
        "longitude": "22.32613000",
        "timezone": null,
        "wikiDataId": "Q5060798"
    },
    {
        "id": 91174,
        "name": "Comuna Buteni",
        "state_id": 4739,
        "state_code": "AR",
        "state_name": "Arad",
        "country_id": 181,
        "country_code": "RO",
        "country_name": "Romania",
        "latitude": "46.33119000",
        "longitude": "22.11472000",
        "timezone": null,
        "wikiDataId": "Q12085921"
    },
    {
        "id": 91586,
        "name": "Comuna Cărand",
        "state_id": 4739,
        "state_code": "AR",
        "state_name": "Arad",
        "country_id": 181,
        "country_code": "RO",
        "country_name": "Romania",
        "latitude": "46.45551000",
        "longitude": "22.05755000",
        "timezone": null,
        "wikiDataId": "Q5060774"
    },
    {
        "id": 91290,
        "name": "Comuna Cermei",
        "state_id": 4739,
        "state_code": "AR",
        "state_name": "Arad",
        "country_id": 181,
        "country_code": "RO",
        "country_name": "Romania",
        "latitude": "46.55433000",
        "longitude": "21.87084000",
        "timezone": null,
        "wikiDataId": "Q12169862"
    },
    {
        "id": 91326,
        "name": "Comuna Chisindia",
        "state_id": 4739,
        "state_code": "AR",
        "state_name": "Arad",
        "country_id": 181,
        "country_code": "RO",
        "country_name": "Romania",
        "latitude": "46.26509000",
        "longitude": "22.08572000",
        "timezone": null,
        "wikiDataId": "Q5066826"
    },
    {
        "id": 91412,
        "name": "Comuna Conop",
        "state_id": 4739,
        "state_code": "AR",
        "state_name": "Arad",
        "country_id": 181,
        "country_code": "RO",
        "country_name": "Romania",
        "latitude": "46.10401000",
        "longitude": "21.88047000",
        "timezone": null,
        "wikiDataId": "Q5060726"
    },
    {
        "id": 91467,
        "name": "Comuna Covăsinţ",
        "state_id": 4739,
        "state_code": "AR",
        "state_name": "Arad",
        "country_id": 181,
        "country_code": "RO",
        "country_name": "Romania",
        "latitude": "46.20571000",
        "longitude": "21.60944000",
        "timezone": null,
        "wikiDataId": "Q3407527"
    },
    {
        "id": 91485,
        "name": "Comuna Craiva",
        "state_id": 4739,
        "state_code": "AR",
        "state_name": "Arad",
        "country_id": 181,
        "country_code": "RO",
        "country_name": "Romania",
        "latitude": "46.59969000",
        "longitude": "21.97908000",
        "timezone": null,
        "wikiDataId": "Q5060755"
    },
    {
        "id": 91621,
        "name": "Comuna Dezna",
        "state_id": 4739,
        "state_code": "AR",
        "state_name": "Arad",
        "country_id": 181,
        "country_code": "RO",
        "country_name": "Romania",
        "latitude": "46.40997000",
        "longitude": "22.22726000",
        "timezone": null,
        "wikiDataId": "Q5060664"
    },
    {
        "id": 91625,
        "name": "Comuna Dieci",
        "state_id": 4739,
        "state_code": "AR",
        "state_name": "Arad",
        "country_id": 181,
        "country_code": "RO",
        "country_name": "Romania",
        "latitude": "46.32071000",
        "longitude": "22.22373000",
        "timezone": null,
        "wikiDataId": "Q5062185"
    },
    {
        "id": 91810,
        "name": "Comuna Fântânele",
        "state_id": 4739,
        "state_code": "AR",
        "state_name": "Arad",
        "country_id": 181,
        "country_code": "RO",
        "country_name": "Romania",
        "latitude": "46.12441000",
        "longitude": "21.38111000",
        "timezone": null,
        "wikiDataId": "Q5056303"
    },
    {
        "id": 91758,
        "name": "Comuna Felnac",
        "state_id": 4739,
        "state_code": "AR",
        "state_name": "Arad",
        "country_id": 181,
        "country_code": "RO",
        "country_name": "Romania",
        "latitude": "46.12223000",
        "longitude": "21.16704000",
        "timezone": null,
        "wikiDataId": "Q5056375"
    },
    {
        "id": 91787,
        "name": "Comuna Frumuşeni",
        "state_id": 4739,
        "state_code": "AR",
        "state_name": "Arad",
        "country_id": 181,
        "country_code": "RO",
        "country_name": "Romania",
        "latitude": "46.10180000",
        "longitude": "21.45836000",
        "timezone": null,
        "wikiDataId": "Q5061620"
    },
    {
        "id": 91861,
        "name": "Comuna Ghioroc",
        "state_id": 4739,
        "state_code": "AR",
        "state_name": "Arad",
        "country_id": 181,
        "country_code": "RO",
        "country_name": "Romania",
        "latitude": "46.15322000",
        "longitude": "21.59651000",
        "timezone": null,
        "wikiDataId": "Q5056328"
    },
    {
        "id": 91943,
        "name": "Comuna Grăniceri",
        "state_id": 4739,
        "state_code": "AR",
        "state_name": "Arad",
        "country_id": 181,
        "country_code": "RO",
        "country_name": "Romania",
        "latitude": "46.50539000",
        "longitude": "21.33672000",
        "timezone": null,
        "wikiDataId": "Q12097600"
    },
    {
        "id": 91957,
        "name": "Comuna Gurahonţ",
        "state_id": 4739,
        "state_code": "AR",
        "state_name": "Arad",
        "country_id": 181,
        "country_code": "RO",
        "country_name": "Romania",
        "latitude": "46.29220000",
        "longitude": "22.33506000",
        "timezone": null,
        "wikiDataId": "Q5061572"
    },
    {
        "id": 92039,
        "name": "Comuna Hălmăgel",
        "state_id": 4739,
        "state_code": "AR",
        "state_name": "Arad",
        "country_id": 181,
        "country_code": "RO",
        "country_name": "Romania",
        "latitude": "46.27662000",
        "longitude": "22.63180000",
        "timezone": null,
        "wikiDataId": "Q5060740"
    },
    {
        "id": 92038,
        "name": "Comuna Hălmagiu",
        "state_id": 4739,
        "state_code": "AR",
        "state_name": "Arad",
        "country_id": 181,
        "country_code": "RO",
        "country_name": "Romania",
        "latitude": "46.27536000",
        "longitude": "22.58183000",
        "timezone": null,
        "wikiDataId": "Q12724863"
    },
    {
        "id": 92046,
        "name": "Comuna Hăşmaş",
        "state_id": 4739,
        "state_code": "AR",
        "state_name": "Arad",
        "country_id": 181,
        "country_code": "RO",
        "country_name": "Romania",
        "latitude": "46.52217000",
        "longitude": "22.07003000",
        "timezone": null,
        "wikiDataId": "Q10765984"
    },
    {
        "id": 92067,
        "name": "Comuna Igneşti",
        "state_id": 4739,
        "state_code": "AR",
        "state_name": "Arad",
        "country_id": 181,
        "country_code": "RO",
        "country_name": "Romania",
        "latitude": "46.43388000",
        "longitude": "22.18227000",
        "timezone": null,
        "wikiDataId": "Q5061552"
    },
    {
        "id": 92092,
        "name": "Comuna Iratoşu",
        "state_id": 4739,
        "state_code": "AR",
        "state_name": "Arad",
        "country_id": 181,
        "country_code": "RO",
        "country_name": "Romania",
        "latitude": "46.29414000",
        "longitude": "21.18750000",
        "timezone": null,
        "wikiDataId": "Q5060876"
    },
    {
        "id": 92173,
        "name": "Comuna Livada",
        "state_id": 4739,
        "state_code": "AR",
        "state_name": "Arad",
        "country_id": 181,
        "country_code": "RO",
        "country_name": "Romania",
        "latitude": "46.21924000",
        "longitude": "21.38746000",
        "timezone": null,
        "wikiDataId": "Q12119542"
    },
    {
        "id": 92227,
        "name": "Comuna Macea",
        "state_id": 4739,
        "state_code": "AR",
        "state_name": "Arad",
        "country_id": 181,
        "country_code": "RO",
        "country_name": "Romania",
        "latitude": "46.40094000",
        "longitude": "21.33187000",
        "timezone": null,
        "wikiDataId": "Q12122019"
    },
    {
        "id": 92310,
        "name": "Comuna Mişca",
        "state_id": 4739,
        "state_code": "AR",
        "state_name": "Arad",
        "country_id": 181,
        "country_code": "RO",
        "country_name": "Romania",
        "latitude": "46.62016000",
        "longitude": "21.65353000",
        "timezone": null,
        "wikiDataId": "Q5063311"
    },
    {
        "id": 92329,
        "name": "Comuna Moneasa",
        "state_id": 4739,
        "state_code": "AR",
        "state_name": "Arad",
        "country_id": 181,
        "country_code": "RO",
        "country_name": "Romania",
        "latitude": "46.44443000",
        "longitude": "22.25323000",
        "timezone": null,
        "wikiDataId": "Q12124463"
    },
    {
        "id": 92493,
        "name": "Comuna Olari",
        "state_id": 4739,
        "state_code": "AR",
        "state_name": "Arad",
        "country_id": 181,
        "country_code": "RO",
        "country_name": "Romania",
        "latitude": "46.38673000",
        "longitude": "21.54522000",
        "timezone": null,
        "wikiDataId": "Q12135529"
    },
    {
        "id": 92728,
        "name": "Comuna Păuliş",
        "state_id": 4739,
        "state_code": "AR",
        "state_name": "Arad",
        "country_id": 181,
        "country_code": "RO",
        "country_name": "Romania",
        "latitude": "46.12506000",
        "longitude": "21.60246000",
        "timezone": null,
        "wikiDataId": "Q5064140"
    },
    {
        "id": 92546,
        "name": "Comuna Peregu Mare",
        "state_id": 4739,
        "state_code": "AR",
        "state_name": "Arad",
        "country_id": 181,
        "country_code": "RO",
        "country_name": "Romania",
        "latitude": "46.23377000",
        "longitude": "20.90612000",
        "timezone": null,
        "wikiDataId": "Q12139552"
    },
    {
        "id": 92566,
        "name": "Comuna Petriş",
        "state_id": 4739,
        "state_code": "AR",
        "state_name": "Arad",
        "country_id": 181,
        "country_code": "RO",
        "country_name": "Romania",
        "latitude": "46.06770000",
        "longitude": "22.39523000",
        "timezone": null,
        "wikiDataId": "Q5064094"
    },
    {
        "id": 92584,
        "name": "Comuna Pilu",
        "state_id": 4739,
        "state_code": "AR",
        "state_name": "Arad",
        "country_id": 181,
        "country_code": "RO",
        "country_name": "Romania",
        "latitude": "46.59727000",
        "longitude": "21.34711000",
        "timezone": null,
        "wikiDataId": "Q5062839"
    },
    {
        "id": 92593,
        "name": "Comuna Pleşcuţa",
        "state_id": 4739,
        "state_code": "AR",
        "state_name": "Arad",
        "country_id": 181,
        "country_code": "RO",
        "country_name": "Romania",
        "latitude": "46.28315000",
        "longitude": "22.43178000",
        "timezone": null,
        "wikiDataId": "Q1895138"
    },
    {
        "id": 93496,
        "name": "Comuna Şagu",
        "state_id": 4739,
        "state_code": "AR",
        "state_name": "Arad",
        "country_id": 181,
        "country_code": "RO",
        "country_name": "Romania",
        "latitude": "46.04254000",
        "longitude": "21.34239000",
        "timezone": null,
        "wikiDataId": "Q5063328"
    },
    {
        "id": 93118,
        "name": "Comuna Săvârşin",
        "state_id": 4739,
        "state_code": "AR",
        "state_name": "Arad",
        "country_id": 181,
        "country_code": "RO",
        "country_name": "Romania",
        "latitude": "46.02527000",
        "longitude": "22.26514000",
        "timezone": null,
        "wikiDataId": "Q1022795"
    },
    {
        "id": 92916,
        "name": "Comuna Secusigiu",
        "state_id": 4739,
        "state_code": "AR",
        "state_name": "Arad",
        "country_id": 181,
        "country_code": "RO",
        "country_name": "Romania",
        "latitude": "46.09260000",
        "longitude": "21.00295000",
        "timezone": null,
        "wikiDataId": "Q5060148"
    },
    {
        "id": 93503,
        "name": "Comuna Şeitin",
        "state_id": 4739,
        "state_code": "AR",
        "state_name": "Arad",
        "country_id": 181,
        "country_code": "RO",
        "country_name": "Romania",
        "latitude": "46.10858000",
        "longitude": "20.84464000",
        "timezone": null,
        "wikiDataId": "Q5063640"
    },
    {
        "id": 92920,
        "name": "Comuna Seleuş",
        "state_id": 4739,
        "state_code": "AR",
        "state_name": "Arad",
        "country_id": 181,
        "country_code": "RO",
        "country_name": "Romania",
        "latitude": "46.37886000",
        "longitude": "21.74875000",
        "timezone": null,
        "wikiDataId": "Q5063279"
    },
    {
        "id": 92921,
        "name": "Comuna Semlac",
        "state_id": 4739,
        "state_code": "AR",
        "state_name": "Arad",
        "country_id": 181,
        "country_code": "RO",
        "country_name": "Romania",
        "latitude": "46.11260000",
        "longitude": "20.93210000",
        "timezone": null,
        "wikiDataId": "Q5059753"
    },
    {
        "id": 93513,
        "name": "Comuna Şicula",
        "state_id": 4739,
        "state_code": "AR",
        "state_name": "Arad",
        "country_id": 181,
        "country_code": "RO",
        "country_name": "Romania",
        "latitude": "46.45723000",
        "longitude": "21.75137000",
        "timezone": null,
        "wikiDataId": "Q5068791"
    },
    {
        "id": 93519,
        "name": "Comuna Şilindia",
        "state_id": 4739,
        "state_code": "AR",
        "state_name": "Arad",
        "country_id": 181,
        "country_code": "RO",
        "country_name": "Romania",
        "latitude": "46.33611000",
        "longitude": "21.93488000",
        "timezone": null,
        "wikiDataId": "Q5055843"
    },
    {
        "id": 93520,
        "name": "Comuna Şimand",
        "state_id": 4739,
        "state_code": "AR",
        "state_name": "Arad",
        "country_id": 181,
        "country_code": "RO",
        "country_name": "Romania",
        "latitude": "46.42400000",
        "longitude": "21.45145000",
        "timezone": null,
        "wikiDataId": "Q5054146"
    },
    {
        "id": 92941,
        "name": "Comuna Sintea Mare",
        "state_id": 4739,
        "state_code": "AR",
        "state_name": "Arad",
        "country_id": 181,
        "country_code": "RO",
        "country_name": "Romania",
        "latitude": "46.51684000",
        "longitude": "21.60800000",
        "timezone": null,
        "wikiDataId": "Q5062733"
    },
    {
        "id": 93529,
        "name": "Comuna Şiria",
        "state_id": 4739,
        "state_code": "AR",
        "state_name": "Arad",
        "country_id": 181,
        "country_code": "RO",
        "country_name": "Romania",
        "latitude": "46.28470000",
        "longitude": "21.65419000",
        "timezone": null,
        "wikiDataId": "Q12712948"
    },
    {
        "id": 93533,
        "name": "Comuna Şiştarovăţ",
        "state_id": 4739,
        "state_code": "AR",
        "state_name": "Arad",
        "country_id": 181,
        "country_code": "RO",
        "country_name": "Romania",
        "latitude": "45.98649000",
        "longitude": "21.75589000",
        "timezone": null,
        "wikiDataId": "Q5054704"
    },
    {
        "id": 92968,
        "name": "Comuna Socodor",
        "state_id": 4739,
        "state_code": "AR",
        "state_name": "Arad",
        "country_id": 181,
        "country_code": "RO",
        "country_name": "Romania",
        "latitude": "46.51010000",
        "longitude": "21.44128000",
        "timezone": null,
        "wikiDataId": "Q5062134"
    },
    {
        "id": 93535,
        "name": "Comuna Şofronea",
        "state_id": 4739,
        "state_code": "AR",
        "state_name": "Arad",
        "country_id": 181,
        "country_code": "RO",
        "country_name": "Romania",
        "latitude": "46.26814000",
        "longitude": "21.29059000",
        "timezone": null,
        "wikiDataId": "Q5054723"
    },
    {
        "id": 93230,
        "name": "Comuna Târnova",
        "state_id": 4739,
        "state_code": "AR",
        "state_name": "Arad",
        "country_id": 181,
        "country_code": "RO",
        "country_name": "Romania",
        "latitude": "46.29054000",
        "longitude": "21.80388000",
        "timezone": null,
        "wikiDataId": "Q5054241"
    },
    {
        "id": 93128,
        "name": "Comuna Tauţ",
        "state_id": 4739,
        "state_code": "AR",
        "state_name": "Arad",
        "country_id": 181,
        "country_code": "RO",
        "country_name": "Romania",
        "latitude": "46.26383000",
        "longitude": "21.96747000",
        "timezone": null,
        "wikiDataId": "Q5054647"
    },
    {
        "id": 93288,
        "name": "Comuna Ususău",
        "state_id": 4739,
        "state_code": "AR",
        "state_name": "Arad",
        "country_id": 181,
        "country_code": "RO",
        "country_name": "Romania",
        "latitude": "46.06781000",
        "longitude": "21.81490000",
        "timezone": null,
        "wikiDataId": "Q5055387"
    },
    {
        "id": 93465,
        "name": "Comuna Vărădia de Mureş",
        "state_id": 4739,
        "state_code": "AR",
        "state_name": "Arad",
        "country_id": 181,
        "country_code": "RO",
        "country_name": "Romania",
        "latitude": "46.04619000",
        "longitude": "22.15651000",
        "timezone": null,
        "wikiDataId": "Q5054057"
    },
    {
        "id": 93441,
        "name": "Comuna Vârfurile",
        "state_id": 4739,
        "state_code": "AR",
        "state_name": "Arad",
        "country_id": 181,
        "country_code": "RO",
        "country_name": "Romania",
        "latitude": "46.33689000",
        "longitude": "22.51984000",
        "timezone": null,
        "wikiDataId": "Q5067234"
    },
    {
        "id": 93365,
        "name": "Comuna Vinga",
        "state_id": 4739,
        "state_code": "AR",
        "state_name": "Arad",
        "country_id": 181,
        "country_code": "RO",
        "country_name": "Romania",
        "latitude": "46.02249000",
        "longitude": "21.15244000",
        "timezone": null,
        "wikiDataId": "Q12093339"
    },
    {
        "id": 93383,
        "name": "Comuna Vladimirescu",
        "state_id": 4739,
        "state_code": "AR",
        "state_name": "Arad",
        "country_id": 181,
        "country_code": "RO",
        "country_name": "Romania",
        "latitude": "46.16509000",
        "longitude": "21.40411000",
        "timezone": null,
        "wikiDataId": "Q16425426"
    },
    {
        "id": 93484,
        "name": "Comuna Zăbrani",
        "state_id": 4739,
        "state_code": "AR",
        "state_name": "Arad",
        "country_id": 181,
        "country_code": "RO",
        "country_name": "Romania",
        "latitude": "46.06310000",
        "longitude": "21.58529000",
        "timezone": null,
        "wikiDataId": "Q3602408"
    },