[
    {
        "id": 105174,
        "name": "Sotouboua",
        "state_id": 2575,
        "state_code": "C",
        "state_name": "Centrale",
        "country_id": 220,
        "country_code": "TG",
        "country_name": "Togo",
        "latitude": "8.56340000",
        "longitude": "0.98399000",
        "timezone": null,
        "wikiDataId": "Q1120978"
    },
    {
        "id": 105176,
        "name": "Tchamba",
        "state_id": 2575,
        "state_code": "C",
        "state_name": "Centrale",
        "country_id": 220,
        "country_code": "TG",
        "country_name": "Togo",
        "latitude": "9.03333000",
        "longitude": "1.41667000",
        "timezone": null,
        "wikiDataId": "Q2711981"
    },
    {
        "id": 105161,
        "name": "Bafilo",
        "state_id": 2579,
        "state_code": "K",
        "state_name": "Kara",
        "country_id": 220,
        "country_code": "TG",
        "country_name": "Togo",
        "latitude": "9.35000000",
        "longitude": "1.26667000",
        "timezone": null,
        "wikiDataId": "Q618060"
    },
    {
        "id": 105162,
        "name": "Bassar",
        "state_id": 2579,
        "state_code": "K",
        "state_name": "Kara",
        "country_id": 220,
        "country_code": "TG",
        "country_name": "Togo",
        "latitude": "9.25025000",
        "longitude": "0.78213000",
        "timezone": null,
        "wikiDataId": "Q810474"
    },
    {
        "id": 105164,
        "name": "Kandé",
        "state_id": 2579,
        "state_code": "K",
        "state_name": "Kara",
        "country_id": 220,
        "country_code": "TG",
        "country_name": "Togo",
        "latitude": "9.95778000",
        "longitude": "1.04472000",
        "timezone": null,
        "wikiDataId": "Q168824"
    },
    {
        "id": 105165,
        "name": "Kara",
        "state_id": 2579,
        "state_code": "K",
        "state_name": "Kara",
        "country_id": 220,
        "country_code": "TG",
        "country_name": "Togo",
        "latitude": "9.55111000",
        "longitude": "1.18611000",
        "timezone": null,
        "wikiDataId": "Q303284"
    },
    {
        "id": 105168,
        "name": "Niamtougou",
        "state_id": 2579,
        "state_code": "K",
        "state_name": "Kara",
        "country_id": 220,
        "country_code": "TG",
        "country_name": "Togo",
        "latitude": "9.76806000",
        "longitude": "1.10528000",
        "timezone": null,
        "wikiDataId": "Q201342"
    },
    {
        "id": 105170,
        "name": "Pagouda",
        "state_id": 2579,
        "state_code": "K",
        "state_name": "Kara",
        "country_id": 220,
        "country_code": "TG",
        "country_name": "Togo",
        "latitude": "9.75250000",
        "longitude": "1.32778000",
        "timezone": null,
        "wikiDataId": "Q3360475"
    },
    {
        "id": 105171,
        "name": "Préfecture de Bassar",
        "state_id": 2579,
        "state_code": "K",
        "state_name": "Kara",
        "country_id": 220,
        "country_code": "TG",
        "country_name": "Togo",
        "latitude": "9.25000000",
        "longitude": "0.75000000",
        "timezone": null,
        "wikiDataId": "Q3910159"
    },
    {
        "id": 105158,
        "name": "Aného",
        "state_id": 2576,
        "state_code": "M",
        "state_name": "Maritime",
        "country_id": 220,
        "country_code": "TG",
        "country_name": "Togo",
        "latitude": "6.22798000",
        "longitude": "1.59190000",
        "timezone": null,
        "wikiDataId": "Q1018574"
    },
    {
        "id": 105167,
        "name": "Lomé",
        "state_id": 2576,
        "state_code": "M",
        "state_name": "Maritime",
        "country_id": 220,
        "country_code": "TG",
        "country_name": "Togo",
        "latitude": "6.12874000",
        "longitude": "1.22154000",
        "timezone": null,
        "wikiDataId": "Q3792"
    },
    {
        "id": 105175,
        "name": "Tabligbo",
        "state_id": 2576,
        "state_code": "M",
        "state_name": "Maritime",
        "country_id": 220,
        "country_code": "TG",
        "country_name": "Togo",
        "latitude": "6.58333000",
        "longitude": "1.50000000",
        "timezone": null,
        "wikiDataId": "Q2528080"
    },
    {
        "id": 105177,
        "name": "Tsévié",
        "state_id": 2576,
        "state_code": "M",
        "state_name": "Maritime",
        "country_id": 220,
        "country_code": "TG",
        "country_name": "Togo",
        "latitude": "6.42611000",
        "longitude": "1.21333000",
        "timezone": null,
        "wikiDataId": "Q2060202"
    },
    {
        "id": 105178,
        "name": "Vogan",
        "state_id": 2576,
        "state_code": "M",
        "state_name": "Maritime",
        "country_id": 220,
        "country_code": "TG",
        "country_name": "Togo",
        "latitude": "6.33333000",
        "longitude": "1.53333000",
        "timezone": null,
        "wikiDataId": "Q2060202"
    },
    {
        "id": 105157,
        "name": "Amlamé",
        "state_id": 2577,
        "state_code": "P",
        "state_name": "Plateaux",
        "country_id": 220,
        "country_code": "TG",
        "country_name": "Togo",
        "latitude": "7.46667000",
        "longitude": "0.90000000",
        "timezone": null,
        "wikiDataId": "Q2080085"
    },
    {
        "id": 105159,
        "name": "Atakpamé",
        "state_id": 2577,
        "state_code": "P",
        "state_name": "Plateaux",
        "country_id": 220,
        "country_code": "TG",
        "country_name": "Togo",
        "latitude": "7.53333000",
        "longitude": "1.13333000",
        "timezone": null,
        "wikiDataId": "Q126124"
    },
    {
        "id": 105160,
        "name": "Badou",
        "state_id": 2577,
        "state_code": "P",
        "state_name": "Plateaux",
        "country_id": 220,
        "country_code": "TG",
        "country_name": "Togo",
        "latitude": "7.58333000",
        "longitude": "0.60000000",
        "timezone": null,
        "wikiDataId": "Q2878806"
    },
    {
        "id": 105166,
        "name": "Kpalimé",
        "state_id": 2577,
        "state_code": "P",
        "state_name": "Plateaux",
        "country_id": 220,
        "country_code": "TG",
        "country_name": "Togo",
        "latitude": "6.90000000",
        "longitude": "0.63333000",
        "timezone": null,
        "wikiDataId": "Q995413"
    },
    {
        "id": 105169,
        "name": "Notsé",
        "state_id": 2577,
        "state_code": "P",
        "state_name": "Plateaux",
        "country_id": 220,
        "country_code": "TG",
        "country_name": "Togo",
        "latitude": "6.95000000",
        "longitude": "1.16667000",
        "timezone": null,
        "wikiDataId": "Q3173182"
    },
    {
        "id": 105163,
        "name": "Dapaong",
        "state_id": 2578,
        "state_code": "S",
        "state_name": "Savanes",
        "country_id": 220,
        "country_code": "TG",
        "country_name": "Togo",
        "latitude": "10.86225000",
        "longitude": "0.20762000",
        "timezone": null,
        "wikiDataId": "Q970904"
    },
    {
        "id": 105172,
        "name": "Sansanné-Mango",
        "state_id": 2578,
        "state_code": "S",
        "state_name": "Savanes",
        "country_id": 220,
        "country_code": "TG",
        "country_name": "Togo",
        "latitude": "10.35917000",
        "longitude": "0.47083000",
        "timezone": null,
        "wikiDataId": "Q1392195"
    }
]