[
    {
        "id": 107120,
        "name": "Aladağ",
        "state_id": 2212,
        "state_code": "01",
        "state_name": "Adana",
        "country_id": 225,
        "country_code": "TR",
        "country_name": "Turkey",
        "latitude": "37.55854000",
        "longitude": "35.40196000",
        "timezone": null,
        "wikiDataId": "Q911286"
    },
    {
        "id": 107427,
        "name": "Ceyhan",
        "state_id": 2212,
        "state_code": "01",
        "state_name": "Adana",
        "country_id": 225,
        "country_code": "TR",
        "country_name": "Turkey",
        "latitude": "37.02472000",
        "longitude": "35.81750000",
        "timezone": null,
        "wikiDataId": "Q185346"
    },
    {
        "id": 108848,
        "name": "Çukurova",
        "state_id": 2212,
        "state_code": "01",
        "state_name": "Adana",
        "country_id": 225,
        "country_code": "TR",
        "country_name": "Turkey",
        "latitude": "37.05627000",
        "longitude": "35.13119000",
        "timezone": null,
        "wikiDataId": "Q272948"
    },
    {
        "id": 107635,
        "name": "Feke",
        "state_id": 2212,
        "state_code": "01",
        "state_name": "Adana",
        "country_id": 225,
        "country_code": "TR",
        "country_name": "Turkey",
        "latitude": "37.82405000",
        "longitude": "35.91826000",
        "timezone": null,
        "wikiDataId": "Q1430807"
    },
    {
        "id": 108893,
        "name": "İmamoğlu",
        "state_id": 2212,
        "state_code": "01",
        "state_name": "Adana",
        "country_id": 225,
        "country_code": "TR",
        "country_name": "Turkey",
        "latitude": "37.27500000",
        "longitude": "35.66649000",
        "timezone": null,
        "wikiDataId": "Q2082058"
    },
    {
        "id": 107896,
        "name": "Karaisalı",
        "state_id": 2212,
        "state_code": "01",
        "state_name": "Adana",
        "country_id": 225,
        "country_code": "TR",
        "country_name": "Turkey",
        "latitude": "37.26655000",
        "longitude": "35.05033000",
        "timezone": null,
        "wikiDataId": "Q533294"
    },
    {
        "id": 107918,
        "name": "Karataş",
        "state_id": 2212,
        "state_code": "01",
        "state_name": "Adana",
        "country_id": 225,
        "country_code": "TR",
        "country_name": "Turkey",
        "latitude": "36.57186000",
        "longitude": "35.36784000",
        "timezone": null,
        "wikiDataId": "Q1012874"
    },
    {
        "id": 108033,
        "name": "Kozan",
        "state_id": 2212,
        "state_code": "01",
        "state_name": "Adana",
        "country_id": 225,
        "country_code": "TR",
        "country_name": "Turkey",
        "latitude": "37.50000000",
        "longitude": "35.75000000",
        "timezone": null,
        "wikiDataId": "Q926426"
    },
    {
        "id": 108349,
        "name": "Pozantı",
        "state_id": 2212,
        "state_code": "01",
        "state_name": "Adana",
        "country_id": 225,
        "country_code": "TR",
        "country_name": "Turkey",
        "latitude": "37.43671000",
        "longitude": "34.88057000",
        "timezone": null,
        "wikiDataId": "Q1004432"
    },
    {
        "id": 108374,
        "name": "Saimbeyli",
        "state_id": 2212,
        "state_code": "01",
        "state_name": "Adana",
        "country_id": 225,
        "country_code": "TR",
        "country_name": "Turkey",
        "latitude": "37.99615000",
        "longitude": "36.09909000",
        "timezone": null,
        "wikiDataId": "Q1017381"
    },
    {
        "id": 108414,
        "name": "Sarıçam",
        "state_id": 2212,
        "state_code": "01",
        "state_name": "Adana",
        "country_id": 225,
        "country_code": "TR",
        "country_name": "Turkey",
        "latitude": "37.14971000",
        "longitude": "35.50949000",
        "timezone": null,
        "wikiDataId": "Q1430729"
    },
    {
        "id": 108452,
        "name": "Seyhan",
        "state_id": 2212,
        "state_code": "01",
        "state_name": "Adana",
        "country_id": 225,
        "country_code": "TR",
        "country_name": "Turkey",
        "latitude": "36.95540000",
        "longitude": "35.21637000",
        "timezone": null,
        "wikiDataId": "Q532164"
    },
    {
        "id": 108597,
        "name": "Tufanbeyli",
        "state_id": 2212,
        "state_code": "01",
        "state_name": "Adana",
        "country_id": 225,
        "country_code": "TR",
        "country_name": "Turkey",
        "latitude": "38.27343000",
        "longitude": "36.22731000",
        "timezone": null,
        "wikiDataId": "Q45301"
    },
    {
        "id": 108737,
        "name": "Yumurtalık",
        "state_id": 2212,
        "state_code": "01",
        "state_name": "Adana",
        "country_id": 225,
        "country_code": "TR",
        "country_name": "Turkey",
        "latitude": "36.78245000",
        "longitude": "35.79949000",
        "timezone": null,
        "wikiDataId": "Q210292"
    },
    {
        "id": 108745,
        "name": "Yüreğir",
        "state_id": 2212,
        "state_code": "01",
        "state_name": "Adana",
        "country_id": 225,
        "country_code": "TR",
        "country_name": "Turkey",
        "latitude": "36.99205000",
        "longitude": "35.45402000",
        "timezone": null,
        "wikiDataId": "Q765123"
    },
    {
        "id": 107332,
        "name": "Besni",
        "state_id": 2155,
        "state_code": "02",
        "state_name": "Adıyaman",
        "country_id": 225,
        "country_code": "TR",
        "country_name": "Turkey",
        "latitude": "37.69278000",
        "longitude": "37.86111000",
        "timezone": null,
        "wikiDataId": "Q1911139"
    },
    {
        "id": 108814,
        "name": "Çelikhan",
        "state_id": 2155,
        "state_code": "02",
        "state_name": "Adıyaman",
        "country_id": 225,
        "country_code": "TR",
        "country_name": "Turkey",
        "latitude": "38.02560000",
        "longitude": "38.23665000",
        "timezone": null,
        "wikiDataId": "Q122320"
    },
    {
        "id": 107666,
        "name": "Gerger",
        "state_id": 2155,
        "state_code": "02",
        "state_name": "Adıyaman",
        "country_id": 225,
        "country_code": "TR",
        "country_name": "Turkey",
        "latitude": "37.95000000",
        "longitude": "39.01667000",
        "timezone": null,
        "wikiDataId": "Q1023286"
    },
    {
        "id": 107688,
        "name": "Gölbaşı",
        "state_id": 2155,
        "state_code": "02",
        "state_name": "Adıyaman",
        "country_id": 225,
        "country_code": "TR",
        "country_name": "Turkey",
        "latitude": "37.78361000",
        "longitude": "37.63667000",
        "timezone": null,
        "wikiDataId": "Q1020643"
    },
    {
        "id": 108069,
        "name": "Kâhta",
        "state_id": 2155,
        "state_code": "02",
        "state_name": "Adıyaman",
        "country_id": 225,
        "country_code": "TR",
        "country_name": "Turkey",
        "latitude": "37.78552000",
        "longitude": "38.62370000",
        "timezone": null,
        "wikiDataId": "Q211952"
    },
    {
        "id": 108194,
        "name": "Merkez",
        "state_id": 2155,
        "state_code": "02",
        "state_name": "Adıyaman",
        "country_id": 225,
        "country_code": "TR",
        "country_name": "Turkey",
        "latitude": "37.74454000",
        "longitude": "38.26801000",
        "timezone": null,
        "wikiDataId": "Q3055997"
    },
    {
        "id": 108379,
        "name": "Samsat",
        "state_id": 2155,
        "state_code": "02",
        "state_name": "Adıyaman",
        "country_id": 225,
        "country_code": "TR",
        "country_name": "Turkey",
        "latitude": "37.58194000",
        "longitude": "38.47417000",
        "timezone": null,
        "wikiDataId": "Q2671116"
    },
    {
        "id": 108471,
        "name": "Sincik",
        "state_id": 2155,
        "state_code": "02",
        "state_name": "Adıyaman",
        "country_id": 225,
        "country_code": "TR",
        "country_name": "Turkey",
        "latitude": "38.03645000",
        "longitude": "38.61257000",
        "timezone": null,
        "wikiDataId": "Q1020659"
    },
    {
        "id": 108606,
        "name": "Tut",
        "state_id": 2155,
        "state_code": "02",
        "state_name": "Adıyaman",
        "country_id": 225,
        "country_code": "TR",
        "country_name": "Turkey",
        "latitude": "37.79529000",
        "longitude": "37.91610000",
        "timezone": null,
        "wikiDataId": "Q5250179"
    },
    {
        "id": 107318,
        "name": "Başmakçı",
        "state_id": 2179,
        "state_code": "03",
        "state_name": "Afyonkarahisar",
        "country_id": 225,
        "country_code": "TR",
        "country_name": "Turkey",
        "latitude": "37.89722000",
        "longitude": "30.01167000",
        "timezone": null,
        "wikiDataId": "Q812759"
    },
    {
        "id": 107293,
        "name": "Bayat",
        "state_id": 2179,
        "state_code": "03",
        "state_name": "Afyonkarahisar",
        "country_id": 225,
        "country_code": "TR",
        "country_name": "Turkey",
        "latitude": "38.98306000",
        "longitude": "30.92472000",
        "timezone": null,
        "wikiDataId": "Q810916"
    },
    {
        "id": 107367,
        "name": "Bolvadin",
        "state_id": 2179,
        "state_code": "03",
        "state_name": "Afyonkarahisar",
        "country_id": 225,
        "country_code": "TR",
        "country_name": "Turkey",
        "latitude": "38.71111000",
        "longitude": "31.04861000",
        "timezone": null,
        "wikiDataId": "Q200951"
    },
    {
        "id": 108795,
        "name": "Çay",
        "state_id": 2179,
        "state_code": "03",
        "state_name": "Afyonkarahisar",
        "country_id": 225,
        "country_code": "TR",
        "country_name": "Turkey",
        "latitude": "38.59167000",
        "longitude": "31.02861000",
        "timezone": null,
        "wikiDataId": "Q272692"
    },
    {
        "id": 108841,
        "name": "Çobanlar",
        "state_id": 2179,
        "state_code": "03",
        "state_name": "Afyonkarahisar",
        "country_id": 225,
        "country_code": "TR",
        "country_name": "Turkey",
        "latitude": "38.71085000",
        "longitude": "30.78874000",
        "timezone": null,
        "wikiDataId": "Q1948398"
    },
    {
        "id": 107455,
        "name": "Dazkırı",
        "state_id": 2179,
        "state_code": "03",
        "state_name": "Afyonkarahisar",
        "country_id": 225,
        "country_code": "TR",
        "country_name": "Turkey",
        "latitude": "37.91861000",
        "longitude": "29.86056000",
        "timezone": null,
        "wikiDataId": "Q3233819"
    },
    {
        "id": 107498,
        "name": "Dinar",
        "state_id": 2179,
        "state_code": "03",
        "state_name": "Afyonkarahisar",
        "country_id": 225,
        "country_code": "TR",
        "country_name": "Turkey",
        "latitude": "38.06500000",
        "longitude": "30.16557000",
        "timezone": null,
        "wikiDataId": "Q2473716"
    },
    {
        "id": 107576,
        "name": "Emirdağ",
        "state_id": 2179,
        "state_code": "03",
        "state_name": "Afyonkarahisar",
        "country_id": 225,
        "country_code": "TR",
        "country_name": "Turkey",
        "latitude": "39.01972000",
        "longitude": "31.15000000",
        "timezone": null,
        "wikiDataId": "Q1911759"
    },
    {
        "id": 107612,
        "name": "Evciler",
        "state_id": 2179,
        "state_code": "03",
        "state_name": "Afyonkarahisar",
        "country_id": 225,
        "country_code": "TR",
        "country_name": "Turkey",
        "latitude": "38.04139000",
        "longitude": "29.88667000",
        "timezone": null,
        "wikiDataId": "Q1029159"
    },
    {
        "id": 107831,
        "name": "Hocalar",
        "state_id": 2179,
        "state_code": "03",
        "state_name": "Afyonkarahisar",
        "country_id": 225,
        "country_code": "TR",
        "country_name": "Turkey",
        "latitude": "38.57824000",
        "longitude": "29.96768000",
        "timezone": null,
        "wikiDataId": "Q475253"
    },
    {
        "id": 108883,
        "name": "İhsaniye",
        "state_id": 2179,
        "state_code": "03",
        "state_name": "Afyonkarahisar",
        "country_id": 225,
        "country_code": "TR",
        "country_name": "Turkey",
        "latitude": "39.02916000",
        "longitude": "30.41639000",
        "timezone": null,
        "wikiDataId": "Q335204"
    },
    {
        "id": 108912,
        "name": "İscehisar",
        "state_id": 2179,
        "state_code": "03",
        "state_name": "Afyonkarahisar",
        "country_id": 225,
        "country_code": "TR",
        "country_name": "Turkey",
        "latitude": "38.93900000",
        "longitude": "30.75002000",
        "timezone": null,
        "wikiDataId": "Q4819763"
    },
    {
        "id": 108120,
        "name": "Kızılören",
        "state_id": 2179,
        "state_code": "03",
        "state_name": "Afyonkarahisar",
        "country_id": 225,
        "country_code": "TR",
        "country_name": "Turkey",
        "latitude": "38.25806000",
        "longitude": "30.15167000",
        "timezone": null,
        "wikiDataId": "Q693929"
    },
    {
        "id": 108190,
        "name": "Merkez",
        "state_id": 2179,
        "state_code": "03",
        "state_name": "Afyonkarahisar",
        "country_id": 225,
        "country_code": "TR",
        "country_name": "Turkey",
        "latitude": "38.79698000",
        "longitude": "30.51951000",
        "timezone": null,
        "wikiDataId": "Q3055997"
    },
    {
        "id": 108383,
        "name": "Sandıklı",
        "state_id": 2179,
        "state_code": "03",
        "state_name": "Afyonkarahisar",
        "country_id": 225,
        "country_code": "TR",
        "country_name": "Turkey",
        "latitude": "38.46472000",
        "longitude": "30.26946000",
        "timezone": null,
        "wikiDataId": "Q160450"
    },
    {
        "id": 108468,
        "name": "Sinanpaşa",
        "state_id": 2179,
        "state_code": "03",
        "state_name": "Afyonkarahisar",
        "country_id": 225,
        "country_code": "TR",
        "country_name": "Turkey",
        "latitude": "38.74444000",
        "longitude": "30.24278000",
        "timezone": null,
        "wikiDataId": "Q1948344"
    },
    {
        "id": 108964,
        "name": "Şuhut",
        "state_id": 2179,
        "state_code": "03",
        "state_name": "Afyonkarahisar",
        "country_id": 225,
        "country_code": "TR",
        "country_name": "Turkey",
        "latitude": "38.53111000",
        "longitude": "30.54583000",
        "timezone": null,
        "wikiDataId": "Q390637"
    },
    {
        "id": 108493,
        "name": "Sultandağı",
        "state_id": 2179,
        "state_code": "03",
        "state_name": "Afyonkarahisar",
        "country_id": 225,
        "country_code": "TR",
        "country_name": "Turkey",
        "latitude": "38.53111000",
        "longitude": "31.22806000",
        "timezone": null,
        "wikiDataId": "Q2674205"
    },
    {
        "id": 107502,
        "name": "Diyadin",
        "state_id": 2193,
        "state_code": "04",
        "state_name": "Ağrı",
        "country_id": 225,
        "country_code": "TR",
        "country_name": "Turkey",
        "latitude": "39.54056000",
        "longitude": "43.67135000",
        "timezone": null,
        "wikiDataId": "Q2473716"
    },
    {
        "id": 107527,
        "name": "Doğubayazıt",
        "state_id": 2193,
        "state_code": "04",
        "state_name": "Ağrı",
        "country_id": 225,
        "country_code": "TR",
        "country_name": "Turkey",
        "latitude": "39.54694000",
        "longitude": "44.08417000",
        "timezone": null,
        "wikiDataId": "Q849535"
    },
    {
        "id": 107566,
        "name": "Eleşkirt",
        "state_id": 2193,
        "state_code": "04",
        "state_name": "Ağrı",
        "country_id": 225,
        "country_code": "TR",
        "country_name": "Turkey",
        "latitude": "39.79803000",
        "longitude": "42.67574000",
        "timezone": null,
        "wikiDataId": "Q2672821"
    },
    {
        "id": 107783,
        "name": "Hamur",
        "state_id": 2193,
        "state_code": "04",
        "state_name": "Ağrı",
        "country_id": 225,
        "country_code": "TR",
        "country_name": "Turkey",
        "latitude": "39.60561000",
        "longitude": "42.98500000",
        "timezone": null,
        "wikiDataId": "Q4821124"
    },
    {
        "id": 107244,
        "name": "Merkez",
        "state_id": 2193,
        "state_code": "04",
        "state_name": "Ağrı",
        "country_id": 225,
        "country_code": "TR",
        "country_name": "Turkey",
        "latitude": "39.71944000",
        "longitude": "43.05139000",
        "timezone": null,
        "wikiDataId": "Q199575"
    },
    {
        "id": 108316,
        "name": "Patnos",
        "state_id": 2193,
        "state_code": "04",
        "state_name": "Ağrı",
        "country_id": 225,
        "country_code": "TR",
        "country_name": "Turkey",
        "latitude": "39.22493000",
        "longitude": "42.85693000",
        "timezone": null,
        "wikiDataId": "Q509324"
    },
    {
        "id": 108552,
        "name": "Taşlıçay",
        "state_id": 2193,
        "state_code": "04",
        "state_name": "Ağrı",
        "country_id": 225,
        "country_code": "TR",
        "country_name": "Turkey",
        "latitude": "39.62966000",
        "longitude": "43.36878000",
        "timezone": null,
        "wikiDataId": "Q7690521"
    },
    {
        "id": 108608,
        "name": "Tutak",
        "state_id": 2193,
        "state_code": "04",
        "state_name": "Ağrı",
        "country_id": 225,
        "country_code": "TR",
        "country_name": "Turkey",
        "latitude": "39.55042000",
        "longitude": "42.77572000",
        "timezone": null,
        "wikiDataId": "Q5250179"
    },
    {
        "id": 107239,
        "name": "Ağaçören",
        "state_id": 2210,
        "state_code": "68",
        "state_name": "Aksaray",
        "country_id": 225,
        "country_code": "TR",
        "country_name": "Turkey",
        "latitude": "38.87484000",
        "longitude": "33.91674000",
        "timezone": null,
        "wikiDataId": "Q793383"
    },
    {
        "id": 107606,
        "name": "Eskil",
        "state_id": 2210,
        "state_code": "68",
        "state_name": "Aksaray",
        "country_id": 225,
        "country_code": "TR",
        "country_name": "Turkey",
        "latitude": "38.41158000",
        "longitude": "33.41994000",
        "timezone": null,
        "wikiDataId": "Q1917854"
    },
    {
        "id": 107727,
        "name": "Gülağaç",
        "state_id": 2210,
        "state_code": "68",
        "state_name": "Aksaray",
        "country_id": 225,
        "country_code": "TR",
        "country_name": "Turkey",
        "latitude": "38.40641000",
        "longitude": "34.35071000",
        "timezone": null,
        "wikiDataId": "Q1958579"
    },
    {
        "id": 107761,
        "name": "Güzelyurt",
        "state_id": 2210,
        "state_code": "68",
        "state_name": "Aksaray",
        "country_id": 225,
        "country_code": "TR",
        "country_name": "Turkey",
        "latitude": "38.27722000",
        "longitude": "34.37194000",
        "timezone": null,
        "wikiDataId": "Q1562333"
    },
    {
        "id": 108178,
        "name": "Merkez",
        "state_id": 2210,
        "state_code": "68",
        "state_name": "Aksaray",
        "country_id": 225,
        "country_code": "TR",
        "country_name": "Turkey",
        "latitude": "38.37060000",
        "longitude": "34.02843000",
        "timezone": null,
        "wikiDataId": "Q3055997"
    },
    {
        "id": 108283,
        "name": "Ortaköy",
        "state_id": 2210,
        "state_code": "68",
        "state_name": "Aksaray",
        "country_id": 225,
        "country_code": "TR",
        "country_name": "Turkey",
        "latitude": "38.73728000",
        "longitude": "34.03866000",
        "timezone": null,
        "wikiDataId": "Q16258125"
    },
    {
        "id": 108409,
        "name": "Sarıyahşi",
        "state_id": 2210,
        "state_code": "68",
        "state_name": "Aksaray",
        "country_id": 225,
        "country_code": "TR",
        "country_name": "Turkey",
        "latitude": "38.98349000",
        "longitude": "33.84136000",
        "timezone": null,
        "wikiDataId": "Q4820144"
    },
    {
        "id": 108496,
        "name": "Sultanhanı",
        "state_id": 2210,
        "state_code": "68",
        "state_name": "Aksaray",
        "country_id": 225,
        "country_code": "TR",
        "country_name": "Turkey",
        "latitude": "38.24710000",
        "longitude": "33.54961000",
        "timezone": null,
        "wikiDataId": "Q657912"
    },
    {
        "id": 107716,
        "name": "Göynücek",
        "state_id": 2161,
        "state_code": "05",
        "state_name": "Amasya",
        "country_id": 225,
        "country_code": "TR",
        "country_name": "Turkey",
        "latitude": "40.39917000",
        "longitude": "35.52500000",
        "timezone": null,
        "wikiDataId": "Q6710593"
    },
    {
        "id": 107737,
        "name": "Gümüşhacıköy",
        "state_id": 2161,
        "state_code": "05",
        "state_name": "Amasya",
        "country_id": 225,
        "country_code": "TR",
        "country_name": "Turkey",
        "latitude": "40.87306000",
        "longitude": "35.21472000",
        "timezone": null,
        "wikiDataId": "Q1003182"
    },
    {
        "id": 107781,
        "name": "Hamamözü",
        "state_id": 2161,
        "state_code": "05",
        "state_name": "Amasya",
        "country_id": 225,
        "country_code": "TR",
        "country_name": "Turkey",
        "latitude": "40.79539000",
        "longitude": "35.03367000",
        "timezone": null,
        "wikiDataId": "Q2670691"
    },
    {
        "id": 108195,
        "name": "Merkez",
        "state_id": 2161,
        "state_code": "05",
        "state_name": "Amasya",
        "country_id": 225,
        "country_code": "TR",
        "country_name": "Turkey",
        "latitude": "40.61939000",
        "longitude": "35.87016000",
        "timezone": null,
        "wikiDataId": "Q3055997"
    },
    {
        "id": 108200,
        "name": "Merzifon",
        "state_id": 2161,
        "state_code": "05",
        "state_name": "Amasya",
        "country_id": 225,
        "country_code": "TR",
        "country_name": "Turkey",
        "latitude": "40.88348000",
        "longitude": "35.47116000",
        "timezone": null,
        "wikiDataId": "Q958135"
    },
    {
        "id": 108500,
        "name": "Suluova",
        "state_id": 2161,
        "state_code": "05",
        "state_name": "Amasya",
        "country_id": 225,
        "country_code": "TR",
        "country_name": "Turkey",
        "latitude": "40.83129000",
        "longitude": "35.64788000",
        "timezone": null,
        "wikiDataId": "Q5248613"
    },
    {
        "id": 108554,
        "name": "Taşova",
        "state_id": 2161,
        "state_code": "05",
        "state_name": "Amasya",
        "country_id": 225,
        "country_code": "TR",
        "country_name": "Turkey",
        "latitude": "40.75972000",
        "longitude": "36.32250000",
        "timezone": null,
        "wikiDataId": "Q1023307"
    },
    {
        "id": 107102,
        "name": "Akyurt",
        "state_id": 2217,
        "state_code": "06",
        "state_name": "Ankara",
        "country_id": 225,
        "country_code": "TR",
        "country_name": "Turkey",
        "latitude": "40.13512000",
        "longitude": "33.08614000",
        "timezone": null,
        "wikiDataId": "Q424435"
    },
    {
        "id": 107139,
        "name": "Altındağ",
        "state_id": 2217,
        "state_code": "06",
        "state_name": "Ankara",
        "country_id": 225,
        "country_code": "TR",
        "country_name": "Turkey",
        "latitude": "40.00110000",
        "longitude": "32.97022000",
        "timezone": null,
        "wikiDataId": "Q682981"
    },
    {
        "id": 153787,
        "name": "Ankara",
        "state_id": 2217,
        "state_code": "06",
        "state_name": "Ankara",
        "country_id": 225,
        "country_code": "TR",
        "country_name": "Turkey",
        "latitude": "39.90343670",
        "longitude": "32.43310030",
        "timezone": null,
        "wikiDataId": "Q3640"
    },
    {
        "id": 107217,
        "name": "Ayaş",
        "state_id": 2217,
        "state_code": "06",
        "state_name": "Ankara",
        "country_id": 225,
        "country_code": "TR",
        "country_name": "Turkey",
        "latitude": "40.01933000",
        "longitude": "32.33221000",
        "timezone": null,
        "wikiDataId": "Q340148"
    },
    {
        "id": 107268,
        "name": "Bala",
        "state_id": 2217,
        "state_code": "06",
        "state_name": "Ankara",
        "country_id": 225,
        "country_code": "TR",
        "country_name": "Turkey",
        "latitude": "39.56374000",
        "longitude": "33.12962000",
        "timezone": null,
        "wikiDataId": "Q752528"
    },
    {
        "id": 107343,
        "name": "Beypazarı",
        "state_id": 2217,
        "state_code": "06",
        "state_name": "Ankara",
        "country_id": 225,
        "country_code": "TR",
        "country_name": "Turkey",
        "latitude": "40.16750000",
        "longitude": "31.92111000",
        "timezone": null,
        "wikiDataId": "Q794382"
    },
    {
        "id": 108768,
        "name": "Çamlıdere",
        "state_id": 2217,
        "state_code": "06",
        "state_name": "Ankara",
        "country_id": 225,
        "country_code": "TR",
        "country_name": "Turkey",
        "latitude": "40.48958000",
        "longitude": "32.47499000",
        "timezone": null,
        "wikiDataId": "Q240979"
    },
    {
        "id": 108779,
        "name": "Çankaya",
        "state_id": 2217,
        "state_code": "06",
        "state_name": "Ankara",
        "country_id": 225,
        "country_code": "TR",
        "country_name": "Turkey",
        "latitude": "39.91790000",
        "longitude": "32.86268000",
        "timezone": null,
        "wikiDataId": "Q1020646"
    },
    {
        "id": 108844,
        "name": "Çubuk",
        "state_id": 2217,
        "state_code": "06",
        "state_name": "Ankara",
        "country_id": 225,
        "country_code": "TR",
        "country_name": "Turkey",
        "latitude": "40.23861000",
        "longitude": "33.03222000",
        "timezone": null,
        "wikiDataId": "Q2868524"
    },
    {
        "id": 107568,
        "name": "Elmadağ",
        "state_id": 2217,
        "state_code": "06",
        "state_name": "Ankara",
        "country_id": 225,
        "country_code": "TR",
        "country_name": "Turkey",
        "latitude": "39.92083000",
        "longitude": "33.23083000",
        "timezone": null,
        "wikiDataId": "Q2671994"
    },
    {
        "id": 107611,
        "name": "Etimesgut",
        "state_id": 2217,
        "state_code": "06",
        "state_name": "Ankara",
        "country_id": 225,
        "country_code": "TR",
        "country_name": "Turkey",
        "latitude": "39.96335000",
        "longitude": "32.63744000",
        "timezone": null,
        "wikiDataId": "Q1029159"
    },
    {
        "id": 107614,
        "name": "Evren",
        "state_id": 2217,
        "state_code": "06",
        "state_name": "Ankara",
        "country_id": 225,
        "country_code": "TR",
        "country_name": "Turkey",
        "latitude": "39.02402000",
        "longitude": "33.80626000",
        "timezone": null,
        "wikiDataId": "Q1027593"
    },
    {
        "id": 107687,
        "name": "Gölbaşı",
        "state_id": 2217,
        "state_code": "06",
        "state_name": "Ankara",
        "country_id": 225,
        "country_code": "TR",
        "country_name": "Turkey",
        "latitude": "39.79043000",
        "longitude": "32.80903000",
        "timezone": null,
        "wikiDataId": "Q1020643"
    },
    {
        "id": 107725,
        "name": "Güdül",
        "state_id": 2217,
        "state_code": "06",
        "state_name": "Ankara",
        "country_id": 225,
        "country_code": "TR",
        "country_name": "Turkey",
        "latitude": "40.21051000",
        "longitude": "32.24552000",
        "timezone": null,
        "wikiDataId": "Q2672756"
    },
    {
        "id": 107811,
        "name": "Haymana",
        "state_id": 2217,
        "state_code": "06",
        "state_name": "Ankara",
        "country_id": 225,
        "country_code": "TR",
        "country_name": "Turkey",
        "latitude": "39.43212000",
        "longitude": "32.49732000",
        "timezone": null,
        "wikiDataId": "Q1020642"
    },
    {
        "id": 107868,
        "name": "Kahramankazan",
        "state_id": 2217,
        "state_code": "06",
        "state_name": "Ankara",
        "country_id": 225,
        "country_code": "TR",
        "country_name": "Turkey",
        "latitude": "40.16502000",
        "longitude": "32.63904000",
        "timezone": null,
        "wikiDataId": "Q3056065"
    },
    {
        "id": 107874,
        "name": "Kalecik",
        "state_id": 2217,
        "state_code": "06",
        "state_name": "Ankara",
        "country_id": 225,
        "country_code": "TR",
        "country_name": "Turkey",
        "latitude": "40.09722000",
        "longitude": "33.40833000",
        "timezone": null,
        "wikiDataId": "Q967071"
    },
    {
        "id": 107991,
        "name": "Keçiören",
        "state_id": 2217,
        "state_code": "06",
        "state_name": "Ankara",
        "country_id": 225,
        "country_code": "TR",
        "country_name": "Turkey",
        "latitude": "40.02106000",
        "longitude": "32.83102000",
        "timezone": null,
        "wikiDataId": "Q1004516"
    },
    {
        "id": 108113,
        "name": "Kızılcahamam",
        "state_id": 2217,
        "state_code": "06",
        "state_name": "Ankara",
        "country_id": 225,
        "country_code": "TR",
        "country_name": "Turkey",
        "latitude": "40.46972000",
        "longitude": "32.65056000",
        "timezone": null,
        "wikiDataId": "Q208005"
    },
    {
        "id": 108147,
        "name": "Mamak",
        "state_id": 2217,
        "state_code": "06",
        "state_name": "Ankara",
        "country_id": 225,
        "country_code": "TR",
        "country_name": "Turkey",
        "latitude": "39.94587000",
        "longitude": "32.90811000",
        "timezone": null,
        "wikiDataId": "Q2055274"
    },
    {
        "id": 108237,
        "name": "Nallıhan",
        "state_id": 2217,
        "state_code": "06",
        "state_name": "Ankara",
        "country_id": 225,
        "country_code": "TR",
        "country_name": "Turkey",
        "latitude": "40.18593000",
        "longitude": "31.35179000",
        "timezone": null,
        "wikiDataId": "Q1947523"
    },
    {
        "id": 108346,
        "name": "Polatlı",
        "state_id": 2217,
        "state_code": "06",
        "state_name": "Ankara",
        "country_id": 225,
        "country_code": "TR",
        "country_name": "Turkey",
        "latitude": "39.57715000",
        "longitude": "32.14132000",
        "timezone": null,
        "wikiDataId": "Q945388"
    },
    {
        "id": 108352,
        "name": "Pursaklar",
        "state_id": 2217,
        "state_code": "06",
        "state_name": "Ankara",
        "country_id": 225,
        "country_code": "TR",
        "country_name": "Turkey",
        "latitude": "40.03961000",
        "longitude": "32.90139000",
        "timezone": null,
        "wikiDataId": "Q1004432"
    },
    {
        "id": 108956,
        "name": "Şereflikoçhisar",
        "state_id": 2217,
        "state_code": "06",
        "state_name": "Ankara",
        "country_id": 225,
        "country_code": "TR",
        "country_name": "Turkey",
        "latitude": "38.93925000",
        "longitude": "33.53860000",
        "timezone": null,
        "wikiDataId": "Q388999"
    },
    {
        "id": 108470,
        "name": "Sincan",
        "state_id": 2217,
        "state_code": "06",
        "state_name": "Ankara",
        "country_id": 225,
        "country_code": "TR",
        "country_name": "Turkey",
        "latitude": "39.95943000",
        "longitude": "32.49567000",
        "timezone": null,
        "wikiDataId": "Q1020659"
    },
    {
        "id": 108703,
        "name": "Yenimahalle",
        "state_id": 2217,
        "state_code": "06",
        "state_name": "Ankara",
        "country_id": 225,
        "country_code": "TR",
        "country_name": "Turkey",
        "latitude": "39.99043000",
        "longitude": "32.69555000",
        "timezone": null,
        "wikiDataId": "Q1865363"
    },
    {
        "id": 107092,
        "name": "Akseki",
        "state_id": 2169,
        "state_code": "07",
        "state_name": "Antalya",
        "country_id": 225,
        "country_code": "TR",
        "country_name": "Turkey",
        "latitude": "37.04861000",
        "longitude": "31.79000000",
        "timezone": null,
        "wikiDataId": "Q182025"
    },
    {
        "id": 107095,
        "name": "Aksu",
        "state_id": 2169,
        "state_code": "07",
        "state_name": "Antalya",
        "country_id": 225,
        "country_code": "TR",
        "country_name": "Turkey",
        "latitude": "36.95389000",
        "longitude": "30.84778000",
        "timezone": null,
        "wikiDataId": "Q421618"
    },
    {
        "id": 107122,
        "name": "Alanya",
        "state_id": 2169,
        "state_code": "07",
        "state_name": "Antalya",
        "country_id": 225,
        "country_code": "TR",
        "country_name": "Turkey",
        "latitude": "36.54375000",
        "longitude": "31.99982000",
        "timezone": null,
        "wikiDataId": "Q171810"
    },
    {
        "id": 153922,
        "name": "Antalya",
        "state_id": 2169,
        "state_code": "07",
        "state_name": "Antalya",
        "country_id": 225,
        "country_code": "TR",
        "country_name": "Turkey",
        "latitude": "36.89809830",
        "longitude": "30.55329070",
        "timezone": null,
        "wikiDataId": "Q6487"
    },
    {
        "id": 107467,
        "name": "Demre",
        "state_id": 2169,
        "state_code": "07",
        "state_name": "Antalya",
        "country_id": 225,
        "country_code": "TR",
        "country_name": "Turkey",
        "latitude": "36.24444000",
        "longitude": "29.98500000",
        "timezone": null,
        "wikiDataId": "Q1185714"
    },
    {
        "id": 107541,
        "name": "Döşemealtı",
        "state_id": 2169,
        "state_code": "07",
        "state_name": "Antalya",
        "country_id": 225,
        "country_code": "TR",
        "country_name": "Turkey",
        "latitude": "37.02366000",
        "longitude": "30.59040000",
        "timezone": null,
        "wikiDataId": "Q1027553"
    },
    {
        "id": 107570,
        "name": "Elmalı",
        "state_id": 2169,
        "state_code": "07",
        "state_name": "Antalya",
        "country_id": 225,
        "country_code": "TR",
        "country_name": "Turkey",
        "latitude": "36.73583000",
        "longitude": "29.91775000",
        "timezone": null,
        "wikiDataId": "Q2671994"
    },
    {
        "id": 107641,
        "name": "Finike",
        "state_id": 2169,
        "state_code": "07",
        "state_name": "Antalya",
        "country_id": 225,
        "country_code": "TR",
        "country_name": "Turkey",
        "latitude": "36.42355000",
        "longitude": "30.06645000",
        "timezone": null,
        "wikiDataId": "Q207998"
    },
    {
        "id": 107648,
        "name": "Gazipaşa",
        "state_id": 2169,
        "state_code": "07",
        "state_name": "Antalya",
        "country_id": 225,
        "country_code": "TR",
        "country_name": "Turkey",
        "latitude": "36.26942000",
        "longitude": "32.31792000",
        "timezone": null,
        "wikiDataId": "Q570826"
    },
    {
        "id": 107740,
        "name": "Gündoğmuş",
        "state_id": 2169,
        "state_code": "07",
        "state_name": "Antalya",
        "country_id": 225,
        "country_code": "TR",
        "country_name": "Turkey",
        "latitude": "36.82446000",
        "longitude": "32.00679000",
        "timezone": null,
        "wikiDataId": "Q2671034"
    },
    {
        "id": 108877,
        "name": "İbradı",
        "state_id": 2169,
        "state_code": "07",
        "state_name": "Antalya",
        "country_id": 225,
        "country_code": "TR",
        "country_name": "Turkey",
        "latitude": "37.09694000",
        "longitude": "31.59917000",
        "timezone": null,
        "wikiDataId": "Q335204"
    },
    {
        "id": 107962,
        "name": "Kaş",
        "state_id": 2169,
        "state_code": "07",
        "state_name": "Antalya",
        "country_id": 225,
        "country_code": "TR",
        "country_name": "Turkey",
        "latitude": "36.20176000",
        "longitude": "29.63766000",
        "timezone": null,
        "wikiDataId": "Q1004438"
    },
    {
        "id": 107978,
        "name": "Kemer",
        "state_id": 2169,
        "state_code": "07",
        "state_name": "Antalya",
        "country_id": 225,
        "country_code": "TR",
        "country_name": "Turkey",
        "latitude": "36.59778000",
        "longitude": "30.56056000",
        "timezone": null,
        "wikiDataId": "Q2527260"
    },
    {
        "id": 107981,
        "name": "Kepez",
        "state_id": 2169,
        "state_code": "07",
        "state_name": "Antalya",
        "country_id": 225,
        "country_code": "TR",
        "country_name": "Turkey",
        "latitude": "37.01187000",
        "longitude": "30.75966000",
        "timezone": null,
        "wikiDataId": "Q727065"
    },
    {
        "id": 108017,
        "name": "Konyaaltı",
        "state_id": 2169,
        "state_code": "07",
        "state_name": "Antalya",
        "country_id": 225,
        "country_code": "TR",
        "country_name": "Turkey",
        "latitude": "36.86424000",
        "longitude": "30.62714000",
        "timezone": null,
        "wikiDataId": "Q79857"
    },
    {
        "id": 108024,
        "name": "Korkuteli",
        "state_id": 2169,
        "state_code": "07",
        "state_name": "Antalya",
        "country_id": 225,
        "country_code": "TR",
        "country_name": "Turkey",
        "latitude": "37.06498000",
        "longitude": "30.19565000",
        "timezone": null,
        "wikiDataId": "Q3010236"
    },
    {
        "id": 108051,
        "name": "Kumluca",
        "state_id": 2169,
        "state_code": "07",
        "state_name": "Antalya",
        "country_id": 225,
        "country_code": "TR",
        "country_name": "Turkey",
        "latitude": "36.58000000",
        "longitude": "30.30000000",
        "timezone": null,
        "wikiDataId": "Q1015322"
    },
    {
        "id": 108148,
        "name": "Manavgat",
        "state_id": 2169,
        "state_code": "07",
        "state_name": "Antalya",
        "country_id": 225,
        "country_code": "TR",
        "country_name": "Turkey",
        "latitude": "36.78667000",
        "longitude": "31.44306000",
        "timezone": null,
        "wikiDataId": "Q2055274"
    },
    {
        "id": 108224,
        "name": "Muratpaşa",
        "state_id": 2169,
        "state_code": "07",
        "state_name": "Antalya",
        "country_id": 225,
        "country_code": "TR",
        "country_name": "Turkey",
        "latitude": "36.89157000",
        "longitude": "30.76498000",
        "timezone": null,
        "wikiDataId": "Q2581023"
    },
    {
        "id": 108441,
        "name": "Serik",
        "state_id": 2169,
        "state_code": "07",
        "state_name": "Antalya",
        "country_id": 225,
        "country_code": "TR",
        "country_name": "Turkey",
        "latitude": "37.07743000",
        "longitude": "31.00677000",
        "timezone": null,
        "wikiDataId": "Q1937212"
    },
    {
        "id": 108853,
        "name": "Çıldır",
        "state_id": 2185,
        "state_code": "75",
        "state_name": "Ardahan",
        "country_id": 225,
        "country_code": "TR",
        "country_name": "Turkey",
        "latitude": "41.13783000",
        "longitude": "43.14169000",
        "timezone": null,
        "wikiDataId": "Q272985"
    },
    {
        "id": 107444,
        "name": "Damal",
        "state_id": 2185,
        "state_code": "75",
        "state_name": "Ardahan",
        "country_id": 225,
        "country_code": "TR",
        "country_name": "Turkey",
        "latitude": "41.34145000",
        "longitude": "42.83680000",
        "timezone": null,
        "wikiDataId": "Q518586"
    },
    {
        "id": 107692,
        "name": "Göle",
        "state_id": 2185,
        "state_code": "75",
        "state_name": "Ardahan",
        "country_id": 225,
        "country_code": "TR",
        "country_name": "Turkey",
        "latitude": "40.78746000",
        "longitude": "42.60603000",
        "timezone": null,
        "wikiDataId": "Q1020643"
    },
    {
        "id": 107788,
        "name": "Hanak",
        "state_id": 2185,
        "state_code": "75",
        "state_name": "Ardahan",
        "country_id": 225,
        "country_code": "TR",
        "country_name": "Turkey",
        "latitude": "41.23344000",
        "longitude": "42.84037000",
        "timezone": null,
        "wikiDataId": "Q2417071"
    },
    {
        "id": 107179,
        "name": "Merkez",
        "state_id": 2185,
        "state_code": "75",
        "state_name": "Ardahan",
        "country_id": 225,
        "country_code": "TR",
        "country_name": "Turkey",
        "latitude": "41.10871000",
        "longitude": "42.70222000",
        "timezone": null,
        "wikiDataId": "Q202188"
    },
    {
        "id": 108347,
        "name": "Posof",
        "state_id": 2185,
        "state_code": "75",
        "state_name": "Ardahan",
        "country_id": 225,
        "country_code": "TR",
        "country_name": "Turkey",
        "latitude": "41.51111000",
        "longitude": "42.72917000",
        "timezone": null,
        "wikiDataId": "Q945388"
    },
    {
        "id": 107180,
        "name": "Ardanuç",
        "state_id": 2191,
        "state_code": "08",
        "state_name": "Artvin",
        "country_id": 225,
        "country_code": "TR",
        "country_name": "Turkey",
        "latitude": "41.12738000",
        "longitude": "42.06292000",
        "timezone": null,
        "wikiDataId": "Q638539"
    },
    {
        "id": 107184,
        "name": "Arhavi",
        "state_id": 2191,
        "state_code": "08",
        "state_name": "Artvin",
        "country_id": 225,
        "country_code": "TR",
        "country_name": "Turkey",
        "latitude": "41.35121000",
        "longitude": "41.30456000",
        "timezone": null,
        "wikiDataId": "Q653312"
    },
    {
        "id": 107371,
        "name": "Borçka",
        "state_id": 2191,
        "state_code": "08",
        "state_name": "Artvin",
        "country_id": 225,
        "country_code": "TR",
        "country_name": "Turkey",
        "latitude": "41.35792000",
        "longitude": "41.66579000",
        "timezone": null,
        "wikiDataId": "Q894012"
    },
    {
        "id": 107834,
        "name": "Hopa",
        "state_id": 2191,
        "state_code": "08",
        "state_name": "Artvin",
        "country_id": 225,
        "country_code": "TR",
        "country_name": "Turkey",
        "latitude": "41.39046000",
        "longitude": "41.41966000",
        "timezone": null,
        "wikiDataId": "Q475253"
    },
    {
        "id": 107975,
        "name": "Kemalpaşa",
        "state_id": 2191,
        "state_code": "08",
        "state_name": "Artvin",
        "country_id": 225,
        "country_code": "TR",
        "country_name": "Turkey",
        "latitude": "41.48336000",
        "longitude": "41.52750000",
        "timezone": null,
        "wikiDataId": "Q4817429"
    },
    {
        "id": 107196,
        "name": "Merkez",
        "state_id": 2191,
        "state_code": "08",
        "state_name": "Artvin",
        "country_id": 225,
        "country_code": "TR",
        "country_name": "Turkey",
        "latitude": "41.18161000",
        "longitude": "41.82172000",
        "timezone": null,
        "wikiDataId": "Q193445"
    },
    {
        "id": 108226,
        "name": "Murgul",
        "state_id": 2191,
        "state_code": "08",
        "state_name": "Artvin",
        "country_id": 225,
        "country_code": "TR",
        "country_name": "Turkey",
        "latitude": "41.27937000",
        "longitude": "41.55514000",
        "timezone": null,
        "wikiDataId": "Q1503514"
    },
    {
        "id": 108940,
        "name": "Şavşat",
        "state_id": 2191,
        "state_code": "08",
        "state_name": "Artvin",
        "country_id": 225,
        "country_code": "TR",
        "country_name": "Turkey",
        "latitude": "41.24027000",
        "longitude": "42.36109000",
        "timezone": null,
        "wikiDataId": "Q388603"
    },
    {
        "id": 108741,
        "name": "Yusufeli",
        "state_id": 2191,
        "state_code": "08",
        "state_name": "Artvin",
        "country_id": 225,
        "country_code": "TR",
        "country_name": "Turkey",
        "latitude": "40.82042000",
        "longitude": "41.53743000",
        "timezone": null,
        "wikiDataId": "Q210292"
    },
    {
        "id": 107381,
        "name": "Bozdoğan",
        "state_id": 2187,
        "state_code": "09",
        "state_name": "Aydın",
        "country_id": 225,
        "country_code": "TR",
        "country_name": "Turkey",
        "latitude": "37.67134000",
        "longitude": "28.31395000",
        "timezone": null,
        "wikiDataId": "Q10259759"
    },
    {
        "id": 107402,
        "name": "Buharkent",
        "state_id": 2187,
        "state_code": "09",
        "state_name": "Aydın",
        "country_id": 225,
        "country_code": "TR",
        "country_name": "Turkey",
        "latitude": "37.96397000",
        "longitude": "28.74270000",
        "timezone": null,
        "wikiDataId": "Q581187"
    },
    {
        "id": 108834,
        "name": "Çine",
        "state_id": 2187,
        "state_code": "09",
        "state_name": "Aydın",
        "country_id": 225,
        "country_code": "TR",
        "country_name": "Turkey",
        "latitude": "37.61266000",
        "longitude": "28.05912000",
        "timezone": null,
        "wikiDataId": "Q2900960"
    },
    {
        "id": 107493,
        "name": "Didim",
        "state_id": 2187,
        "state_code": "09",
        "state_name": "Aydın",
        "country_id": 225,
        "country_code": "TR",
        "country_name": "Turkey",
        "latitude": "37.39305000",
        "longitude": "27.29357000",
        "timezone": null,
        "wikiDataId": "Q1207056"
    },
    {
        "id": 107553,
        "name": "Efeler",
        "state_id": 2187,
        "state_code": "09",
        "state_name": "Aydın",
        "country_id": 225,
        "country_code": "TR",
        "country_name": "Turkey",
        "latitude": "37.83835000",
        "longitude": "27.84557000",
        "timezone": null,
        "wikiDataId": "Q16836589"
    },
    {
        "id": 107668,
        "name": "Germencik",
        "state_id": 2187,
        "state_code": "09",
        "state_name": "Aydın",
        "country_id": 225,
        "country_code": "TR",
        "country_name": "Turkey",
        "latitude": "37.87056000",
        "longitude": "27.60283000",
        "timezone": null,
        "wikiDataId": "Q963493"
    },
    {
        "id": 108897,
        "name": "İncirliova",
        "state_id": 2187,
        "state_code": "09",
        "state_name": "Aydın",
        "country_id": 225,
        "country_code": "TR",
        "country_name": "Turkey",
        "latitude": "37.85222000",
        "longitude": "27.72361000",
        "timezone": null,
        "wikiDataId": "Q2673990"
    },
    {
        "id": 107893,
        "name": "Karacasu",
        "state_id": 2187,
        "state_code": "09",
        "state_name": "Aydın",
        "country_id": 225,
        "country_code": "TR",
        "country_name": "Turkey",
        "latitude": "37.74731000",
        "longitude": "28.59402000",
        "timezone": null,
        "wikiDataId": "Q189697"
    },
    {
        "id": 107929,
        "name": "Karpuzlu",
        "state_id": 2187,
        "state_code": "09",
        "state_name": "Aydın",
        "country_id": 225,
        "country_code": "TR",
        "country_name": "Turkey",
        "latitude": "37.55861000",
        "longitude": "27.83528000",
        "timezone": null,
        "wikiDataId": "Q1023304"
    },
    {
        "id": 108036,
        "name": "Koçarlı",
        "state_id": 2187,
        "state_code": "09",
        "state_name": "Aydın",
        "country_id": 225,
        "country_code": "TR",
        "country_name": "Turkey",
        "latitude": "37.76113000",
        "longitude": "27.70583000",
        "timezone": null,
        "wikiDataId": "Q477171"
    },
    {
        "id": 108084,
        "name": "Köşk",
        "state_id": 2187,
        "state_code": "09",
        "state_name": "Aydın",
        "country_id": 225,
        "country_code": "TR",
        "country_name": "Turkey",
        "latitude": "37.85333000",
        "longitude": "28.05167000",
        "timezone": null,
        "wikiDataId": "Q993688"
    },
    {
        "id": 108067,
        "name": "Kuşadası",
        "state_id": 2187,
        "state_code": "09",
        "state_name": "Aydın",
        "country_id": 225,
        "country_code": "TR",
        "country_name": "Turkey",
        "latitude": "37.86014000",
        "longitude": "27.25713000",
        "timezone": null,
        "wikiDataId": "Q211952"
    },
    {
        "id": 108063,
        "name": "Kuyucak",
        "state_id": 2187,
        "state_code": "09",
        "state_name": "Aydın",
        "country_id": 225,
        "country_code": "TR",
        "country_name": "Turkey",
        "latitude": "37.91330000",
        "longitude": "28.45917000",
        "timezone": null,
        "wikiDataId": "Q1482869"
    },
    {
        "id": 108243,
        "name": "Nazilli",
        "state_id": 2187,
        "state_code": "09",
        "state_name": "Aydın",
        "country_id": 225,
        "country_code": "TR",
        "country_name": "Turkey",
        "latitude": "37.93570000",
        "longitude": "28.30609000",
        "timezone": null,
        "wikiDataId": "Q2252014"
    },
    {
        "id": 108515,
        "name": "Söke",
        "state_id": 2187,
        "state_code": "09",
        "state_name": "Aydın",
        "country_id": 225,
        "country_code": "TR",
        "country_name": "Turkey",
        "latitude": "37.74820000",
        "longitude": "27.40614000",
        "timezone": null,
        "wikiDataId": "Q1004566"
    },
    {
        "id": 108497,
        "name": "Sultanhisar",
        "state_id": 2187,
        "state_code": "09",
        "state_name": "Aydın",
        "country_id": 225,
        "country_code": "TR",
        "country_name": "Turkey",
        "latitude": "37.88989000",
        "longitude": "28.15436000",
        "timezone": null,
        "wikiDataId": "Q657912"
    },
    {
        "id": 108704,
        "name": "Yenipazar",
        "state_id": 2187,
        "state_code": "09",
        "state_name": "Aydın",
        "country_id": 225,
        "country_code": "TR",
        "country_name": "Turkey",
        "latitude": "37.82332000",
        "longitude": "28.19573000",
        "timezone": null,
        "wikiDataId": "Q1865363"
    },
    {
        "id": 107138,
        "name": "Altıeylül",
        "state_id": 2175,
        "state_code": "10",
        "state_name": "Balıkesir",
        "country_id": 225,
        "country_code": "TR",
        "country_name": "Turkey",
        "latitude": "39.64099000",
        "longitude": "27.88639000",
        "timezone": null,
        "wikiDataId": "Q16028029"
    },
    {
        "id": 107233,
        "name": "Ayvalık",
        "state_id": 2175,
        "state_code": "10",
        "state_name": "Balıkesir",
        "country_id": 225,
        "country_code": "TR",
        "country_name": "Turkey",
        "latitude": "39.31927000",
        "longitude": "26.69341000",
        "timezone": null,
        "wikiDataId": "Q793377"
    },
    {
        "id": 107273,
        "name": "Balya",
        "state_id": 2175,
        "state_code": "10",
        "state_name": "Balıkesir",
        "country_id": 225,
        "country_code": "TR",
        "country_name": "Turkey",
        "latitude": "39.74861000",
        "longitude": "27.57889000",
        "timezone": null,
        "wikiDataId": "Q752528"
    },
    {
        "id": 107283,
        "name": "Bandırma",
        "state_id": 2175,
        "state_code": "10",
        "state_name": "Balıkesir",
        "country_id": 225,
        "country_code": "TR",
        "country_name": "Turkey",
        "latitude": "40.35222000",
        "longitude": "27.97667000",
        "timezone": null,
        "wikiDataId": "Q199723"
    },
    {
        "id": 107354,
        "name": "Bigadiç",
        "state_id": 2175,
        "state_code": "10",
        "state_name": "Balıkesir",
        "country_id": 225,
        "country_code": "TR",
        "country_name": "Turkey",
        "latitude": "39.39250000",
        "longitude": "28.13111000",
        "timezone": null,
        "wikiDataId": "Q854667"
    },
    {
        "id": 107412,
        "name": "Burhaniye",
        "state_id": 2175,
        "state_code": "10",
        "state_name": "Balıkesir",
        "country_id": 225,
        "country_code": "TR",
        "country_name": "Turkey",
        "latitude": "39.50041000",
        "longitude": "26.97269000",
        "timezone": null,
        "wikiDataId": "Q211811"
    },
    {
        "id": 107532,
        "name": "Dursunbey",
        "state_id": 2175,
        "state_code": "10",
        "state_name": "Balıkesir",
        "country_id": 225,
        "country_code": "TR",
        "country_name": "Turkey",
        "latitude": "39.58596000",
        "longitude": "28.62568000",
        "timezone": null,
        "wikiDataId": "Q3041195"
    },
    {
        "id": 107550,
        "name": "Edremit",
        "state_id": 2175,
        "state_code": "10",
        "state_name": "Balıkesir",
        "country_id": 225,
        "country_code": "TR",
        "country_name": "Turkey",
        "latitude": "39.59611000",
        "longitude": "27.02444000",
        "timezone": null,
        "wikiDataId": "Q43387"
    },
    {
        "id": 107584,
        "name": "Erdek",
        "state_id": 2175,
        "state_code": "10",
        "state_name": "Balıkesir",
        "country_id": 225,
        "country_code": "TR",
        "country_name": "Turkey",
        "latitude": "40.39960000",
        "longitude": "27.79348000",
        "timezone": null,
        "wikiDataId": "Q2218549"
    },
    {
        "id": 107705,
        "name": "Gömeç",
        "state_id": 2175,
        "state_code": "10",
        "state_name": "Balıkesir",
        "country_id": 225,
        "country_code": "TR",
        "country_name": "Turkey",
        "latitude": "39.39016000",
        "longitude": "26.84127000",
        "timezone": null,
        "wikiDataId": "Q2901102"
    },
    {
        "id": 107708,
        "name": "Gönen",
        "state_id": 2175,
        "state_code": "10",
        "state_name": "Balıkesir",
        "country_id": 225,
        "country_code": "TR",
        "country_name": "Turkey",
        "latitude": "40.10490000",
        "longitude": "27.65399000",
        "timezone": null,
        "wikiDataId": "Q1559368"
    },
    {
        "id": 107806,
        "name": "Havran",
        "state_id": 2175,
        "state_code": "10",
        "state_name": "Balıkesir",
        "country_id": 225,
        "country_code": "TR",
        "country_name": "Turkey",
        "latitude": "39.55833000",
        "longitude": "27.09833000",
        "timezone": null,
        "wikiDataId": "Q2416719"
    },
    {
        "id": 108920,
        "name": "İvrindi",
        "state_id": 2175,
        "state_code": "10",
        "state_name": "Balıkesir",
        "country_id": 225,
        "country_code": "TR",
        "country_name": "Turkey",
        "latitude": "39.58389000",
        "longitude": "27.48639000",
        "timezone": null,
        "wikiDataId": "Q344273"
    },
    {
        "id": 153352,
        "name": "Karesi",
        "state_id": 2175,
        "state_code": "10",
        "state_name": "Balıkesir",
        "country_id": 225,
        "country_code": "TR",
        "country_name": "Turkey",
        "latitude": "39.64833300",
        "longitude": "27.88250000",
        "timezone": null,
        "wikiDataId": "Q16852358"
    },
    {
        "id": 107982,
        "name": "Kepsut",
        "state_id": 2175,
        "state_code": "10",
        "state_name": "Balıkesir",
        "country_id": 225,
        "country_code": "TR",
        "country_name": "Turkey",
        "latitude": "39.68889000",
        "longitude": "28.15222000",
        "timezone": null,
        "wikiDataId": "Q727065"
    },
    {
        "id": 108151,
        "name": "Manyas",
        "state_id": 2175,
        "state_code": "10",
        "state_name": "Balıkesir",
        "country_id": 225,
        "country_code": "TR",
        "country_name": "Turkey",
        "latitude": "40.04639000",
        "longitude": "27.97000000",
        "timezone": null,
        "wikiDataId": "Q920866"
    },
    {
        "id": 108155,
        "name": "Marmara",
        "state_id": 2175,
        "state_code": "10",
        "state_name": "Balıkesir",
        "country_id": 225,
        "country_code": "TR",
        "country_name": "Turkey",
        "latitude": "40.58633000",
        "longitude": "27.55541000",
        "timezone": null,
        "wikiDataId": "Q188022"
    },
    {
        "id": 108417,
        "name": "Savaştepe",
        "state_id": 2175,
        "state_code": "10",
        "state_name": "Balıkesir",
        "country_id": 225,
        "country_code": "TR",
        "country_name": "Turkey",
        "latitude": "39.38319000",
        "longitude": "27.65612000",
        "timezone": null,
        "wikiDataId": "Q1430729"
    },
    {
        "id": 108527,
        "name": "Sındırgı",
        "state_id": 2175,
        "state_code": "10",
        "state_name": "Balıkesir",
        "country_id": 225,
        "country_code": "TR",
        "country_name": "Turkey",
        "latitude": "39.24128000",
        "longitude": "28.17842000",
        "timezone": null,
        "wikiDataId": "Q1783527"
    },
    {
        "id": 108509,
        "name": "Susurluk",
        "state_id": 2175,
        "state_code": "10",
        "state_name": "Balıkesir",
        "country_id": 225,
        "country_code": "TR",
        "country_name": "Turkey",
        "latitude": "39.91361000",
        "longitude": "28.15778000",
        "timezone": null,
        "wikiDataId": "Q917836"
    },
    {
        "id": 107155,
        "name": "Amasra",
        "state_id": 2148,
        "state_code": "74",
        "state_name": "Bartın",
        "country_id": 225,
        "country_code": "TR",
        "country_name": "Turkey",
        "latitude": "41.74633000",
        "longitude": "32.38633000",
        "timezone": null,
        "wikiDataId": "Q2349330"
    },
    {
        "id": 108057,
        "name": "Kurucaşile",
        "state_id": 2148,
        "state_code": "74",
        "state_name": "Bartın",
        "country_id": 225,
        "country_code": "TR",
        "country_name": "Turkey",
        "latitude": "41.83781000",
        "longitude": "32.71621000",
        "timezone": null,
        "wikiDataId": "Q1004659"
    },
    {
        "id": 107286,
        "name": "Merkez",
        "state_id": 2148,
        "state_code": "74",
        "state_name": "Bartın",
        "country_id": 225,
        "country_code": "TR",
        "country_name": "Turkey",
        "latitude": "41.63583000",
        "longitude": "32.33750000",
        "timezone": null,
        "wikiDataId": "Q211805"
    },
    {
        "id": 108629,
        "name": "Ulus",
        "state_id": 2148,
        "state_code": "74",
        "state_name": "Bartın",
        "country_id": 225,
        "country_code": "TR",
        "country_name": "Turkey",
        "latitude": "41.59373000",
        "longitude": "32.65066000",
        "timezone": null,
        "wikiDataId": "Q993707"
    },
    {
        "id": 107350,
        "name": "Beşiri",
        "state_id": 2194,
        "state_code": "72",
        "state_name": "Batman",
        "country_id": 225,
        "country_code": "TR",
        "country_name": "Turkey",
        "latitude": "37.91573000",
        "longitude": "41.28650000",
        "timezone": null,
        "wikiDataId": "Q459495"
    },
    {
        "id": 107663,
        "name": "Gercüş",
        "state_id": 2194,
        "state_code": "72",
        "state_name": "Batman",
        "country_id": 225,
        "country_code": "TR",
        "country_name": "Turkey",
        "latitude": "37.59139000",
        "longitude": "41.33278000",
        "timezone": null,
        "wikiDataId": "Q1023286"
    },
    {
        "id": 107800,
        "name": "Hasankeyf",
        "state_id": 2194,
        "state_code": "72",
        "state_name": "Batman",
        "country_id": 225,
        "country_code": "TR",
        "country_name": "Turkey",
        "latitude": "37.70612000",
        "longitude": "41.40480000",
        "timezone": null,
        "wikiDataId": "Q1023526"
    },
    {
        "id": 108035,
        "name": "Kozluk",
        "state_id": 2194,
        "state_code": "72",
        "state_name": "Batman",
        "country_id": 225,
        "country_code": "TR",
        "country_name": "Turkey",
        "latitude": "38.19249000",
        "longitude": "41.48705000",
        "timezone": null,
        "wikiDataId": "Q477171"
    },
    {
        "id": 108186,
        "name": "Merkez",
        "state_id": 2194,
        "state_code": "72",
        "state_name": "Batman",
        "country_id": 225,
        "country_code": "TR",
        "country_name": "Turkey",
        "latitude": "37.84362000",
        "longitude": "41.18341000",
        "timezone": null,
        "wikiDataId": "Q3055997"
    },
    {
        "id": 108415,
        "name": "Sason",
        "state_id": 2194,
        "state_code": "72",
        "state_name": "Batman",
        "country_id": 225,
        "country_code": "TR",
        "country_name": "Turkey",
        "latitude": "38.32767000",
        "longitude": "41.41377000",
        "timezone": null,
        "wikiDataId": "Q1430729"
    },
    {
        "id": 107226,
        "name": "Aydıntepe",
        "state_id": 2177,
        "state_code": "69",
        "state_name": "Bayburt",
        "country_id": 225,
        "country_code": "TR",
        "country_name": "Turkey",
        "latitude": "40.38325000",
        "longitude": "40.14272000",
        "timezone": null,
        "wikiDataId": "Q583185"
    },
    {
        "id": 107466,
        "name": "Demirözü",
        "state_id": 2177,
        "state_code": "69",
        "state_name": "Bayburt",
        "country_id": 225,
        "country_code": "TR",
        "country_name": "Turkey",
        "latitude": "40.16560000",
        "longitude": "39.89343000",
        "timezone": null,
        "wikiDataId": "Q1185714"
    },
    {
        "id": 107297,
        "name": "Merkez",
        "state_id": 2177,
        "state_code": "69",
        "state_name": "Bayburt",
        "country_id": 225,
        "country_code": "TR",
        "country_name": "Turkey",
        "latitude": "40.25631000",
        "longitude": "40.22289000",
        "timezone": null,
        "wikiDataId": "Q211828"
    },
    {
        "id": 107393,
        "name": "Bozüyük",
        "state_id": 2221,
        "state_code": "11",
        "state_name": "Bilecik",
        "country_id": 225,
        "country_code": "TR",
        "country_name": "Turkey",
        "latitude": "39.90778000",
        "longitude": "30.03667000",
        "timezone": null,
        "wikiDataId": "Q896218"
    },
    {
        "id": 107702,
        "name": "Gölpazarı",
        "state_id": 2221,
        "state_code": "11",
        "state_name": "Bilecik",
        "country_id": 225,
        "country_code": "TR",
        "country_name": "Turkey",
        "latitude": "40.28472000",
        "longitude": "30.31722000",
        "timezone": null,
        "wikiDataId": "Q1258883"
    },
    {
        "id": 108903,
        "name": "İnhisar",
        "state_id": 2221,
        "state_code": "11",
        "state_name": "Bilecik",
        "country_id": 225,
        "country_code": "TR",
        "country_name": "Turkey",
        "latitude": "40.04932000",
        "longitude": "30.38521000",
        "timezone": null,
        "wikiDataId": "Q343973"
    },
    {
        "id": 107356,
        "name": "Merkez",
        "state_id": 2221,
        "state_code": "11",
        "state_name": "Bilecik",
        "country_id": 225,
        "country_code": "TR",
        "country_name": "Turkey",
        "latitude": "40.14192000",
        "longitude": "29.97932000",
        "timezone": null,
        "wikiDataId": "Q208006"
    },
    {
        "id": 108291,
        "name": "Osmaneli",
        "state_id": 2221,
        "state_code": "11",
        "state_name": "Bilecik",
        "country_id": 225,
        "country_code": "TR",
        "country_name": "Turkey",
        "latitude": "40.35722000",
        "longitude": "30.01417000",
        "timezone": null,
        "wikiDataId": "Q1014135"
    },
    {
        "id": 108329,
        "name": "Pazaryeri",
        "state_id": 2221,
        "state_code": "11",
        "state_name": "Bilecik",
        "country_id": 225,
        "country_code": "TR",
        "country_name": "Turkey",
        "latitude": "39.99395000",
        "longitude": "29.90424000",
        "timezone": null,
        "wikiDataId": "Q2671066"
    },
    {
        "id": 108518,
        "name": "Söğüt",
        "state_id": 2221,
        "state_code": "11",
        "state_name": "Bilecik",
        "country_id": 225,
        "country_code": "TR",
        "country_name": "Turkey",
        "latitude": "40.02479000",
        "longitude": "30.17300000",
        "timezone": null,
        "wikiDataId": "Q1004566"
    },
    {
        "id": 108705,
        "name": "Yenipazar",
        "state_id": 2221,
        "state_code": "11",
        "state_name": "Bilecik",
        "country_id": 225,
        "country_code": "TR",
        "country_name": "Turkey",
        "latitude": "40.17833000",
        "longitude": "30.52000000",
        "timezone": null,
        "wikiDataId": "Q3056035"
    },
    {
        "id": 107060,
        "name": "Adaklı",
        "state_id": 2153,
        "state_code": "12",
        "state_name": "Bingöl",
        "country_id": 225,
        "country_code": "TR",
        "country_name": "Turkey",
        "latitude": "39.22870000",
        "longitude": "40.48252000",
        "timezone": null,
        "wikiDataId": "Q347084"
    },
    {
        "id": 107661,
        "name": "Genç",
        "state_id": 2153,
        "state_code": "12",
        "state_name": "Bingöl",
        "country_id": 225,
        "country_code": "TR",
        "country_name": "Turkey",
        "latitude": "38.74773000",
        "longitude": "40.55343000",
        "timezone": null,
        "wikiDataId": "Q984701"
    },
    {
        "id": 107927,
        "name": "Karlıova",
        "state_id": 2153,
        "state_code": "12",
        "state_name": "Bingöl",
        "country_id": 225,
        "country_code": "TR",
        "country_name": "Turkey",
        "latitude": "39.29044000",
        "longitude": "41.00594000",
        "timezone": null,
        "wikiDataId": "Q1018531"
    },
    {
        "id": 108002,
        "name": "Kiğı",
        "state_id": 2153,
        "state_code": "12",
        "state_name": "Bingöl",
        "country_id": 225,
        "country_code": "TR",
        "country_name": "Turkey",
        "latitude": "39.30894000",
        "longitude": "40.34995000",
        "timezone": null,
        "wikiDataId": "Q1023262"
    },
    {
        "id": 108182,
        "name": "Merkez",
        "state_id": 2153,
        "state_code": "12",
        "state_name": "Bingöl",
        "country_id": 225,
        "country_code": "TR",
        "country_name": "Turkey",
        "latitude": "38.95025000",
        "longitude": "40.52802000",
        "timezone": null,
        "wikiDataId": "Q3055997"
    },
    {
        "id": 108483,
        "name": "Solhan",
        "state_id": 2153,
        "state_code": "12",
        "state_name": "Bingöl",
        "country_id": 225,
        "country_code": "TR",
        "country_name": "Turkey",
        "latitude": "38.96525000",
        "longitude": "41.05443000",
        "timezone": null,
        "wikiDataId": "Q928543"
    },
    {
        "id": 108681,
        "name": "Yayladere",
        "state_id": 2153,
        "state_code": "12",
        "state_name": "Bingöl",
        "country_id": 225,
        "country_code": "TR",
        "country_name": "Turkey",
        "latitude": "39.22614000",
        "longitude": "40.06950000",
        "timezone": null,
        "wikiDataId": "Q472878"
    },
    {
        "id": 108688,
        "name": "Yedisu",
        "state_id": 2153,
        "state_code": "12",
        "state_name": "Bingöl",
        "country_id": 225,
        "country_code": "TR",
        "country_name": "Turkey",
        "latitude": "39.43277000",
        "longitude": "40.53368000",
        "timezone": null,
        "wikiDataId": "Q2097511"
    },
    {
        "id": 107065,
        "name": "Adilcevaz",
        "state_id": 2215,
        "state_code": "13",
        "state_name": "Bitlis",
        "country_id": 225,
        "country_code": "TR",
        "country_name": "Turkey",
        "latitude": "38.79911000",
        "longitude": "42.73159000",
        "timezone": null,
        "wikiDataId": "Q175323"
    },
    {
        "id": 107071,
        "name": "Ahlat",
        "state_id": 2215,
        "state_code": "13",
        "state_name": "Bitlis",
        "country_id": 225,
        "country_code": "TR",
        "country_name": "Turkey",
        "latitude": "38.74890000",
        "longitude": "42.48007000",
        "timezone": null,
        "wikiDataId": "Q166824"
    },
    {
        "id": 107751,
        "name": "Güroymak",
        "state_id": 2215,
        "state_code": "13",
        "state_name": "Bitlis",
        "country_id": 225,
        "country_code": "TR",
        "country_name": "Turkey",
        "latitude": "38.57580000",
        "longitude": "42.01558000",
        "timezone": null,
        "wikiDataId": "Q1023310"
    },
    {
        "id": 107829,
        "name": "Hizan",
        "state_id": 2215,
        "state_code": "13",
        "state_name": "Bitlis",
        "country_id": 225,
        "country_code": "TR",
        "country_name": "Turkey",
        "latitude": "38.22498000",
        "longitude": "42.41830000",
        "timezone": null,
        "wikiDataId": "Q990319"
    },
    {
        "id": 108189,
        "name": "Merkez",
        "state_id": 2215,
        "state_code": "13",
        "state_name": "Bitlis",
        "country_id": 225,
        "country_code": "TR",
        "country_name": "Turkey",
        "latitude": "38.31702000",
        "longitude": "42.10065000",
        "timezone": null,
        "wikiDataId": "Q3055997"
    },
    {
        "id": 108233,
        "name": "Mutki",
        "state_id": 2215,
        "state_code": "13",
        "state_name": "Bitlis",
        "country_id": 225,
        "country_code": "TR",
        "country_name": "Turkey",
        "latitude": "38.40624000",
        "longitude": "41.92018000",
        "timezone": null,
        "wikiDataId": "Q94637"
    },
    {
        "id": 108538,
        "name": "Tatvan",
        "state_id": 2215,
        "state_code": "13",
        "state_name": "Bitlis",
        "country_id": 225,
        "country_code": "TR",
        "country_name": "Turkey",
        "latitude": "38.49221000",
        "longitude": "42.28269000",
        "timezone": null,
        "wikiDataId": "Q4817099"
    },
    {
        "id": 107537,
        "name": "Dörtdivan",
        "state_id": 2172,
        "state_code": "14",
        "state_name": "Bolu",
        "country_id": 225,
        "country_code": "TR",
        "country_name": "Turkey",
        "latitude": "40.72052000",
        "longitude": "32.06314000",
        "timezone": null,
        "wikiDataId": "Q1014114"
    },
    {
        "id": 107665,
        "name": "Gerede",
        "state_id": 2172,
        "state_code": "14",
        "state_name": "Bolu",
        "country_id": 225,
        "country_code": "TR",
        "country_name": "Turkey",
        "latitude": "40.71364000",
        "longitude": "32.31263000",
        "timezone": null,
        "wikiDataId": "Q1023286"
    },
    {
        "id": 107719,
        "name": "Göynük",
        "state_id": 2172,
        "state_code": "14",
        "state_name": "Bolu",
        "country_id": 225,
        "country_code": "TR",
        "country_name": "Turkey",
        "latitude": "40.40028000",
        "longitude": "30.78833000",
        "timezone": null,
        "wikiDataId": "Q2670770"
    },
    {
        "id": 108096,
        "name": "Kıbrıscık",
        "state_id": 2172,
        "state_code": "14",
        "state_name": "Bolu",
        "country_id": 225,
        "country_code": "TR",
        "country_name": "Turkey",
        "latitude": "40.40778000",
        "longitude": "31.85194000",
        "timezone": null,
        "wikiDataId": "Q639240"
    },
    {
        "id": 108172,
        "name": "Mengen",
        "state_id": 2172,
        "state_code": "14",
        "state_name": "Bolu",
        "country_id": 225,
        "country_code": "TR",
        "country_name": "Turkey",
        "latitude": "40.93877000",
        "longitude": "32.07642000",
        "timezone": null,
        "wikiDataId": "Q3123478"
    },
    {
        "id": 107366,
        "name": "Merkez",
        "state_id": 2172,
        "state_code": "14",
        "state_name": "Bolu",
        "country_id": 225,
        "country_code": "TR",
        "country_name": "Turkey",
        "latitude": "40.73583000",
        "longitude": "31.60611000",
        "timezone": null,
        "wikiDataId": "Q200951"
    },
    {
        "id": 108218,
        "name": "Mudurnu",
        "state_id": 2172,
        "state_code": "14",
        "state_name": "Bolu",
        "country_id": 225,
        "country_code": "TR",
        "country_name": "Turkey",
        "latitude": "40.47300000",
        "longitude": "31.20755000",
        "timezone": null,
        "wikiDataId": "Q924252"
    },
    {
        "id": 108421,
        "name": "Seben",
        "state_id": 2172,
        "state_code": "14",
        "state_name": "Bolu",
        "country_id": 225,
        "country_code": "TR",
        "country_name": "Turkey",
        "latitude": "40.41134000",
        "longitude": "31.57359000",
        "timezone": null,
        "wikiDataId": "Q1004614"
    },
    {
        "id": 108709,
        "name": "Yeniçağa",
        "state_id": 2172,
        "state_code": "14",
        "state_name": "Bolu",
        "country_id": 225,
        "country_code": "TR",
        "country_name": "Turkey",
        "latitude": "40.77115000",
        "longitude": "32.03375000",
        "timezone": null,
        "wikiDataId": "Q3056035"
    },
    {
        "id": 107241,
        "name": "Ağlasun",
        "state_id": 2209,
        "state_code": "15",
        "state_name": "Burdur",
        "country_id": 225,
        "country_code": "TR",
        "country_name": "Turkey",
        "latitude": "37.64944000",
        "longitude": "30.53417000",
        "timezone": null,
        "wikiDataId": "Q793383"
    },
    {
        "id": 107148,
        "name": "Altınyayla",
        "state_id": 2209,
        "state_code": "15",
        "state_name": "Burdur",
        "country_id": 225,
        "country_code": "TR",
        "country_name": "Turkey",
        "latitude": "36.99722000",
        "longitude": "29.54579000",
        "timezone": null,
        "wikiDataId": "Q2034360"
    },
    {
        "id": 107400,
        "name": "Bucak",
        "state_id": 2209,
        "state_code": "15",
        "state_name": "Burdur",
        "country_id": 225,
        "country_code": "TR",
        "country_name": "Turkey",
        "latitude": "37.45917000",
        "longitude": "30.59500000",
        "timezone": null,
        "wikiDataId": "Q581187"
    },
    {
        "id": 108793,
        "name": "Çavdır",
        "state_id": 2209,
        "state_code": "15",
        "state_name": "Burdur",
        "country_id": 225,
        "country_code": "TR",
        "country_name": "Turkey",
        "latitude": "37.16483000",
        "longitude": "29.69937000",
        "timezone": null,
        "wikiDataId": "Q272692"
    },
    {
        "id": 108817,
        "name": "Çeltikçi",
        "state_id": 2209,
        "state_code": "15",
        "state_name": "Burdur",
        "country_id": 225,
        "country_code": "TR",
        "country_name": "Turkey",
        "latitude": "37.53885000",
        "longitude": "30.46823000",
        "timezone": null,
        "wikiDataId": "Q272779"
    },
    {
        "id": 107695,
        "name": "Gölhisar",
        "state_id": 2209,
        "state_code": "15",
        "state_name": "Burdur",
        "country_id": 225,
        "country_code": "TR",
        "country_name": "Turkey",
        "latitude": "37.14590000",
        "longitude": "29.50876000",
        "timezone": null,
        "wikiDataId": "Q1614572"
    },
    {
        "id": 107906,
        "name": "Karamanlı",
        "state_id": 2209,
        "state_code": "15",
        "state_name": "Burdur",
        "country_id": 225,
        "country_code": "TR",
        "country_name": "Turkey",
        "latitude": "37.37301000",
        "longitude": "29.82308000",
        "timezone": null,
        "wikiDataId": "Q1014443"
    },
    {
        "id": 107977,
        "name": "Kemer",
        "state_id": 2209,
        "state_code": "15",
        "state_name": "Burdur",
        "country_id": 225,
        "country_code": "TR",
        "country_name": "Turkey",
        "latitude": "37.35222000",
        "longitude": "30.06306000",
        "timezone": null,
        "wikiDataId": "Q2527260"
    },
    {
        "id": 108180,
        "name": "Merkez",
        "state_id": 2209,
        "state_code": "15",
        "state_name": "Burdur",
        "country_id": 225,
        "country_code": "TR",
        "country_name": "Turkey",
        "latitude": "37.62762000",
        "longitude": "30.20408000",
        "timezone": null,
        "wikiDataId": "Q3055997"
    },
    {
        "id": 108556,
        "name": "Tefenni",
        "state_id": 2209,
        "state_code": "15",
        "state_name": "Burdur",
        "country_id": 225,
        "country_code": "TR",
        "country_name": "Turkey",
        "latitude": "37.30968000",
        "longitude": "29.77538000",
        "timezone": null,
        "wikiDataId": "Q1023307"
    },
    {
        "id": 108726,
        "name": "Yeşilova",
        "state_id": 2209,
        "state_code": "15",
        "state_name": "Burdur",
        "country_id": 225,
        "country_code": "TR",
        "country_name": "Turkey",
        "latitude": "37.50806000",
        "longitude": "29.75472000",
        "timezone": null,
        "wikiDataId": "Q1004602"
    },
    {
        "id": 107419,
        "name": "Büyükorhan",
        "state_id": 2163,
        "state_code": "16",
        "state_name": "Bursa",
        "country_id": 225,
        "country_code": "TR",
        "country_name": "Turkey",
        "latitude": "39.78223000",
        "longitude": "28.89338000",
        "timezone": null,
        "wikiDataId": "Q2473756"
    },
    {
        "id": 107660,
        "name": "Gemlik",
        "state_id": 2163,
        "state_code": "16",
        "state_name": "Bursa",
        "country_id": 225,
        "country_code": "TR",
        "country_name": "Turkey",
        "latitude": "40.43510000",
        "longitude": "29.14943000",
        "timezone": null,
        "wikiDataId": "Q984701"
    },
    {
        "id": 107756,
        "name": "Gürsu",
        "state_id": 2163,
        "state_code": "16",
        "state_name": "Bursa",
        "country_id": 225,
        "country_code": "TR",
        "country_name": "Turkey",
        "latitude": "40.25498000",
        "longitude": "29.21183000",
        "timezone": null,
        "wikiDataId": "Q2384475"
    },
    {
        "id": 107795,
        "name": "Harmancık",
        "state_id": 2163,
        "state_code": "16",
        "state_name": "Bursa",
        "country_id": 225,
        "country_code": "TR",
        "country_name": "Turkey",
        "latitude": "39.67743000",
        "longitude": "29.15523000",
        "timezone": null,
        "wikiDataId": "Q2671081"
    },
    {
        "id": 108901,
        "name": "İnegöl",
        "state_id": 2163,
        "state_code": "16",
        "state_name": "Bursa",
        "country_id": 225,
        "country_code": "TR",
        "country_name": "Turkey",
        "latitude": "40.07806000",
        "longitude": "29.51333000",
        "timezone": null,
        "wikiDataId": "Q343973"
    },
    {
        "id": 108925,
        "name": "İznik",
        "state_id": 2163,
        "state_code": "16",
        "state_name": "Bursa",
        "country_id": 225,
        "country_code": "TR",
        "country_name": "Turkey",
        "latitude": "40.42861000",
        "longitude": "29.72111000",
        "timezone": null,
        "wikiDataId": "Q739037"
    },
    {
        "id": 107890,
        "name": "Karacabey",
        "state_id": 2163,
        "state_code": "16",
        "state_name": "Bursa",
        "country_id": 225,
        "country_code": "TR",
        "country_name": "Turkey",
        "latitude": "40.21323000",
        "longitude": "28.36120000",
        "timezone": null,
        "wikiDataId": "Q189697"
    },
    {
        "id": 107967,
        "name": "Keles",
        "state_id": 2163,
        "state_code": "16",
        "state_name": "Bursa",
        "country_id": 225,
        "country_code": "TR",
        "country_name": "Turkey",
        "latitude": "39.91361000",
        "longitude": "29.22944000",
        "timezone": null,
        "wikiDataId": "Q1023265"
    },
    {
        "id": 107987,
        "name": "Kestel",
        "state_id": 2163,
        "state_code": "16",
        "state_name": "Bursa",
        "country_id": 225,
        "country_code": "TR",
        "country_name": "Turkey",
        "latitude": "40.19828000",
        "longitude": "29.21237000",
        "timezone": null,
        "wikiDataId": "Q2447988"
    },
    {
        "id": 108217,
        "name": "Mudanya",
        "state_id": 2163,
        "state_code": "16",
        "state_name": "Bursa",
        "country_id": 225,
        "country_code": "TR",
        "country_name": "Turkey",
        "latitude": "40.33342000",
        "longitude": "28.77218000",
        "timezone": null,
        "wikiDataId": "Q924252"
    },
    {
        "id": 108230,
        "name": "Mustafakemalpaşa",
        "state_id": 2163,
        "state_code": "16",
        "state_name": "Bursa",
        "country_id": 225,
        "country_code": "TR",
        "country_name": "Turkey",
        "latitude": "40.03815000",
        "longitude": "28.40866000",
        "timezone": null,
        "wikiDataId": "Q1018542"
    },
    {
        "id": 108249,
        "name": "Nilüfer",
        "state_id": 2163,
        "state_code": "16",
        "state_name": "Bursa",
        "country_id": 225,
        "country_code": "TR",
        "country_name": "Turkey",
        "latitude": "40.21375000",
        "longitude": "28.98464000",
        "timezone": null,
        "wikiDataId": "Q206879"
    },
    {
        "id": 108272,
        "name": "Orhaneli",
        "state_id": 2163,
        "state_code": "16",
        "state_name": "Bursa",
        "country_id": 225,
        "country_code": "TR",
        "country_name": "Turkey",
        "latitude": "39.90333000",
        "longitude": "28.99056000",
        "timezone": null,
        "wikiDataId": "Q184539"
    },
    {
        "id": 108274,
        "name": "Orhangazi",
        "state_id": 2163,
        "state_code": "16",
        "state_name": "Bursa",
        "country_id": 225,
        "country_code": "TR",
        "country_name": "Turkey",
        "latitude": "40.48917000",
        "longitude": "29.30889000",
        "timezone": null,
        "wikiDataId": "Q1948420"
    },
    {
        "id": 108293,
        "name": "Osmangazi",
        "state_id": 2163,
        "state_code": "16",
        "state_name": "Bursa",
        "country_id": 225,
        "country_code": "TR",
        "country_name": "Turkey",
        "latitude": "40.15644000",
        "longitude": "29.08753000",
        "timezone": null,
        "wikiDataId": "Q1023140"
    },
    {
        "id": 108714,
        "name": "Yenişehir",
        "state_id": 2163,
        "state_code": "16",
        "state_name": "Bursa",
        "country_id": 225,
        "country_code": "TR",
        "country_name": "Turkey",
        "latitude": "40.26444000",
        "longitude": "29.65306000",
        "timezone": null,
        "wikiDataId": "Q1782806"
    },
    {
        "id": 108746,
        "name": "Yıldırım",
        "state_id": 2163,
        "state_code": "16",
        "state_name": "Bursa",
        "country_id": 225,
        "country_code": "TR",
        "country_name": "Turkey",
        "latitude": "40.19567000",
        "longitude": "29.03640000",
        "timezone": null,
        "wikiDataId": "Q2598734"
    },
    {
        "id": 107229,
        "name": "Ayvacık",
        "state_id": 2216,
        "state_code": "17",
        "state_name": "Çanakkale",
        "country_id": 225,
        "country_code": "TR",
        "country_name": "Turkey",
        "latitude": "39.60111000",
        "longitude": "26.40472000",
        "timezone": null,
        "wikiDataId": "Q130022"
    },
    {
        "id": 107301,
        "name": "Bayramiç",
        "state_id": 2216,
        "state_code": "17",
        "state_name": "Çanakkale",
        "country_id": 225,
        "country_code": "TR",
        "country_name": "Turkey",
        "latitude": "39.81951000",
        "longitude": "26.62490000",
        "timezone": null,
        "wikiDataId": "Q812617"
    },
    {
        "id": 107353,
        "name": "Biga",
        "state_id": 2216,
        "state_code": "17",
        "state_name": "Çanakkale",
        "country_id": 225,
        "country_code": "TR",
        "country_name": "Turkey",
        "latitude": "40.26921000",
        "longitude": "27.20841000",
        "timezone": null,
        "wikiDataId": "Q854667"
    },
    {
        "id": 107380,
        "name": "Bozcaada",
        "state_id": 2216,
        "state_code": "17",
        "state_name": "Çanakkale",
        "country_id": 225,
        "country_code": "TR",
        "country_name": "Turkey",
        "latitude": "39.82409000",
        "longitude": "26.04069000",
        "timezone": null,
        "wikiDataId": "Q10259759"
    },
    {
        "id": 108773,
        "name": "Çan",
        "state_id": 2216,
        "state_code": "17",
        "state_name": "Çanakkale",
        "country_id": 225,
        "country_code": "TR",
        "country_name": "Turkey",
        "latitude": "40.03328000",
        "longitude": "27.05236000",
        "timezone": null,
        "wikiDataId": "Q2671156"
    },
    {
        "id": 107548,
        "name": "Eceabat",
        "state_id": 2216,
        "state_code": "17",
        "state_name": "Çanakkale",
        "country_id": 225,
        "country_code": "TR",
        "country_name": "Turkey",
        "latitude": "40.18416000",
        "longitude": "26.35740000",
        "timezone": null,
        "wikiDataId": "Q1023153"
    },
    {
        "id": 107623,
        "name": "Ezine",
        "state_id": 2216,
        "state_code": "17",
        "state_name": "Çanakkale",
        "country_id": 225,
        "country_code": "TR",
        "country_name": "Turkey",
        "latitude": "39.78561000",
        "longitude": "26.34083000",
        "timezone": null,
        "wikiDataId": "Q673073"
    },
    {
        "id": 107655,
        "name": "Gelibolu",
        "state_id": 2216,
        "state_code": "17",
        "state_name": "Çanakkale",
        "country_id": 225,
        "country_code": "TR",
        "country_name": "Turkey",
        "latitude": "40.41028000",
        "longitude": "26.67083000",
        "timezone": null,
        "wikiDataId": "Q1499635"
    },
    {
        "id": 107683,
        "name": "Gökçeada",
        "state_id": 2216,
        "state_code": "17",
        "state_name": "Çanakkale",
        "country_id": 225,
        "country_code": "TR",
        "country_name": "Turkey",
        "latitude": "40.16523000",
        "longitude": "25.85907000",
        "timezone": null,
        "wikiDataId": "Q939677"
    },
    {
        "id": 108127,
        "name": "Lapseki",
        "state_id": 2216,
        "state_code": "17",
        "state_name": "Çanakkale",
        "country_id": 225,
        "country_code": "TR",
        "country_name": "Turkey",
        "latitude": "40.34417000",
        "longitude": "26.68556000",
        "timezone": null,
        "wikiDataId": "Q2279679"
    },
    {
        "id": 108193,
        "name": "Merkez",
        "state_id": 2216,
        "state_code": "17",
        "state_name": "Çanakkale",
        "country_id": 225,
        "country_code": "TR",
        "country_name": "Turkey",
        "latitude": "40.05093000",
        "longitude": "26.49489000",
        "timezone": null,
        "wikiDataId": "Q3055997"
    },
    {
        "id": 108691,
        "name": "Yenice",
        "state_id": 2216,
        "state_code": "17",
        "state_name": "Çanakkale",
        "country_id": 225,
        "country_code": "TR",
        "country_name": "Turkey",
        "latitude": "39.93083000",
        "longitude": "27.25806000",
        "timezone": null,
        "wikiDataId": "Q1758492"
    },
    {
        "id": 107208,
        "name": "Atkaracalar",
        "state_id": 2168,
        "state_code": "18",
        "state_name": "Çankırı",
        "country_id": 225,
        "country_code": "TR",
        "country_name": "Turkey",
        "latitude": "40.81593000",
        "longitude": "33.07556000",
        "timezone": null,
        "wikiDataId": "Q753882"
    },
    {
        "id": 107303,
        "name": "Bayramören",
        "state_id": 2168,
        "state_code": "18",
        "state_name": "Çankırı",
        "country_id": 225,
        "country_code": "TR",
        "country_name": "Turkey",
        "latitude": "40.94329000",
        "longitude": "33.20300000",
        "timezone": null,
        "wikiDataId": "Q791567"
    },
    {
        "id": 108820,
        "name": "Çerkeş",
        "state_id": 2168,
        "state_code": "18",
        "state_name": "Çankırı",
        "country_id": 225,
        "country_code": "TR",
        "country_name": "Turkey",
        "latitude": "40.81164000",
        "longitude": "32.89358000",
        "timezone": null,
        "wikiDataId": "Q2619996"
    },
    {
        "id": 107564,
        "name": "Eldivan",
        "state_id": 2168,
        "state_code": "18",
        "state_name": "Çankırı",
        "country_id": 225,
        "country_code": "TR",
        "country_name": "Turkey",
        "latitude": "40.52975000",
        "longitude": "33.49903000",
        "timezone": null,
        "wikiDataId": "Q117181"
    },
    {
        "id": 107844,
        "name": "Ilgaz",
        "state_id": 2168,
        "state_code": "18",
        "state_name": "Çankırı",
        "country_id": 225,
        "country_code": "TR",
        "country_name": "Turkey",
        "latitude": "40.92511000",
        "longitude": "33.62586000",
        "timezone": null,
        "wikiDataId": "Q376139"
    },
    {
        "id": 108122,
        "name": "Kızılırmak",
        "state_id": 2168,
        "state_code": "18",
        "state_name": "Çankırı",
        "country_id": 225,
        "country_code": "TR",
        "country_name": "Turkey",
        "latitude": "40.34556000",
        "longitude": "33.98639000",
        "timezone": null,
        "wikiDataId": "Q693929"
    },
    {
        "id": 108020,
        "name": "Korgun",
        "state_id": 2168,
        "state_code": "18",
        "state_name": "Çankırı",
        "country_id": 225,
        "country_code": "TR",
        "country_name": "Turkey",
        "latitude": "40.73479000",
        "longitude": "33.51844000",
        "timezone": null,
        "wikiDataId": "Q1921284"
    },
    {
        "id": 108060,
        "name": "Kurşunlu",
        "state_id": 2168,
        "state_code": "18",
        "state_name": "Çankırı",
        "country_id": 225,
        "country_code": "TR",
        "country_name": "Turkey",
        "latitude": "40.84101000",
        "longitude": "33.26028000",
        "timezone": null,
        "wikiDataId": "Q1482869"
    },
    {
        "id": 153353,
        "name": "Merkez",
        "state_id": 2168,
        "state_code": "18",
        "state_name": "Çankırı",
        "country_id": 225,
        "country_code": "TR",
        "country_name": "Turkey",
        "latitude": "40.60000000",
        "longitude": "33.61666700",
        "timezone": null,
        "wikiDataId": "Q209925"
    },
    {
        "id": 108276,
        "name": "Orta",
        "state_id": 2168,
        "state_code": "18",
        "state_name": "Çankırı",
        "country_id": 225,
        "country_code": "TR",
        "country_name": "Turkey",
        "latitude": "40.62420000",
        "longitude": "33.10928000",
        "timezone": null,
        "wikiDataId": "Q1948420"
    },
    {
        "id": 108928,
        "name": "Şabanözü",
        "state_id": 2168,
        "state_code": "18",
        "state_name": "Çankırı",
        "country_id": 225,
        "country_code": "TR",
        "country_name": "Turkey",
        "latitude": "40.48333000",
        "longitude": "33.28333000",
        "timezone": null,
        "wikiDataId": "Q739037"
    },
    {
        "id": 108673,
        "name": "Yapraklı",
        "state_id": 2168,
        "state_code": "18",
        "state_name": "Çankırı",
        "country_id": 225,
        "country_code": "TR",
        "country_name": "Turkey",
        "latitude": "40.75785000",
        "longitude": "33.77819000",
        "timezone": null,
        "wikiDataId": "Q178447"
    },
    {
        "id": 107117,
        "name": "Alaca",
        "state_id": 2173,
        "state_code": "19",
        "state_name": "Çorum",
        "country_id": 225,
        "country_code": "TR",
        "country_name": "Turkey",
        "latitude": "40.16833000",
        "longitude": "34.84250000",
        "timezone": null,
        "wikiDataId": "Q2313013"
    },
    {
        "id": 107294,
        "name": "Bayat",
        "state_id": 2173,
        "state_code": "19",
        "state_name": "Çorum",
        "country_id": 225,
        "country_code": "TR",
        "country_name": "Turkey",
        "latitude": "40.64583000",
        "longitude": "34.26139000",
        "timezone": null,
        "wikiDataId": "Q812112"
    },
    {
        "id": 107395,
        "name": "Boğazkale",
        "state_id": 2173,
        "state_code": "19",
        "state_name": "Çorum",
        "country_id": 225,
        "country_code": "TR",
        "country_name": "Turkey",
        "latitude": "40.03031000",
        "longitude": "34.61745000",
        "timezone": null,
        "wikiDataId": "Q848800"
    },
    {
        "id": 107506,
        "name": "Dodurga",
        "state_id": 2173,
        "state_code": "19",
        "state_name": "Çorum",
        "country_id": 225,
        "country_code": "TR",
        "country_name": "Turkey",
        "latitude": "40.85489000",
        "longitude": "34.80703000",
        "timezone": null,
        "wikiDataId": "Q1234499"
    },
    {
        "id": 108915,
        "name": "İskilip",
        "state_id": 2173,
        "state_code": "19",
        "state_name": "Çorum",
        "country_id": 225,
        "country_code": "TR",
        "country_name": "Turkey",
        "latitude": "40.73528000",
        "longitude": "34.47389000",
        "timezone": null,
        "wikiDataId": "Q174341"
    },
    {
        "id": 107924,
        "name": "Kargı",
        "state_id": 2173,
        "state_code": "19",
        "state_name": "Çorum",
        "country_id": 225,
        "country_code": "TR",
        "country_name": "Turkey",
        "latitude": "41.14377000",
        "longitude": "34.49342000",
        "timezone": null,
        "wikiDataId": "Q1023333"
    },
    {
        "id": 108128,
        "name": "Laçin",
        "state_id": 2173,
        "state_code": "19",
        "state_name": "Çorum",
        "country_id": 225,
        "country_code": "TR",
        "country_name": "Turkey",
        "latitude": "40.77486000",
        "longitude": "34.88068000",
        "timezone": null,
        "wikiDataId": "Q2279679"
    },
    {
        "id": 108167,
        "name": "Mecitözü",
        "state_id": 2173,
        "state_code": "19",
        "state_name": "Çorum",
        "country_id": 225,
        "country_code": "TR",
        "country_name": "Turkey",
        "latitude": "40.52000000",
        "longitude": "35.29528000",
        "timezone": null,
        "wikiDataId": "Q1004646"
    },
    {
        "id": 108185,
        "name": "Merkez",
        "state_id": 2173,
        "state_code": "19",
        "state_name": "Çorum",
        "country_id": 225,
        "country_code": "TR",
        "country_name": "Turkey",
        "latitude": "40.50905000",
        "longitude": "34.85791000",
        "timezone": null,
        "wikiDataId": "Q3055997"
    },
    {
        "id": 108305,
        "name": "Oğuzlar",
        "state_id": 2173,
        "state_code": "19",
        "state_name": "Çorum",
        "country_id": 225,
        "country_code": "TR",
        "country_name": "Turkey",
        "latitude": "40.76323000",
        "longitude": "34.70813000",
        "timezone": null,
        "wikiDataId": "Q1022230"
    },