[
    {
        "id": 130110,
        "name": "Municipio Autónomo Alto Orinoco",
        "state_id": 2044,
        "state_code": "Z",
        "state_name": "Amazonas",
        "country_id": 239,
        "country_code": "VE",
        "country_name": "Venezuela",
        "latitude": "2.73456000",
        "longitude": "-64.83032000",
        "timezone": null,
        "wikiDataId": "Q31960357"
    },
    {
        "id": 130131,
        "name": "Puerto Ayacucho",
        "state_id": 2044,
        "state_code": "Z",
        "state_name": "Amazonas",
        "country_id": 239,
        "country_code": "VE",
        "country_name": "Venezuela",
        "latitude": "5.66049000",
        "longitude": "-67.58343000",
        "timezone": null,
        "wikiDataId": "Q372920"
    },
    {
        "id": 130142,
        "name": "San Carlos de Río Negro",
        "state_id": 2044,
        "state_code": "Z",
        "state_name": "Amazonas",
        "country_id": 239,
        "country_code": "VE",
        "country_name": "Venezuela",
        "latitude": "1.92027000",
        "longitude": "-67.06089000",
        "timezone": null,
        "wikiDataId": "Q1269422"
    },
    {
        "id": 130146,
        "name": "San Fernando de Atabapo",
        "state_id": 2044,
        "state_code": "Z",
        "state_name": "Amazonas",
        "country_id": 239,
        "country_code": "VE",
        "country_name": "Venezuela",
        "latitude": "4.04564000",
        "longitude": "-67.69934000",
        "timezone": null,
        "wikiDataId": "Q371223"
    },
    {
        "id": 130149,
        "name": "San Juan de Manapiare",
        "state_id": 2044,
        "state_code": "Z",
        "state_name": "Amazonas",
        "country_id": 239,
        "country_code": "VE",
        "country_name": "Venezuela",
        "latitude": "5.32665000",
        "longitude": "-66.05402000",
        "timezone": null,
        "wikiDataId": "Q1023656"
    },
    {
        "id": 130041,
        "name": "Anaco",
        "state_id": 2050,
        "state_code": "B",
        "state_name": "Anzoátegui",
        "country_id": 239,
        "country_code": "VE",
        "country_name": "Venezuela",
        "latitude": "9.42958000",
        "longitude": "-64.46428000",
        "timezone": null,
        "wikiDataId": "Q1897488"
    },
    {
        "id": 130042,
        "name": "Aragua de Barcelona",
        "state_id": 2050,
        "state_code": "B",
        "state_name": "Anzoátegui",
        "country_id": 239,
        "country_code": "VE",
        "country_name": "Venezuela",
        "latitude": "9.45588000",
        "longitude": "-64.82928000",
        "timezone": null,
        "wikiDataId": "Q2859442"
    },
    {
        "id": 130044,
        "name": "Barcelona",
        "state_id": 2050,
        "state_code": "B",
        "state_name": "Anzoátegui",
        "country_id": 239,
        "country_code": "VE",
        "country_name": "Venezuela",
        "latitude": "10.13625000",
        "longitude": "-64.68618000",
        "timezone": null,
        "wikiDataId": "Q391221"
    },
    {
        "id": 130054,
        "name": "Cantaura",
        "state_id": 2050,
        "state_code": "B",
        "state_name": "Anzoátegui",
        "country_id": 239,
        "country_code": "VE",
        "country_name": "Venezuela",
        "latitude": "9.30571000",
        "longitude": "-64.35841000",
        "timezone": null,
        "wikiDataId": "Q2919593"
    },
    {
        "id": 130078,
        "name": "El Tigre",
        "state_id": 2050,
        "state_code": "B",
        "state_name": "Anzoátegui",
        "country_id": 239,
        "country_code": "VE",
        "country_name": "Venezuela",
        "latitude": "8.88902000",
        "longitude": "-64.25270000",
        "timezone": null,
        "wikiDataId": "Q1020297"
    },
    {
        "id": 130113,
        "name": "Municipio José Gregorio Monagas",
        "state_id": 2050,
        "state_code": "B",
        "state_name": "Anzoátegui",
        "country_id": 239,
        "country_code": "VE",
        "country_name": "Venezuela",
        "latitude": "7.73874000",
        "longitude": "-64.71876000",
        "timezone": null,
        "wikiDataId": "Q2545115"
    },
    {
        "id": 130127,
        "name": "Onoto",
        "state_id": 2050,
        "state_code": "B",
        "state_name": "Anzoátegui",
        "country_id": 239,
        "country_code": "VE",
        "country_name": "Venezuela",
        "latitude": "9.59714000",
        "longitude": "-65.19350000",
        "timezone": null,
        "wikiDataId": "Q3132654"
    },
    {
        "id": 130133,
        "name": "Puerto La Cruz",
        "state_id": 2050,
        "state_code": "B",
        "state_name": "Anzoátegui",
        "country_id": 239,
        "country_code": "VE",
        "country_name": "Venezuela",
        "latitude": "10.21382000",
        "longitude": "-64.63280000",
        "timezone": null,
        "wikiDataId": "Q379509"
    },
    {
        "id": 130134,
        "name": "Puerto Píritu",
        "state_id": 2050,
        "state_code": "B",
        "state_name": "Anzoátegui",
        "country_id": 239,
        "country_code": "VE",
        "country_name": "Venezuela",
        "latitude": "10.05896000",
        "longitude": "-65.03698000",
        "timezone": null,
        "wikiDataId": "Q3132040"
    },
    {
        "id": 130148,
        "name": "San José de Guanipa",
        "state_id": 2050,
        "state_code": "B",
        "state_name": "Anzoátegui",
        "country_id": 239,
        "country_code": "VE",
        "country_name": "Venezuela",
        "latitude": "8.88724000",
        "longitude": "-64.16512000",
        "timezone": null,
        "wikiDataId": "Q3067441"
    },
    {
        "id": 153351,
        "name": "San Fernando de Apure",
        "state_id": 4856,
        "state_code": "C",
        "state_name": "Apure",
        "country_id": 239,
        "country_code": "VE",
        "country_name": "Venezuela",
        "latitude": "7.87266930",
        "longitude": "-67.48193280",
        "timezone": null,
        "wikiDataId": "Q990764"
    },
    {
        "id": 130052,
        "name": "Cagua",
        "state_id": 2047,
        "state_code": "D",
        "state_name": "Aragua",
        "country_id": 239,
        "country_code": "VE",
        "country_name": "Venezuela",
        "latitude": "10.18634000",
        "longitude": "-67.45935000",
        "timezone": null,
        "wikiDataId": "Q979808"
    },
    {
        "id": 130077,
        "name": "El Limón",
        "state_id": 2047,
        "state_code": "D",
        "state_name": "Aragua",
        "country_id": 239,
        "country_code": "VE",
        "country_name": "Venezuela",
        "latitude": "10.30589000",
        "longitude": "-67.63212000",
        "timezone": null,
        "wikiDataId": "Q1324317"
    },
    {
        "id": 130093,
        "name": "La Victoria",
        "state_id": 2047,
        "state_code": "D",
        "state_name": "Aragua",
        "country_id": 239,
        "country_code": "VE",
        "country_name": "Venezuela",
        "latitude": "10.22677000",
        "longitude": "-67.33122000",
        "timezone": null,
        "wikiDataId": "Q590133"
    },
    {
        "id": 130096,
        "name": "Las Tejerías",
        "state_id": 2047,
        "state_code": "D",
        "state_name": "Aragua",
        "country_id": 239,
        "country_code": "VE",
        "country_name": "Venezuela",
        "latitude": "10.25416000",
        "longitude": "-67.17333000",
        "timezone": null,
        "wikiDataId": "Q3218244"
    },
    {
        "id": 130104,
        "name": "Maracay",
        "state_id": 2047,
        "state_code": "D",
        "state_name": "Aragua",
        "country_id": 239,
        "country_code": "VE",
        "country_name": "Venezuela",
        "latitude": "10.23535000",
        "longitude": "-67.59113000",
        "timezone": null,
        "wikiDataId": "Q333928"
    },
    {
        "id": 130128,
        "name": "Palo Negro",
        "state_id": 2047,
        "state_code": "D",
        "state_name": "Aragua",
        "country_id": 239,
        "country_code": "VE",
        "country_name": "Venezuela",
        "latitude": "10.17389000",
        "longitude": "-67.54194000",
        "timezone": null,
        "wikiDataId": "Q3132654"
    },
    {
        "id": 130151,
        "name": "San Mateo",
        "state_id": 2047,
        "state_code": "D",
        "state_name": "Aragua",
        "country_id": 239,
        "country_code": "VE",
        "country_name": "Venezuela",
        "latitude": "10.21302000",
        "longitude": "-67.42365000",
        "timezone": null,
        "wikiDataId": "Q3471566"
    },
    {
        "id": 130153,
        "name": "Santa Rita",
        "state_id": 2047,
        "state_code": "D",
        "state_name": "Aragua",
        "country_id": 239,
        "country_code": "VE",
        "country_name": "Venezuela",
        "latitude": "10.20540000",
        "longitude": "-67.55948000",
        "timezone": null,
        "wikiDataId": "Q1027004"
    },
    {
        "id": 130162,
        "name": "Turmero",
        "state_id": 2047,
        "state_code": "D",
        "state_name": "Aragua",
        "country_id": 239,
        "country_code": "VE",
        "country_name": "Venezuela",
        "latitude": "10.22856000",
        "longitude": "-67.47421000",
        "timezone": null,
        "wikiDataId": "Q997084"
    },
    {
        "id": 130169,
        "name": "Villa de Cura",
        "state_id": 2047,
        "state_code": "D",
        "state_name": "Aragua",
        "country_id": 239,
        "country_code": "VE",
        "country_name": "Venezuela",
        "latitude": "10.03863000",
        "longitude": "-67.48938000",
        "timezone": null,
        "wikiDataId": "Q2721732"
    },
    {
        "id": 130040,
        "name": "Alto Barinas",
        "state_id": 2049,
        "state_code": "E",
        "state_name": "Barinas",
        "country_id": 239,
        "country_code": "VE",
        "country_name": "Venezuela",
        "latitude": "8.59310000",
        "longitude": "-70.22610000",
        "timezone": null,
        "wikiDataId": "Q433758"
    },
    {
        "id": 130045,
        "name": "Barinas",
        "state_id": 2049,
        "state_code": "E",
        "state_name": "Barinas",
        "country_id": 239,
        "country_code": "VE",
        "country_name": "Venezuela",
        "latitude": "8.62261000",
        "longitude": "-70.20749000",
        "timezone": null,
        "wikiDataId": "Q695623"
    },
    {
        "id": 130046,
        "name": "Barinitas",
        "state_id": 2049,
        "state_code": "E",
        "state_name": "Barinas",
        "country_id": 239,
        "country_code": "VE",
        "country_name": "Venezuela",
        "latitude": "8.76171000",
        "longitude": "-70.41199000",
        "timezone": null,
        "wikiDataId": "Q2884528"
    },
    {
        "id": 130111,
        "name": "Municipio Barinas",
        "state_id": 2049,
        "state_code": "E",
        "state_name": "Barinas",
        "country_id": 239,
        "country_code": "VE",
        "country_name": "Venezuela",
        "latitude": "8.61497000",
        "longitude": "-70.19852000",
        "timezone": null,
        "wikiDataId": "Q2884525"
    },
    {
        "id": 130067,
        "name": "Ciudad Bolívar",
        "state_id": 2039,
        "state_code": "F",
        "state_name": "Bolívar",
        "country_id": 239,
        "country_code": "VE",
        "country_name": "Venezuela",
        "latitude": "8.12923000",
        "longitude": "-63.54086000",
        "timezone": null,
        "wikiDataId": "Q26906"
    },
    {
        "id": 130068,
        "name": "Ciudad Guayana",
        "state_id": 2039,
        "state_code": "F",
        "state_name": "Bolívar",
        "country_id": 239,
        "country_code": "VE",
        "country_name": "Venezuela",
        "latitude": "8.35122000",
        "longitude": "-62.64102000",
        "timezone": null,
        "wikiDataId": "Q507080"
    },
    {
        "id": 130119,
        "name": "Municipio Padre Pedro Chien",
        "state_id": 2039,
        "state_code": "F",
        "state_name": "Bolívar",
        "country_id": 239,
        "country_code": "VE",
        "country_name": "Venezuela",
        "latitude": "8.02455000",
        "longitude": "-61.88187000",
        "timezone": null,
        "wikiDataId": "Q535057"
    },
    {
        "id": 130152,
        "name": "Santa Elena de Uairén",
        "state_id": 2039,
        "state_code": "F",
        "state_name": "Bolívar",
        "country_id": 239,
        "country_code": "VE",
        "country_name": "Venezuela",
        "latitude": "4.60226000",
        "longitude": "-61.11025000",
        "timezone": null,
        "wikiDataId": "Q2568748"
    },
    {
        "id": 130164,
        "name": "Upata",
        "state_id": 2039,
        "state_code": "F",
        "state_name": "Bolívar",
        "country_id": 239,
        "country_code": "VE",
        "country_name": "Venezuela",
        "latitude": "8.01620000",
        "longitude": "-62.40561000",
        "timezone": null,
        "wikiDataId": "Q940082"
    },
    {
        "id": 130081,
        "name": "Guacara",
        "state_id": 2040,
        "state_code": "G",
        "state_name": "Carabobo",
        "country_id": 239,
        "country_code": "VE",
        "country_name": "Venezuela",
        "latitude": "10.22609000",
        "longitude": "-67.87700000",
        "timezone": null,
        "wikiDataId": "Q1552562"
    },
    {
        "id": 130085,
        "name": "Güigüe",
        "state_id": 2040,
        "state_code": "G",
        "state_name": "Carabobo",
        "country_id": 239,
        "country_code": "VE",
        "country_name": "Venezuela",
        "latitude": "10.08344000",
        "longitude": "-67.77799000",
        "timezone": null,
        "wikiDataId": "Q1000143"
    },
    {
        "id": 130098,
        "name": "Los Guayos",
        "state_id": 2040,
        "state_code": "G",
        "state_name": "Carabobo",
        "country_id": 239,
        "country_code": "VE",
        "country_name": "Venezuela",
        "latitude": "10.18932000",
        "longitude": "-67.93828000",
        "timezone": null,
        "wikiDataId": "Q1817441"
    },
    {
        "id": 130105,
        "name": "Mariara",
        "state_id": 2040,
        "state_code": "G",
        "state_name": "Carabobo",
        "country_id": 239,
        "country_code": "VE",
        "country_name": "Venezuela",
        "latitude": "10.29532000",
        "longitude": "-67.71770000",
        "timezone": null,
        "wikiDataId": "Q1816684"
    },
    {
        "id": 130108,
        "name": "Morón",
        "state_id": 2040,
        "state_code": "G",
        "state_name": "Carabobo",
        "country_id": 239,
        "country_code": "VE",
        "country_name": "Venezuela",
        "latitude": "10.48715000",
        "longitude": "-68.20078000",
        "timezone": null,
        "wikiDataId": "Q452706"
    },
    {
        "id": 130132,
        "name": "Puerto Cabello",
        "state_id": 2040,
        "state_code": "G",
        "state_name": "Carabobo",
        "country_id": 239,
        "country_code": "VE",
        "country_name": "Venezuela",
        "latitude": "10.47306000",
        "longitude": "-68.01250000",
        "timezone": null,
        "wikiDataId": "Q995695"
    },
    {
        "id": 130147,
        "name": "San Joaquín",
        "state_id": 2040,
        "state_code": "G",
        "state_name": "Carabobo",
        "country_id": 239,
        "country_code": "VE",
        "country_name": "Venezuela",
        "latitude": "10.26061000",
        "longitude": "-67.79348000",
        "timezone": null,
        "wikiDataId": "Q1631420"
    },
    {
        "id": 130156,
        "name": "Tacarigua",
        "state_id": 2040,
        "state_code": "G",
        "state_name": "Carabobo",
        "country_id": 239,
        "country_code": "VE",
        "country_name": "Venezuela",
        "latitude": "10.08621000",
        "longitude": "-67.91982000",
        "timezone": null,
        "wikiDataId": "Q32026586"
    },
    {
        "id": 130158,
        "name": "Tocuyito",
        "state_id": 2040,
        "state_code": "G",
        "state_name": "Carabobo",
        "country_id": 239,
        "country_code": "VE",
        "country_name": "Venezuela",
        "latitude": "10.11347000",
        "longitude": "-68.06783000",
        "timezone": null,
        "wikiDataId": "Q913356"
    },
    {
        "id": 130165,
        "name": "Valencia",
        "state_id": 2040,
        "state_code": "G",
        "state_name": "Carabobo",
        "country_id": 239,
        "country_code": "VE",
        "country_name": "Venezuela",
        "latitude": "10.16202000",
        "longitude": "-68.00765000",
        "timezone": null,
        "wikiDataId": "Q54880"
    },
    {
        "id": 130141,
        "name": "San Carlos",
        "state_id": 2034,
        "state_code": "H",
        "state_name": "Cojedes",
        "country_id": 239,
        "country_code": "VE",
        "country_name": "Venezuela",
        "latitude": "9.66124000",
        "longitude": "-68.58268000",
        "timezone": null,
        "wikiDataId": "Q995718"
    },
    {
        "id": 130157,
        "name": "Tinaquillo",
        "state_id": 2034,
        "state_code": "H",
        "state_name": "Cojedes",
        "country_id": 239,
        "country_code": "VE",
        "country_name": "Venezuela",
        "latitude": "9.91861000",
        "longitude": "-68.30472000",
        "timezone": null,
        "wikiDataId": "Q1517139"
    },
    {
        "id": 130161,
        "name": "Tucupita",
        "state_id": 2051,
        "state_code": "Y",
        "state_name": "Delta Amacuro",
        "country_id": 239,
        "country_code": "VE",
        "country_name": "Venezuela",
        "latitude": "9.05806000",
        "longitude": "-62.05000000",
        "timezone": null,
        "wikiDataId": "Q179007"
    },
    {
        "id": 149261,
        "name": "Caracas",
        "state_id": 4855,
        "state_code": "A",
        "state_name": "Distrito Capital",
        "country_id": 239,
        "country_code": "VE",
        "country_name": "Venezuela",
        "latitude": "10.50000000",
        "longitude": "-66.93333333",
        "timezone": null,
        "wikiDataId": "Q1533"
    },
    {
        "id": 130065,
        "name": "Chichiriviche",
        "state_id": 2035,
        "state_code": "I",
        "state_name": "Falcón",
        "country_id": 239,
        "country_code": "VE",
        "country_name": "Venezuela",
        "latitude": "10.92872000",
        "longitude": "-68.27283000",
        "timezone": null,
        "wikiDataId": "Q2963374"
    },
    {
        "id": 130071,
        "name": "Coro",
        "state_id": 2035,
        "state_code": "I",
        "state_name": "Falcón",
        "country_id": 239,
        "country_code": "VE",
        "country_name": "Venezuela",
        "latitude": "11.40450000",
        "longitude": "-69.67344000",
        "timezone": null,
        "wikiDataId": "Q1134454"
    },
    {
        "id": 130116,
        "name": "Municipio Los Taques",
        "state_id": 2035,
        "state_code": "I",
        "state_name": "Falcón",
        "country_id": 239,
        "country_code": "VE",
        "country_name": "Venezuela",
        "latitude": "11.82308000",
        "longitude": "-70.25353000",
        "timezone": null,
        "wikiDataId": "Q2318412"
    },
    {
        "id": 130118,
        "name": "Municipio Miranda",
        "state_id": 2035,
        "state_code": "I",
        "state_name": "Falcón",
        "country_id": 239,
        "country_code": "VE",
        "country_name": "Venezuela",
        "latitude": "11.31667000",
        "longitude": "-69.86667000",
        "timezone": null,
        "wikiDataId": "Q1910828"
    },
    {
        "id": 130135,
        "name": "Punta Cardón",
        "state_id": 2035,
        "state_code": "I",
        "state_name": "Falcón",
        "country_id": 239,
        "country_code": "VE",
        "country_name": "Venezuela",
        "latitude": "11.65806000",
        "longitude": "-70.21500000",
        "timezone": null,
        "wikiDataId": "Q3132040"
    },
    {
        "id": 130136,
        "name": "Punto Fijo",
        "state_id": 2035,
        "state_code": "I",
        "state_name": "Falcón",
        "country_id": 239,
        "country_code": "VE",
        "country_name": "Venezuela",
        "latitude": "11.69152000",
        "longitude": "-70.19918000",
        "timezone": null,
        "wikiDataId": "Q1020279"
    },
    {
        "id": 130160,
        "name": "Tucacas",
        "state_id": 2035,
        "state_code": "I",
        "state_name": "Falcón",
        "country_id": 239,
        "country_code": "VE",
        "country_name": "Venezuela",
        "latitude": "10.79006000",
        "longitude": "-68.32564000",
        "timezone": null,
        "wikiDataId": "Q2094682"
    },
    {
        "id": 130039,
        "name": "Altagracia de Orituco",
        "state_id": 2045,
        "state_code": "J",
        "state_name": "Guárico",
        "country_id": 239,
        "country_code": "VE",
        "country_name": "Venezuela",
        "latitude": "9.86005000",
        "longitude": "-66.38139000",
        "timezone": null,
        "wikiDataId": "Q433758"
    },
    {
        "id": 130053,
        "name": "Calabozo",
        "state_id": 2045,
        "state_code": "J",
        "state_name": "Guárico",
        "country_id": 239,
        "country_code": "VE",
        "country_name": "Venezuela",
        "latitude": "8.92416000",
        "longitude": "-67.42929000",
        "timezone": null,
        "wikiDataId": "Q1026185"
    },
    {
        "id": 130150,
        "name": "San Juan de los Morros",
        "state_id": 2045,
        "state_code": "J",
        "state_name": "Guárico",
        "country_id": 239,
        "country_code": "VE",
        "country_name": "Venezuela",
        "latitude": "9.91152000",
        "longitude": "-67.35381000",
        "timezone": null,
        "wikiDataId": "Q999117"
    },
    {
        "id": 130167,
        "name": "Valle de La Pascua",
        "state_id": 2045,
        "state_code": "J",
        "state_name": "Guárico",
        "country_id": 239,
        "country_code": "VE",
        "country_name": "Venezuela",
        "latitude": "9.21554000",
        "longitude": "-66.00734000",
        "timezone": null,
        "wikiDataId": "Q1308292"
    },
    {
        "id": 130171,
        "name": "Zaraza",
        "state_id": 2045,
        "state_code": "J",
        "state_name": "Guárico",
        "country_id": 239,
        "country_code": "VE",
        "country_name": "Venezuela",
        "latitude": "9.35029000",
        "longitude": "-65.32452000",
        "timezone": null,
        "wikiDataId": "Q147782"
    },
    {
        "id": 130055,
        "name": "Caraballeda",
        "state_id": 2055,
        "state_code": "X",
        "state_name": "La Guaira",
        "country_id": 239,
        "country_code": "VE",
        "country_name": "Venezuela",
        "latitude": "10.61216000",
        "longitude": "-66.85192000",
        "timezone": null,
        "wikiDataId": "Q2919593"
    },
    {
        "id": 130060,
        "name": "Catia La Mar",
        "state_id": 2055,
        "state_code": "X",
        "state_name": "La Guaira",
        "country_id": 239,
        "country_code": "VE",
        "country_name": "Venezuela",
        "latitude": "10.60545000",
        "longitude": "-67.03238000",
        "timezone": null,
        "wikiDataId": "Q2725457"
    },
    {
        "id": 130092,
        "name": "La Guaira",
        "state_id": 2055,
        "state_code": "X",
        "state_name": "La Guaira",
        "country_id": 239,
        "country_code": "VE",
        "country_name": "Venezuela",
        "latitude": "10.60156000",
        "longitude": "-66.93293000",
        "timezone": null,
        "wikiDataId": "Q873405"
    },
    {
        "id": 130102,
        "name": "Maiquetía",
        "state_id": 2055,
        "state_code": "X",
        "state_name": "La Guaira",
        "country_id": 239,
        "country_code": "VE",
        "country_name": "Venezuela",
        "latitude": "10.59450000",
        "longitude": "-66.95624000",
        "timezone": null,
        "wikiDataId": "Q1677956"
    },
    {
        "id": 130047,
        "name": "Barquisimeto",
        "state_id": 2038,
        "state_code": "K",
        "state_name": "Lara",
        "country_id": 239,
        "country_code": "VE",
        "country_name": "Venezuela",
        "latitude": "10.06470000",
        "longitude": "-69.35703000",
        "timezone": null,
        "wikiDataId": "Q4709"
    },
    {
        "id": 130051,
        "name": "Cabudare",
        "state_id": 2038,
        "state_code": "K",
        "state_name": "Lara",
        "country_id": 239,
        "country_code": "VE",
        "country_name": "Venezuela",
        "latitude": "10.02658000",
        "longitude": "-69.26203000",
        "timezone": null,
        "wikiDataId": "Q580968"
    },
    {
        "id": 130057,
        "name": "Carora",
        "state_id": 2038,
        "state_code": "K",
        "state_name": "Lara",
        "country_id": 239,
        "country_code": "VE",
        "country_name": "Venezuela",
        "latitude": "10.17283000",
        "longitude": "-70.08100000",
        "timezone": null,
        "wikiDataId": "Q1044689"
    },
    {
        "id": 130079,
        "name": "El Tocuyo",
        "state_id": 2038,
        "state_code": "K",
        "state_name": "Lara",
        "country_id": 239,
        "country_code": "VE",
        "country_name": "Venezuela",
        "latitude": "9.78709000",
        "longitude": "-69.79294000",
        "timezone": null,
        "wikiDataId": "Q1324653"
    },
    {
        "id": 130099,
        "name": "Los Rastrojos",
        "state_id": 2038,
        "state_code": "K",
        "state_name": "Lara",
        "country_id": 239,
        "country_code": "VE",
        "country_name": "Venezuela",
        "latitude": "10.02588000",
        "longitude": "-69.24166000",
        "timezone": null,
        "wikiDataId": "Q31943619"
    },
    {
        "id": 130137,
        "name": "Quíbor",
        "state_id": 2038,
        "state_code": "K",
        "state_name": "Lara",
        "country_id": 239,
        "country_code": "VE",
        "country_name": "Venezuela",
        "latitude": "9.92866000",
        "longitude": "-69.62010000",
        "timezone": null,
        "wikiDataId": "Q1021748"
    },
    {
        "id": 130074,
        "name": "Ejido",
        "state_id": 2053,
        "state_code": "L",
        "state_name": "Mérida",
        "country_id": 239,
        "country_code": "VE",
        "country_name": "Venezuela",
        "latitude": "8.54665000",
        "longitude": "-71.24087000",
        "timezone": null,
        "wikiDataId": "Q770309"
    },
    {
        "id": 130080,
        "name": "El Vigía",
        "state_id": 2053,
        "state_code": "L",
        "state_name": "Mérida",
        "country_id": 239,
        "country_code": "VE",
        "country_name": "Venezuela",
        "latitude": "8.61350000",
        "longitude": "-71.65702000",
        "timezone": null,
        "wikiDataId": "Q1324653"
    },
    {
        "id": 130124,
        "name": "Mérida",
        "state_id": 2053,
        "state_code": "L",
        "state_name": "Mérida",
        "country_id": 239,
        "country_code": "VE",
        "country_name": "Venezuela",
        "latitude": "8.58972000",
        "longitude": "-71.15611000",
        "timezone": null,
        "wikiDataId": "Q23551"
    },
    {
        "id": 130109,
        "name": "Mucumpiz",
        "state_id": 2053,
        "state_code": "L",
        "state_name": "Mérida",
        "country_id": 239,
        "country_code": "VE",
        "country_name": "Venezuela",
        "latitude": "8.41667000",
        "longitude": "-71.13333000",
        "timezone": null,
        "wikiDataId": "Q31960357"
    },
    {
        "id": 130115,
        "name": "Municipio Libertador",
        "state_id": 2053,
        "state_code": "L",
        "state_name": "Mérida",
        "country_id": 239,
        "country_code": "VE",
        "country_name": "Venezuela",
        "latitude": "8.33333000",
        "longitude": "-71.11667000",
        "timezone": null,
        "wikiDataId": "Q2207830"
    },
    {
        "id": 130048,
        "name": "Baruta",
        "state_id": 2037,
        "state_code": "M",
        "state_name": "Miranda",
        "country_id": 239,
        "country_code": "VE",
        "country_name": "Venezuela",
        "latitude": "10.43424000",
        "longitude": "-66.87558000",
        "timezone": null,
        "wikiDataId": "Q3071358"
    },
    {
        "id": 130058,
        "name": "Carrizal",
        "state_id": 2037,
        "state_code": "M",
        "state_name": "Miranda",
        "country_id": 239,
        "country_code": "VE",
        "country_name": "Venezuela",
        "latitude": "10.34985000",
        "longitude": "-66.98632000",
        "timezone": null,
        "wikiDataId": "Q1044689"
    },
    {
        "id": 130061,
        "name": "Caucaguita",
        "state_id": 2037,
        "state_code": "M",
        "state_name": "Miranda",
        "country_id": 239,
        "country_code": "VE",
        "country_name": "Venezuela",
        "latitude": "10.35782000",
        "longitude": "-66.80252000",
        "timezone": null,
        "wikiDataId": "Q31890677"
    },
    {
        "id": 130062,
        "name": "Caucagüito",
        "state_id": 2037,
        "state_code": "M",
        "state_name": "Miranda",
        "country_id": 239,
        "country_code": "VE",
        "country_name": "Venezuela",
        "latitude": "10.48666000",
        "longitude": "-66.73799000",
        "timezone": null,
        "wikiDataId": "Q31890677"
    },
    {
        "id": 130063,
        "name": "Chacao",
        "state_id": 2037,
        "state_code": "M",
        "state_name": "Miranda",
        "country_id": 239,
        "country_code": "VE",
        "country_name": "Venezuela",
        "latitude": "10.49581000",
        "longitude": "-66.85367000",
        "timezone": null,
        "wikiDataId": "Q374734"
    },
    {
        "id": 130064,
        "name": "Charallave",
        "state_id": 2037,
        "state_code": "M",
        "state_name": "Miranda",
        "country_id": 239,
        "country_code": "VE",
        "country_name": "Venezuela",
        "latitude": "10.24247000",
        "longitude": "-66.85723000",
        "timezone": null,
        "wikiDataId": "Q163464"
    },
    {
        "id": 130073,
        "name": "Cúa",
        "state_id": 2037,
        "state_code": "M",
        "state_name": "Miranda",
        "country_id": 239,
        "country_code": "VE",
        "country_name": "Venezuela",
        "latitude": "10.16245000",
        "longitude": "-66.88248000",
        "timezone": null,
        "wikiDataId": "Q770309"
    },
    {
        "id": 130075,
        "name": "El Cafetal",
        "state_id": 2037,
        "state_code": "M",
        "state_name": "Miranda",
        "country_id": 239,
        "country_code": "VE",
        "country_name": "Venezuela",
        "latitude": "10.46541000",
        "longitude": "-66.82951000",
        "timezone": null,
        "wikiDataId": "Q770309"
    },
    {
        "id": 130076,
        "name": "El Hatillo",
        "state_id": 2037,
        "state_code": "M",
        "state_name": "Miranda",
        "country_id": 239,
        "country_code": "VE",
        "country_name": "Venezuela",
        "latitude": "10.42411000",
        "longitude": "-66.82581000",
        "timezone": null,
        "wikiDataId": "Q975765"
    },
    {
        "id": 130083,
        "name": "Guarenas",
        "state_id": 2037,
        "state_code": "M",
        "state_name": "Miranda",
        "country_id": 239,
        "country_code": "VE",
        "country_name": "Venezuela",
        "latitude": "10.47027000",
        "longitude": "-66.61934000",
        "timezone": null,
        "wikiDataId": "Q996478"
    },
    {
        "id": 130084,
        "name": "Guatire",
        "state_id": 2037,
        "state_code": "M",
        "state_name": "Miranda",
        "country_id": 239,
        "country_code": "VE",
        "country_name": "Venezuela",
        "latitude": "10.47400000",
        "longitude": "-66.54241000",
        "timezone": null,
        "wikiDataId": "Q1026987"
    },
    {
        "id": 130089,
        "name": "La Dolorita",
        "state_id": 2037,
        "state_code": "M",
        "state_name": "Miranda",
        "country_id": 239,
        "country_code": "VE",
        "country_name": "Venezuela",
        "latitude": "10.48830000",
        "longitude": "-66.78608000",
        "timezone": null,
        "wikiDataId": "Q3131511"
    },
    {
        "id": 130097,
        "name": "Los Dos Caminos",
        "state_id": 2037,
        "state_code": "M",
        "state_name": "Miranda",
        "country_id": 239,
        "country_code": "VE",
        "country_name": "Venezuela",
        "latitude": "10.49389000",
        "longitude": "-66.82863000",
        "timezone": null,
        "wikiDataId": "Q5411186"
    },
    {
        "id": 130100,
        "name": "Los Teques",
        "state_id": 2037,
        "state_code": "M",
        "state_name": "Miranda",
        "country_id": 239,
        "country_code": "VE",
        "country_name": "Venezuela",
        "latitude": "10.34447000",
        "longitude": "-67.04325000",
        "timezone": null,
        "wikiDataId": "Q695631"
    },
    {
        "id": 130126,
        "name": "Ocumare del Tuy",
        "state_id": 2037,
        "state_code": "M",
        "state_name": "Miranda",
        "country_id": 239,
        "country_code": "VE",
        "country_name": "Venezuela",
        "latitude": "10.11820000",
        "longitude": "-66.77513000",
        "timezone": null,
        "wikiDataId": "Q1972757"
    },
    {
        "id": 130129,
        "name": "Petare",
        "state_id": 2037,
        "state_code": "M",
        "state_name": "Miranda",
        "country_id": 239,
        "country_code": "VE",
        "country_name": "Venezuela",
        "latitude": "10.47679000",
        "longitude": "-66.80786000",
        "timezone": null,
        "wikiDataId": "Q983946"
    },
    {
        "id": 130139,
        "name": "San Antonio de Los Altos",
        "state_id": 2037,
        "state_code": "M",
        "state_name": "Miranda",
        "country_id": 239,
        "country_code": "VE",
        "country_name": "Venezuela",
        "latitude": "10.38853000",
        "longitude": "-66.95179000",
        "timezone": null,
        "wikiDataId": "Q2895437"
    },
    {
        "id": 130155,
        "name": "Santa Teresa del Tuy",
        "state_id": 2037,
        "state_code": "M",
        "state_name": "Miranda",
        "country_id": 239,
        "country_code": "VE",
        "country_name": "Venezuela",
        "latitude": "10.23291000",
        "longitude": "-66.66474000",
        "timezone": null,
        "wikiDataId": "Q1390081"
    },
    {
        "id": 130056,
        "name": "Caripito",
        "state_id": 2054,
        "state_code": "N",
        "state_name": "Monagas",
        "country_id": 239,
        "country_code": "VE",
        "country_name": "Venezuela",
        "latitude": "10.11135000",
        "longitude": "-63.09985000",
        "timezone": null,
        "wikiDataId": "Q2938844"
    },
    {
        "id": 130107,
        "name": "Maturín",
        "state_id": 2054,
        "state_code": "N",
        "state_name": "Monagas",
        "country_id": 239,
        "country_code": "VE",
        "country_name": "Venezuela",
        "latitude": "9.74569000",
        "longitude": "-63.18323000",
        "timezone": null,
        "wikiDataId": "Q842779"
    },
    {
        "id": 130117,
        "name": "Municipio Maturín",
        "state_id": 2054,
        "state_code": "N",
        "state_name": "Monagas",
        "country_id": 239,
        "country_code": "VE",
        "country_name": "Venezuela",
        "latitude": "9.40000000",
        "longitude": "-63.03333000",
        "timezone": null,
        "wikiDataId": "Q3300002"
    },
    {
        "id": 130122,
        "name": "Municipio Uracoa",
        "state_id": 2054,
        "state_code": "N",
        "state_name": "Monagas",
        "country_id": 239,
        "country_code": "VE",
        "country_name": "Venezuela",
        "latitude": "8.99960000",
        "longitude": "-62.35164000",
        "timezone": null,
        "wikiDataId": "Q2635968"
    },
    {
        "id": 130087,
        "name": "Juan Griego",
        "state_id": 2052,
        "state_code": "O",
        "state_name": "Nueva Esparta",
        "country_id": 239,
        "country_code": "VE",
        "country_name": "Venezuela",
        "latitude": "11.08172000",
        "longitude": "-63.96549000",
        "timezone": null,
        "wikiDataId": "Q3131511"
    },
    {
        "id": 130088,
        "name": "La Asunción",
        "state_id": 2052,
        "state_code": "O",
        "state_name": "Nueva Esparta",
        "country_id": 239,
        "country_code": "VE",
        "country_name": "Venezuela",
        "latitude": "11.03333000",
        "longitude": "-63.86278000",
        "timezone": null,
        "wikiDataId": "Q3131511"
    },
    {
        "id": 130130,
        "name": "Porlamar",
        "state_id": 2052,
        "state_code": "O",
        "state_name": "Nueva Esparta",
        "country_id": 239,
        "country_code": "VE",
        "country_name": "Venezuela",
        "latitude": "10.95771000",
        "longitude": "-63.86971000",
        "timezone": null,
        "wikiDataId": "Q953449"
    },
    {
        "id": 130038,
        "name": "Acarigua",
        "state_id": 2036,
        "state_code": "P",
        "state_name": "Portuguesa",
        "country_id": 239,
        "country_code": "VE",
        "country_name": "Venezuela",
        "latitude": "9.55451000",
        "longitude": "-69.19564000",
        "timezone": null,
        "wikiDataId": "Q338059"
    },
    {
        "id": 130043,
        "name": "Araure",
        "state_id": 2036,
        "state_code": "P",
        "state_name": "Portuguesa",
        "country_id": 239,
        "country_code": "VE",
        "country_name": "Venezuela",
        "latitude": "9.58144000",
        "longitude": "-69.23851000",
        "timezone": null,
        "wikiDataId": "Q626670"
    },
    {
        "id": 130082,
        "name": "Guanare",
        "state_id": 2036,
        "state_code": "P",
        "state_name": "Portuguesa",
        "country_id": 239,
        "country_code": "VE",
        "country_name": "Venezuela",
        "latitude": "9.04183000",
        "longitude": "-69.74206000",
        "timezone": null,
        "wikiDataId": "Q733005"
    },
    {
        "id": 130168,
        "name": "Villa Bruzual",
        "state_id": 2036,
        "state_code": "P",
        "state_name": "Portuguesa",
        "country_id": 239,
        "country_code": "VE",
        "country_name": "Venezuela",
        "latitude": "9.33186000",
        "longitude": "-69.11968000",
        "timezone": null,
        "wikiDataId": "Q430981"
    },
    {
        "id": 130059,
        "name": "Carúpano",
        "state_id": 2056,
        "state_code": "R",
        "state_name": "Sucre",
        "country_id": 239,
        "country_code": "VE",
        "country_name": "Venezuela",
        "latitude": "10.66516000",
        "longitude": "-63.25387000",
        "timezone": null,
        "wikiDataId": "Q153511"
    },
    {
        "id": 130072,
        "name": "Cumaná",
        "state_id": 2056,
        "state_code": "R",
        "state_name": "Sucre",
        "country_id": 239,
        "country_code": "VE",
        "country_name": "Venezuela",
        "latitude": "10.45397000",
        "longitude": "-64.18256000",
        "timezone": null,
        "wikiDataId": "Q1134454"
    },
    {
        "id": 130086,
        "name": "Güiria",
        "state_id": 2056,
        "state_code": "R",
        "state_name": "Sucre",
        "country_id": 239,
        "country_code": "VE",
        "country_name": "Venezuela",
        "latitude": "10.57721000",
        "longitude": "-62.29841000",
        "timezone": null,
        "wikiDataId": "Q1000143"
    },
    {
        "id": 130123,
        "name": "Municipio Valdez",
        "state_id": 2056,
        "state_code": "R",
        "state_name": "Sucre",
        "country_id": 239,
        "country_code": "VE",
        "country_name": "Venezuela",
        "latitude": "10.57945000",
        "longitude": "-62.30029000",
        "timezone": null,
        "wikiDataId": "Q2230534"
    },
    {
        "id": 130070,
        "name": "Colón",
        "state_id": 2048,
        "state_code": "S",
        "state_name": "Táchira",
        "country_id": 239,
        "country_code": "VE",
        "country_name": "Venezuela",
        "latitude": "8.03125000",
        "longitude": "-72.26053000",
        "timezone": null,
        "wikiDataId": "Q3072164"
    },
    {
        "id": 130090,
        "name": "La Fría",
        "state_id": 2048,
        "state_code": "S",
        "state_name": "Táchira",
        "country_id": 239,
        "country_code": "VE",
        "country_name": "Venezuela",
        "latitude": "8.21523000",
        "longitude": "-72.24888000",
        "timezone": null,
        "wikiDataId": "Q525112"
    },
    {
        "id": 130091,
        "name": "La Grita",
        "state_id": 2048,
        "state_code": "S",
        "state_name": "Táchira",
        "country_id": 239,
        "country_code": "VE",
        "country_name": "Venezuela",
        "latitude": "8.13316000",
        "longitude": "-71.98390000",
        "timezone": null,
        "wikiDataId": "Q3134346"
    },
    {
        "id": 130114,
        "name": "Municipio José María Vargas",
        "state_id": 2048,
        "state_code": "S",
        "state_name": "Táchira",
        "country_id": 239,
        "country_code": "VE",
        "country_name": "Venezuela",
        "latitude": "8.03514000",
        "longitude": "-72.05675000",
        "timezone": null,
        "wikiDataId": "Q2545115"
    },
    {
        "id": 130138,
        "name": "Rubio",
        "state_id": 2048,
        "state_code": "S",
        "state_name": "Táchira",
        "country_id": 239,
        "country_code": "VE",
        "country_name": "Venezuela",
        "latitude": "7.70131000",
        "longitude": "-72.35569000",
        "timezone": null,
        "wikiDataId": "Q1002638"
    },
    {
        "id": 130140,
        "name": "San Antonio del Táchira",
        "state_id": 2048,
        "state_code": "S",
        "state_name": "Táchira",
        "country_id": 239,
        "country_code": "VE",
        "country_name": "Venezuela",
        "latitude": "7.81454000",
        "longitude": "-72.44310000",
        "timezone": null,
        "wikiDataId": "Q2602785"
    },
    {
        "id": 130144,
        "name": "San Cristóbal",
        "state_id": 2048,
        "state_code": "S",
        "state_name": "Táchira",
        "country_id": 239,
        "country_code": "VE",
        "country_name": "Venezuela",
        "latitude": "7.76694000",
        "longitude": "-72.22500000",
        "timezone": null,
        "wikiDataId": "Q820235"
    },
    {
        "id": 130163,
        "name": "Táriba",
        "state_id": 2048,
        "state_code": "S",
        "state_name": "Táchira",
        "country_id": 239,
        "country_code": "VE",
        "country_name": "Venezuela",
        "latitude": "7.81880000",
        "longitude": "-72.22427000",
        "timezone": null,
        "wikiDataId": "Q167974"
    },
    {
        "id": 130049,
        "name": "Boconó",
        "state_id": 2043,
        "state_code": "T",
        "state_name": "Trujillo",
        "country_id": 239,
        "country_code": "VE",
        "country_name": "Venezuela",
        "latitude": "9.25385000",
        "longitude": "-70.25105000",
        "timezone": null,
        "wikiDataId": "Q889344"
    },
    {
        "id": 130120,
        "name": "Municipio Pampanito",
        "state_id": 2043,
        "state_code": "T",
        "state_name": "Trujillo",
        "country_id": 239,
        "country_code": "VE",
        "country_name": "Venezuela",
        "latitude": "9.41147000",
        "longitude": "-70.49592000",
        "timezone": null,
        "wikiDataId": "Q2596580"
    },
    {
        "id": 130121,
        "name": "Municipio San Rafael de Carvajal",
        "state_id": 2043,
        "state_code": "T",
        "state_name": "Trujillo",
        "country_id": 239,
        "country_code": "VE",
        "country_name": "Venezuela",
        "latitude": "9.30756000",
        "longitude": "-70.58965000",
        "timezone": null,
        "wikiDataId": "Q1905292"
    },
    {
        "id": 130159,
        "name": "Trujillo",
        "state_id": 2043,
        "state_code": "T",
        "state_name": "Trujillo",
        "country_id": 239,
        "country_code": "VE",
        "country_name": "Venezuela",
        "latitude": "9.36583000",
        "longitude": "-70.43694000",
        "timezone": null,
        "wikiDataId": "Q1020535"
    },
    {
        "id": 130166,
        "name": "Valera",
        "state_id": 2043,
        "state_code": "T",
        "state_name": "Trujillo",
        "country_id": 239,
        "country_code": "VE",
        "country_name": "Venezuela",
        "latitude": "9.31778000",
        "longitude": "-70.60361000",
        "timezone": null,
        "wikiDataId": "Q1010367"
    },
    {
        "id": 130066,
        "name": "Chivacoa",
        "state_id": 2041,
        "state_code": "U",
        "state_name": "Yaracuy",
        "country_id": 239,
        "country_code": "VE",
        "country_name": "Venezuela",
        "latitude": "10.15951000",
        "longitude": "-68.89453000",
        "timezone": null,
        "wikiDataId": "Q3499515"
    },
    {
        "id": 130112,
        "name": "Municipio Independencia",
        "state_id": 2041,
        "state_code": "U",
        "state_name": "Yaracuy",
        "country_id": 239,
        "country_code": "VE",
        "country_name": "Venezuela",
        "latitude": "10.33472000",
        "longitude": "-68.75555000",
        "timezone": null,
        "wikiDataId": "Q2884525"
    },
    {
        "id": 130125,
        "name": "Nirgua",
        "state_id": 2041,
        "state_code": "U",
        "state_name": "Yaracuy",
        "country_id": 239,
        "country_code": "VE",
        "country_name": "Venezuela",
        "latitude": "10.15039000",
        "longitude": "-68.56478000",
        "timezone": null,
        "wikiDataId": "Q1409152"
    },
    {
        "id": 130145,
        "name": "San Felipe",
        "state_id": 2041,
        "state_code": "U",
        "state_name": "Yaracuy",
        "country_id": 239,
        "country_code": "VE",
        "country_name": "Venezuela",
        "latitude": "10.33991000",
        "longitude": "-68.74247000",
        "timezone": null,
        "wikiDataId": "Q965754"
    },
    {
        "id": 130170,
        "name": "Yaritagua",
        "state_id": 2041,
        "state_code": "U",
        "state_name": "Yaracuy",
        "country_id": 239,
        "country_code": "VE",
        "country_name": "Venezuela",
        "latitude": "10.08081000",
        "longitude": "-69.12420000",
        "timezone": null,
        "wikiDataId": "Q1023493"
    },
    {
        "id": 130050,
        "name": "Cabimas",
        "state_id": 2042,
        "state_code": "V",
        "state_name": "Zulia",
        "country_id": 239,
        "country_code": "VE",
        "country_name": "Venezuela",
        "latitude": "10.39907000",
        "longitude": "-71.45206000",
        "timezone": null,
        "wikiDataId": "Q723588"
    },
    {
        "id": 130069,
        "name": "Ciudad Ojeda",
        "state_id": 2042,
        "state_code": "V",
        "state_name": "Zulia",
        "country_id": 239,
        "country_code": "VE",
        "country_name": "Venezuela",
        "latitude": "10.20161000",
        "longitude": "-71.31480000",
        "timezone": null,
        "wikiDataId": "Q953490"
    },
    {
        "id": 130094,
        "name": "La Villa del Rosario",
        "state_id": 2042,
        "state_code": "V",
        "state_name": "Zulia",
        "country_id": 239,
        "country_code": "VE",
        "country_name": "Venezuela",
        "latitude": "10.32580000",
        "longitude": "-72.31343000",
        "timezone": null,
        "wikiDataId": "Q5410028"
    },
    {
        "id": 130095,
        "name": "Lagunillas",
        "state_id": 2042,
        "state_code": "V",
        "state_name": "Zulia",
        "country_id": 239,
        "country_code": "VE",
        "country_name": "Venezuela",
        "latitude": "10.13008000",
        "longitude": "-71.25946000",
        "timezone": null,
        "wikiDataId": "Q5410028"
    },
    {
        "id": 130101,
        "name": "Machiques",
        "state_id": 2042,
        "state_code": "V",
        "state_name": "Zulia",
        "country_id": 239,
        "country_code": "VE",
        "country_name": "Venezuela",
        "latitude": "10.06077000",
        "longitude": "-72.55212000",
        "timezone": null,
        "wikiDataId": "Q3236167"
    },
    {
        "id": 130103,
        "name": "Maracaibo",
        "state_id": 2042,
        "state_code": "V",
        "state_name": "Zulia",
        "country_id": 239,
        "country_code": "VE",
        "country_name": "Venezuela",
        "latitude": "10.66663000",
        "longitude": "-71.61245000",
        "timezone": null,
        "wikiDataId": "Q171632"
    },
    {
        "id": 130143,
        "name": "San Carlos del Zulia",
        "state_id": 2042,
        "state_code": "V",
        "state_name": "Zulia",
        "country_id": 239,
        "country_code": "VE",
        "country_name": "Venezuela",
        "latitude": "9.00098000",
        "longitude": "-71.92683000",
        "timezone": null,
        "wikiDataId": "Q1005022"
    },
    {
        "id": 130154,
        "name": "Santa Rita",
        "state_id": 2042,
        "state_code": "V",
        "state_name": "Zulia",
        "country_id": 239,
        "country_code": "VE",
        "country_name": "Venezuela",
        "latitude": "10.53642000",
        "longitude": "-71.51104000",
        "timezone": null,
        "wikiDataId": "Q1027004"
    }
]