[
    {
        "id": 149574,
        "name": "East End",
        "state_id": 5074,
        "state_code": "SC",
        "state_name": "Saint Croix",
        "country_id": 242,
        "country_code": "VI",
        "country_name": "Virgin Islands (US)",
        "latitude": "17.75238820",
        "longitude": "-64.67030100",
        "timezone": null,
        "wikiDataId": "Q31912954"
    },
    {
        "id": 149575,
        "name": "Frederiksted",
        "state_id": 5074,
        "state_code": "SC",
        "state_name": "Saint Croix",
        "country_id": 242,
        "country_code": "VI",
        "country_name": "Virgin Islands (US)",
        "latitude": "17.71246910",
        "longitude": "-64.88671920",
        "timezone": null,
        "wikiDataId": "Q692376"
    },
    {
        "id": 149572,
        "name": "Good Hope",
        "state_id": 5074,
        "state_code": "SC",
        "state_name": "Saint Croix",
        "country_id": 242,
        "country_code": "VI",
        "country_name": "Virgin Islands (US)",
        "latitude": "17.72234420",
        "longitude": "-64.71724940",
        "timezone": null,
        "wikiDataId": "Q5582660"
    },
    {
        "id": 149576,
        "name": "Northcentral",
        "state_id": 5074,
        "state_code": "SC",
        "state_name": "Saint Croix",
        "country_id": 242,
        "country_code": "VI",
        "country_name": "Virgin Islands (US)",
        "latitude": "17.75011450",
        "longitude": "-64.82384910",
        "timezone": null,
        "wikiDataId": "Q31972154"
    },
    {
        "id": 149577,
        "name": "Northwest",
        "state_id": 5074,
        "state_code": "SC",
        "state_name": "Saint Croix",
        "country_id": 242,
        "country_code": "VI",
        "country_name": "Virgin Islands (US)",
        "latitude": "17.73827820",
        "longitude": "-64.89063470",
        "timezone": null,
        "wikiDataId": "Q11114344"
    },
    {
        "id": 149578,
        "name": "Sion Farm",
        "state_id": 5074,
        "state_code": "SC",
        "state_name": "Saint Croix",
        "country_id": 242,
        "country_code": "VI",
        "country_name": "Virgin Islands (US)",
        "latitude": "17.75432760",
        "longitude": "-64.77946110",
        "timezone": null,
        "wikiDataId": "Q7525354"
    },
    {
        "id": 149579,
        "name": "Southcentral",
        "state_id": 5074,
        "state_code": "SC",
        "state_name": "Saint Croix",
        "country_id": 242,
        "country_code": "VI",
        "country_name": "Virgin Islands (US)",
        "latitude": "17.70649170",
        "longitude": "-64.81448650",
        "timezone": null,
        "wikiDataId": "Q2304377"
    },
    {
        "id": 149580,
        "name": "Southwest",
        "state_id": 5074,
        "state_code": "SC",
        "state_name": "Saint Croix",
        "country_id": 242,
        "country_code": "VI",
        "country_name": "Virgin Islands (US)",
        "latitude": "17.69177870",
        "longitude": "-64.93559390",
        "timezone": null,
        "wikiDataId": "Q11114344"
    },
    {
        "id": 149568,
        "name": "Central",
        "state_id": 5073,
        "state_code": "SJ",
        "state_name": "Saint John",
        "country_id": 242,
        "country_code": "VI",
        "country_name": "Virgin Islands (US)",
        "latitude": "18.33568380",
        "longitude": "-64.79470780",
        "timezone": null,
        "wikiDataId": "Q65041148"
    },
    {
        "id": 149569,
        "name": "Coral Bay",
        "state_id": 5073,
        "state_code": "SJ",
        "state_name": "Saint John",
        "country_id": 242,
        "country_code": "VI",
        "country_name": "Virgin Islands (US)",
        "latitude": "18.34800890",
        "longitude": "-64.72196820",
        "timezone": null,
        "wikiDataId": "Q31908423"
    },
    {
        "id": 149570,
        "name": "Cruz Bay",
        "state_id": 5073,
        "state_code": "SJ",
        "state_name": "Saint John",
        "country_id": 242,
        "country_code": "VI",
        "country_name": "Virgin Islands (US)",
        "latitude": "18.31820370",
        "longitude": "-64.80242110",
        "timezone": null,
        "wikiDataId": "Q31908720"
    },
    {
        "id": 149571,
        "name": "East End",
        "state_id": 5073,
        "state_code": "SJ",
        "state_name": "Saint John",
        "country_id": 242,
        "country_code": "VI",
        "country_name": "Virgin Islands (US)",
        "latitude": "18.34036470",
        "longitude": "-64.68062660",
        "timezone": null,
        "wikiDataId": "Q31912957"
    },
    {
        "id": 149561,
        "name": "Charlotte Amalie",
        "state_id": 5072,
        "state_code": "ST",
        "state_name": "Saint Thomas",
        "country_id": 242,
        "country_code": "VI",
        "country_name": "Virgin Islands (US)",
        "latitude": "18.34127610",
        "longitude": "-64.94838690",
        "timezone": null,
        "wikiDataId": "Q51681"
    },
    {
        "id": 149562,
        "name": "East End",
        "state_id": 5072,
        "state_code": "ST",
        "state_name": "Saint Thomas",
        "country_id": 242,
        "country_code": "VI",
        "country_name": "Virgin Islands (US)",
        "latitude": "18.32901620",
        "longitude": "-64.87047310",
        "timezone": null,
        "wikiDataId": "Q20828420"
    },
    {
        "id": 149563,
        "name": "Northside",
        "state_id": 5072,
        "state_code": "ST",
        "state_name": "Saint Thomas",
        "country_id": 242,
        "country_code": "VI",
        "country_name": "Virgin Islands (US)",
        "latitude": "18.37380810",
        "longitude": "-64.95589090",
        "timezone": null,
        "wikiDataId": "Q20828411"
    },
    {
        "id": 149564,
        "name": "Southside",
        "state_id": 5072,
        "state_code": "ST",
        "state_name": "Saint Thomas",
        "country_id": 242,
        "country_code": "VI",
        "country_name": "Virgin Islands (US)",
        "latitude": "18.30529120",
        "longitude": "-64.91724450",
        "timezone": null,
        "wikiDataId": "Q32023170"
    },
    {
        "id": 149565,
        "name": "Tutu",
        "state_id": 5072,
        "state_code": "ST",
        "state_name": "Saint Thomas",
        "country_id": 242,
        "country_code": "VI",
        "country_name": "Virgin Islands (US)",
        "latitude": "18.33884270",
        "longitude": "-64.89530720",
        "timezone": null,
        "wikiDataId": "Q7857046"
    },
    {
        "id": 149566,
        "name": "Water Island",
        "state_id": 5072,
        "state_code": "ST",
        "state_name": "Saint Thomas",
        "country_id": 242,
        "country_code": "VI",
        "country_name": "Virgin Islands (US)",
        "latitude": "18.32086530",
        "longitude": "-64.96932630",
        "timezone": null,
        "wikiDataId": "Q679803"
    },
    {
        "id": 149567,
        "name": "West End",
        "state_id": 5072,
        "state_code": "ST",
        "state_name": "Saint Thomas",
        "country_id": 242,
        "country_code": "VI",
        "country_name": "Virgin Islands (US)",
        "latitude": "18.37243670",
        "longitude": "-65.06490130",
        "timezone": null,
        "wikiDataId": "Q20828416"
    }
]