[
    {
        "id": 130199,
        "name": "Dương Đông",
        "state_id": 3794,
        "state_code": "44",
        "state_name": "An Giang",
        "country_id": 240,
        "country_code": "VN",
        "country_name": "Vietnam",
        "latitude": "10.21716000",
        "longitude": "103.95929000",
        "timezone": null,
        "wikiDataId": "Q3277075"
    },
    {
        "id": 130556,
        "name": "Hà Tiên",
        "state_id": 3794,
        "state_code": "44",
        "state_name": "An Giang",
        "country_id": 240,
        "country_code": "VN",
        "country_name": "Vietnam",
        "latitude": "10.38310000",
        "longitude": "104.48753000",
        "timezone": null,
        "wikiDataId": "Q800154"
    },
    {
        "id": 130208,
        "name": "Huyện An Biên",
        "state_id": 3794,
        "state_code": "44",
        "state_name": "An Giang",
        "country_id": 240,
        "country_code": "VN",
        "country_name": "Vietnam",
        "latitude": "9.81291000",
        "longitude": "105.05230000",
        "timezone": null,
        "wikiDataId": "Q724711"
    },
    {
        "id": 130210,
        "name": "Huyện An Minh",
        "state_id": 3794,
        "state_code": "44",
        "state_name": "An Giang",
        "country_id": 240,
        "country_code": "VN",
        "country_name": "Vietnam",
        "latitude": "9.66704000",
        "longitude": "104.94848000",
        "timezone": null,
        "wikiDataId": "Q724711"
    },
    {
        "id": 130211,
        "name": "Huyện An Phú",
        "state_id": 3794,
        "state_code": "44",
        "state_name": "An Giang",
        "country_id": 240,
        "country_code": "VN",
        "country_name": "Vietnam",
        "latitude": "10.84274000",
        "longitude": "105.08990000",
        "timezone": null,
        "wikiDataId": "Q2414515"
    },
    {
        "id": 130248,
        "name": "Huyện Châu Phú",
        "state_id": 3794,
        "state_code": "44",
        "state_name": "An Giang",
        "country_id": 240,
        "country_code": "VN",
        "country_name": "Vietnam",
        "latitude": "10.57166000",
        "longitude": "105.16991000",
        "timezone": null,
        "wikiDataId": "Q2232482"
    },
    {
        "id": 130249,
        "name": "Huyện Châu Thành",
        "state_id": 3794,
        "state_code": "44",
        "state_name": "An Giang",
        "country_id": 240,
        "country_code": "VN",
        "country_name": "Vietnam",
        "latitude": "9.94372000",
        "longitude": "105.16868000",
        "timezone": null,
        "wikiDataId": "Q2232482"
    },
    {
        "id": 130262,
        "name": "Huyện Chợ Mới",
        "state_id": 3794,
        "state_code": "44",
        "state_name": "An Giang",
        "country_id": 240,
        "country_code": "VN",
        "country_name": "Vietnam",
        "latitude": "10.47730000",
        "longitude": "105.49092000",
        "timezone": null,
        "wikiDataId": "Q1927073"
    },
    {
        "id": 130290,
        "name": "Huyện Giồng Riềng",
        "state_id": 3794,
        "state_code": "44",
        "state_name": "An Giang",
        "country_id": 240,
        "country_code": "VN",
        "country_name": "Vietnam",
        "latitude": "9.91224000",
        "longitude": "105.37311000",
        "timezone": null,
        "wikiDataId": "Q3031261"
    },
    {
        "id": 130295,
        "name": "Huyện Gò Quao",
        "state_id": 3794,
        "state_code": "44",
        "state_name": "An Giang",
        "country_id": 240,
        "country_code": "VN",
        "country_name": "Vietnam",
        "latitude": "9.74027000",
        "longitude": "105.29766000",
        "timezone": null,
        "wikiDataId": "Q3710927"
    },
    {
        "id": 130307,
        "name": "Huyện Hòn Đất",
        "state_id": 3794,
        "state_code": "44",
        "state_name": "An Giang",
        "country_id": 240,
        "country_code": "VN",
        "country_name": "Vietnam",
        "latitude": "10.22908000",
        "longitude": "104.95280000",
        "timezone": null,
        "wikiDataId": "Q5874252"
    },
    {
        "id": 130330,
        "name": "Huyện Kiên Hải",
        "state_id": 3794,
        "state_code": "44",
        "state_name": "An Giang",
        "country_id": 240,
        "country_code": "VN",
        "country_name": "Vietnam",
        "latitude": "9.83971000",
        "longitude": "104.61560000",
        "timezone": null,
        "wikiDataId": "Q3031344"
    },
    {
        "id": 130400,
        "name": "Huyện Phú Quốc",
        "state_id": 3794,
        "state_code": "44",
        "state_name": "An Giang",
        "country_id": 240,
        "country_code": "VN",
        "country_name": "Vietnam",
        "latitude": "10.25516000",
        "longitude": "104.01455000",
        "timezone": null,
        "wikiDataId": "Q724739"
    },
    {
        "id": 130401,
        "name": "Huyện Phú Tân",
        "state_id": 3794,
        "state_code": "44",
        "state_name": "An Giang",
        "country_id": 240,
        "country_code": "VN",
        "country_name": "Vietnam",
        "latitude": "10.65716000",
        "longitude": "105.28459000",
        "timezone": null,
        "wikiDataId": "Q1319796"
    },
    {
        "id": 130481,
        "name": "Huyện Tân Hiệp",
        "state_id": 3794,
        "state_code": "44",
        "state_name": "An Giang",
        "country_id": 240,
        "country_code": "VN",
        "country_name": "Vietnam",
        "latitude": "10.09540000",
        "longitude": "105.25936000",
        "timezone": null,
        "wikiDataId": "Q3711512"
    },
    {
        "id": 130461,
        "name": "Huyện Tri Tôn",
        "state_id": 3794,
        "state_code": "44",
        "state_name": "An Giang",
        "country_id": 240,
        "country_code": "VN",
        "country_name": "Vietnam",
        "latitude": "10.41416000",
        "longitude": "104.96136000",
        "timezone": null,
        "wikiDataId": "Q1320227"
    },
    {
        "id": 130502,
        "name": "Huyện Vĩnh Thuận",
        "state_id": 3794,
        "state_code": "44",
        "state_name": "An Giang",
        "country_id": 240,
        "country_code": "VN",
        "country_name": "Vietnam",
        "latitude": "9.53306000",
        "longitude": "105.24490000",
        "timezone": null,
        "wikiDataId": "Q7932536"
    },
    {
        "id": 130564,
        "name": "Kien Luong Town",
        "state_id": 3794,
        "state_code": "44",
        "state_name": "An Giang",
        "country_id": 240,
        "country_code": "VN",
        "country_name": "Vietnam",
        "latitude": "10.24892000",
        "longitude": "104.59000000",
        "timezone": null,
        "wikiDataId": "Q36160"
    },
    {
        "id": 130569,
        "name": "Long Xuyên",
        "state_id": 3794,
        "state_code": "44",
        "state_name": "An Giang",
        "country_id": 240,
        "country_code": "VN",
        "country_name": "Vietnam",
        "latitude": "10.38639000",
        "longitude": "105.43518000",
        "timezone": null,
        "wikiDataId": "Q31942265"
    },
    {
        "id": 130588,
        "name": "Rạch Giá",
        "state_id": 3794,
        "state_code": "44",
        "state_name": "An Giang",
        "country_id": 240,
        "country_code": "VN",
        "country_name": "Vietnam",
        "latitude": "10.01245000",
        "longitude": "105.08091000",
        "timezone": null,
        "wikiDataId": "Q36093"
    },
    {
        "id": 130177,
        "name": "Bắc Giang",
        "state_id": 3791,
        "state_code": "56",
        "state_name": "Bắc Ninh",
        "country_id": 240,
        "country_code": "VN",
        "country_name": "Vietnam",
        "latitude": "21.27307000",
        "longitude": "106.19460000",
        "timezone": null,
        "wikiDataId": "Q36736"
    },
    {
        "id": 130179,
        "name": "Bắc Ninh",
        "state_id": 3791,
        "state_code": "56",
        "state_name": "Bắc Ninh",
        "country_id": 240,
        "country_code": "VN",
        "country_name": "Vietnam",
        "latitude": "21.18608000",
        "longitude": "106.07631000",
        "timezone": null,
        "wikiDataId": "Q33381"
    },
    {
        "id": 130186,
        "name": "Cung Kiệm",
        "state_id": 3791,
        "state_code": "56",
        "state_name": "Bắc Ninh",
        "country_id": 240,
        "country_code": "VN",
        "country_name": "Vietnam",
        "latitude": "21.18697000",
        "longitude": "106.16076000",
        "timezone": null,
        "wikiDataId": "Q373214"
    },
    {
        "id": 130285,
        "name": "Huyện Gia Bình",
        "state_id": 3791,
        "state_code": "56",
        "state_name": "Bắc Ninh",
        "country_id": 240,
        "country_code": "VN",
        "country_name": "Vietnam",
        "latitude": "21.07795000",
        "longitude": "106.20903000",
        "timezone": null,
        "wikiDataId": "Q3031197"
    },
    {
        "id": 130353,
        "name": "Huyện Lục Nam",
        "state_id": 3791,
        "state_code": "56",
        "state_name": "Bắc Ninh",
        "country_id": 240,
        "country_code": "VN",
        "country_name": "Vietnam",
        "latitude": "21.27548000",
        "longitude": "106.46519000",
        "timezone": null,
        "wikiDataId": "Q1924548"
    },
    {
        "id": 130354,
        "name": "Huyện Lục Ngạn",
        "state_id": 3791,
        "state_code": "56",
        "state_name": "Bắc Ninh",
        "country_id": 240,
        "country_code": "VN",
        "country_name": "Vietnam",
        "latitude": "21.43719000",
        "longitude": "106.65845000",
        "timezone": null,
        "wikiDataId": "Q2226906"
    },
    {
        "id": 130441,
        "name": "Huyện Thuận Thành",
        "state_id": 3791,
        "state_code": "56",
        "state_name": "Bắc Ninh",
        "country_id": 240,
        "country_code": "VN",
        "country_name": "Vietnam",
        "latitude": "21.04085000",
        "longitude": "106.07515000",
        "timezone": null,
        "wikiDataId": "Q3711534"
    },
    {
        "id": 130455,
        "name": "Huyện Tiên Du",
        "state_id": 3791,
        "state_code": "56",
        "state_name": "Bắc Ninh",
        "country_id": 240,
        "country_code": "VN",
        "country_name": "Vietnam",
        "latitude": "21.12195000",
        "longitude": "106.03995000",
        "timezone": null,
        "wikiDataId": "Q3711538"
    },
    {
        "id": 130518,
        "name": "Huyện Yên Phong",
        "state_id": 3791,
        "state_code": "56",
        "state_name": "Bắc Ninh",
        "country_id": 240,
        "country_code": "VN",
        "country_name": "Vietnam",
        "latitude": "21.20676000",
        "longitude": "105.99427000",
        "timezone": null,
        "wikiDataId": "Q800053"
    },
    {
        "id": 130521,
        "name": "Huyện Yên Thế",
        "state_id": 3791,
        "state_code": "56",
        "state_name": "Bắc Ninh",
        "country_id": 240,
        "country_code": "VN",
        "country_name": "Vietnam",
        "latitude": "21.51667000",
        "longitude": "106.11689000",
        "timezone": null,
        "wikiDataId": "Q1924620"
    },
    {
        "id": 130175,
        "name": "Bạc Liêu",
        "state_id": 3778,
        "state_code": "59",
        "state_name": "Cà Mau",
        "country_id": 240,
        "country_code": "VN",
        "country_name": "Vietnam",
        "latitude": "9.29414000",
        "longitude": "105.72776000",
        "timezone": null,
        "wikiDataId": "Q36142"
    },
    {
        "id": 130187,
        "name": "Cà Mau",
        "state_id": 3778,
        "state_code": "59",
        "state_name": "Cà Mau",
        "country_id": 240,
        "country_code": "VN",
        "country_name": "Vietnam",
        "latitude": "9.17682000",
        "longitude": "105.15242000",
        "timezone": null,
        "wikiDataId": "Q25262"
    },
    {
        "id": 130267,
        "name": "Huyện Cái Nước",
        "state_id": 3778,
        "state_code": "59",
        "state_name": "Cà Mau",
        "country_id": 240,
        "country_code": "VN",
        "country_name": "Vietnam",
        "latitude": "9.00094000",
        "longitude": "105.04201000",
        "timezone": null,
        "wikiDataId": "Q800052"
    },
    {
        "id": 130540,
        "name": "Huyện Đầm Dơi",
        "state_id": 3778,
        "state_code": "59",
        "state_name": "Cà Mau",
        "country_id": 240,
        "country_code": "VN",
        "country_name": "Vietnam",
        "latitude": "8.96029000",
        "longitude": "105.24107000",
        "timezone": null,
        "wikiDataId": "Q3593897"
    },
    {
        "id": 130289,
        "name": "Huyện Giá Rai",
        "state_id": 3778,
        "state_code": "59",
        "state_name": "Cà Mau",
        "country_id": 240,
        "country_code": "VN",
        "country_name": "Vietnam",
        "latitude": "9.27162000",
        "longitude": "105.40017000",
        "timezone": null,
        "wikiDataId": "Q3031261"
    },
    {
        "id": 130318,
        "name": "Huyện Hồng Dân",
        "state_id": 3778,
        "state_code": "59",
        "state_name": "Cà Mau",
        "country_id": 240,
        "country_code": "VN",
        "country_name": "Vietnam",
        "latitude": "9.53822000",
        "longitude": "105.42242000",
        "timezone": null,
        "wikiDataId": "Q5942590"
    },
    {
        "id": 130204,
        "name": "Huyen Nam Can",
        "state_id": 3778,
        "state_code": "59",
        "state_name": "Cà Mau",
        "country_id": 240,
        "country_code": "VN",
        "country_name": "Vietnam",
        "latitude": "8.81531000",
        "longitude": "105.05574000",
        "timezone": null,
        "wikiDataId": "Q724711"
    },
    {
        "id": 130453,
        "name": "Huyện Thới Bình",
        "state_id": 3778,
        "state_code": "59",
        "state_name": "Cà Mau",
        "country_id": 240,
        "country_code": "VN",
        "country_name": "Vietnam",
        "latitude": "9.35790000",
        "longitude": "105.16023000",
        "timezone": null,
        "wikiDataId": "Q7786654"
    },
    {
        "id": 148322,
        "name": "Cần Thơ",
        "state_id": 4925,
        "state_code": "CT",
        "state_name": "Cần Thơ",
        "country_id": 240,
        "country_code": "VN",
        "country_name": "Vietnam",
        "latitude": "10.11667000",
        "longitude": "105.50000000",
        "timezone": null,
        "wikiDataId": "Q216075"
    },
    {
        "id": 148323,
        "name": "Cờ Đỏ",
        "state_id": 4925,
        "state_code": "CT",
        "state_name": "Cần Thơ",
        "country_id": 240,
        "country_code": "VN",
        "country_name": "Vietnam",
        "latitude": "10.09472222",
        "longitude": "105.43194444",
        "timezone": null,
        "wikiDataId": "Q10752716"
    },
    {
        "id": 130254,
        "name": "Huyện Châu Thành A",
        "state_id": 4925,
        "state_code": "CT",
        "state_name": "Cần Thơ",
        "country_id": 240,
        "country_code": "VN",
        "country_name": "Vietnam",
        "latitude": "9.93056000",
        "longitude": "105.64194000",
        "timezone": null,
        "wikiDataId": "Q3710806"
    },
    {
        "id": 130336,
        "name": "Huyện Kế Sách",
        "state_id": 4925,
        "state_code": "CT",
        "state_name": "Cần Thơ",
        "country_id": 240,
        "country_code": "VN",
        "country_name": "Vietnam",
        "latitude": "9.81771000",
        "longitude": "105.94190000",
        "timezone": null,
        "wikiDataId": "Q6405298"
    },
    {
        "id": 130343,
        "name": "Huyện Long Phú",
        "state_id": 4925,
        "state_code": "CT",
        "state_name": "Cần Thơ",
        "country_id": 240,
        "country_code": "VN",
        "country_name": "Vietnam",
        "latitude": "9.63715000",
        "longitude": "106.08226000",
        "timezone": null,
        "wikiDataId": "Q3711115"
    },
    {
        "id": 130371,
        "name": "Huyện Mỹ Tú",
        "state_id": 4925,
        "state_code": "CT",
        "state_name": "Cần Thơ",
        "country_id": 240,
        "country_code": "VN",
        "country_name": "Vietnam",
        "latitude": "9.60849000",
        "longitude": "105.80681000",
        "timezone": null,
        "wikiDataId": "Q10796264"
    },
    {
        "id": 130372,
        "name": "Huyện Mỹ Xuyên",
        "state_id": 4925,
        "state_code": "CT",
        "state_name": "Cần Thơ",
        "country_id": 240,
        "country_code": "VN",
        "country_name": "Vietnam",
        "latitude": "9.44200000",
        "longitude": "105.88546000",
        "timezone": null,
        "wikiDataId": "Q10796264"
    },
    {
        "id": 130205,
        "name": "Huyen Nga Nam",
        "state_id": 4925,
        "state_code": "CT",
        "state_name": "Cần Thơ",
        "country_id": 240,
        "country_code": "VN",
        "country_name": "Vietnam",
        "latitude": "9.56127000",
        "longitude": "105.59476000",
        "timezone": null,
        "wikiDataId": "Q724711"
    },
    {
        "id": 130450,
        "name": "Huyện Thạnh Trị",
        "state_id": 4925,
        "state_code": "CT",
        "state_name": "Cần Thơ",
        "country_id": 240,
        "country_code": "VN",
        "country_name": "Vietnam",
        "latitude": "9.46939000",
        "longitude": "105.71196000",
        "timezone": null,
        "wikiDataId": "Q3711530"
    },
    {
        "id": 130592,
        "name": "Sóc Trăng",
        "state_id": 4925,
        "state_code": "CT",
        "state_name": "Cần Thơ",
        "country_id": 240,
        "country_code": "VN",
        "country_name": "Vietnam",
        "latitude": "9.59995000",
        "longitude": "105.97193000",
        "timezone": null,
        "wikiDataId": "Q33418"
    },
    {
        "id": 148324,
        "name": "Thới Lai",
        "state_id": 4925,
        "state_code": "CT",
        "state_name": "Cần Thơ",
        "country_id": 240,
        "country_code": "VN",
        "country_name": "Vietnam",
        "latitude": "10.06305556",
        "longitude": "105.56083333",
        "timezone": null,
        "wikiDataId": "Q10826644"
    },
    {
        "id": 130627,
        "name": "Vị Thanh",
        "state_id": 4925,
        "state_code": "CT",
        "state_name": "Cần Thơ",
        "country_id": 240,
        "country_code": "VN",
        "country_name": "Vietnam",
        "latitude": "9.78449000",
        "longitude": "105.47012000",
        "timezone": null,
        "wikiDataId": "Q36114"
    },
    {
        "id": 148325,
        "name": "Vĩnh Thạnh",
        "state_id": 4925,
        "state_code": "CT",
        "state_name": "Cần Thơ",
        "country_id": 240,
        "country_code": "VN",
        "country_name": "Vietnam",
        "latitude": "10.21916667",
        "longitude": "105.40111111",
        "timezone": null,
        "wikiDataId": "Q10833701"
    },
    {
        "id": 130183,
        "name": "Cao Bằng",
        "state_id": 3782,
        "state_code": "04",
        "state_name": "Cao Bằng",
        "country_id": 240,
        "country_code": "VN",
        "country_name": "Vietnam",
        "latitude": "22.66568000",
        "longitude": "106.25786000",
        "timezone": null,
        "wikiDataId": "Q1034096"
    },
    {
        "id": 130229,
        "name": "Huyện Bảo Lac",
        "state_id": 3782,
        "state_code": "04",
        "state_name": "Cao Bằng",
        "country_id": 240,
        "country_code": "VN",
        "country_name": "Vietnam",
        "latitude": "22.90085000",
        "longitude": "105.73332000",
        "timezone": null,
        "wikiDataId": "Q3710674"
    },
    {
        "id": 130231,
        "name": "Huyện Bảo Lâm",
        "state_id": 3782,
        "state_code": "04",
        "state_name": "Cao Bằng",
        "country_id": 240,
        "country_code": "VN",
        "country_name": "Vietnam",
        "latitude": "22.87041000",
        "longitude": "105.48780000",
        "timezone": null,
        "wikiDataId": "Q3710674"
    },
    {
        "id": 130313,
        "name": "Huyện Hạ Lang",
        "state_id": 3782,
        "state_code": "04",
        "state_name": "Cao Bằng",
        "country_id": 240,
        "country_code": "VN",
        "country_name": "Vietnam",
        "latitude": "22.70933000",
        "longitude": "106.67657000",
        "timezone": null,
        "wikiDataId": "Q5942590"
    },
    {
        "id": 130300,
        "name": "Huyện Hà Quảng",
        "state_id": 3782,
        "state_code": "04",
        "state_name": "Cao Bằng",
        "country_id": 240,
        "country_code": "VN",
        "country_name": "Vietnam",
        "latitude": "22.90763000",
        "longitude": "106.12487000",
        "timezone": null,
        "wikiDataId": "Q3710927"
    },
    {
        "id": 130386,
        "name": "Huyện Nguyên Bình",
        "state_id": 3782,
        "state_code": "04",
        "state_name": "Cao Bằng",
        "country_id": 240,
        "country_code": "VN",
        "country_name": "Vietnam",
        "latitude": "22.62400000",
        "longitude": "105.93248000",
        "timezone": null,
        "wikiDataId": "Q3031601"
    },
    {
        "id": 130206,
        "name": "Huyen Phuc Hoa",
        "state_id": 3782,
        "state_code": "04",
        "state_name": "Cao Bằng",
        "country_id": 240,
        "country_code": "VN",
        "country_name": "Vietnam",
        "latitude": "22.53840000",
        "longitude": "106.51039000",
        "timezone": null,
        "wikiDataId": "Q724711"
    },
    {
        "id": 130446,
        "name": "Huyện Thạch An",
        "state_id": 3782,
        "state_code": "04",
        "state_name": "Cao Bằng",
        "country_id": 240,
        "country_code": "VN",
        "country_name": "Vietnam",
        "latitude": "22.47654000",
        "longitude": "106.34237000",
        "timezone": null,
        "wikiDataId": "Q3711534"
    },
    {
        "id": 130444,
        "name": "Huyện Thông Nông",
        "state_id": 3782,
        "state_code": "04",
        "state_name": "Cao Bằng",
        "country_id": 240,
        "country_code": "VN",
        "country_name": "Vietnam",
        "latitude": "22.80735000",
        "longitude": "105.95846000",
        "timezone": null,
        "wikiDataId": "Q3711534"
    },
    {
        "id": 130466,
        "name": "Huyện Trà Lĩnh",
        "state_id": 3782,
        "state_code": "04",
        "state_name": "Cao Bằng",
        "country_id": 240,
        "country_code": "VN",
        "country_name": "Vietnam",
        "latitude": "22.80961000",
        "longitude": "106.32543000",
        "timezone": null,
        "wikiDataId": "Q7831038"
    },
    {
        "id": 130469,
        "name": "Huyện Trùng Khánh",
        "state_id": 3782,
        "state_code": "04",
        "state_name": "Cao Bằng",
        "country_id": 240,
        "country_code": "VN",
        "country_name": "Vietnam",
        "latitude": "22.83333000",
        "longitude": "106.56074000",
        "timezone": null,
        "wikiDataId": "Q7831038"
    },
    {
        "id": 130195,
        "name": "Da Nang",
        "state_id": 3806,
        "state_code": "DN",
        "state_name": "Đà Nẵng",
        "country_id": 240,
        "country_code": "VN",
        "country_name": "Vietnam",
        "latitude": "16.06778000",
        "longitude": "108.22083000",
        "timezone": null,
        "wikiDataId": "Q55963184"
    },
    {
        "id": 130563,
        "name": "Hội An",
        "state_id": 3806,
        "state_code": "DN",
        "state_name": "Đà Nẵng",
        "country_id": 240,
        "country_code": "VN",
        "country_name": "Vietnam",
        "latitude": "15.87944000",
        "longitude": "108.33500000",
        "timezone": null,
        "wikiDataId": "Q36160"
    },
    {
        "id": 130281,
        "name": "Huyện Duy Xuyên",
        "state_id": 3806,
        "state_code": "DN",
        "state_name": "Đà Nẵng",
        "country_id": 240,
        "country_code": "VN",
        "country_name": "Vietnam",
        "latitude": "15.78970000",
        "longitude": "108.20247000",
        "timezone": null,
        "wikiDataId": "Q3031197"
    },
    {
        "id": 130538,
        "name": "Huyện Đại Lộc",
        "state_id": 3806,
        "state_code": "DN",
        "state_name": "Đà Nẵng",
        "country_id": 240,
        "country_code": "VN",
        "country_name": "Vietnam",
        "latitude": "15.83721000",
        "longitude": "107.97894000",
        "timezone": null,
        "wikiDataId": "Q5295738"
    },
    {
        "id": 130529,
        "name": "Huyện Điện Bàn",
        "state_id": 3806,
        "state_code": "DN",
        "state_name": "Đà Nẵng",
        "country_id": 240,
        "country_code": "VN",
        "country_name": "Vietnam",
        "latitude": "15.89917000",
        "longitude": "108.22470000",
        "timezone": null,
        "wikiDataId": "Q5295738"
    },
    {
        "id": 130296,
        "name": "Huyện Hiệp Đức",
        "state_id": 3806,
        "state_code": "DN",
        "state_name": "Đà Nẵng",
        "country_id": 240,
        "country_code": "VN",
        "country_name": "Vietnam",
        "latitude": "15.53857000",
        "longitude": "108.09539000",
        "timezone": null,
        "wikiDataId": "Q3710927"
    },
    {
        "id": 130375,
        "name": "Huyện Nam Giang",
        "state_id": 3806,
        "state_code": "DN",
        "state_name": "Đà Nẵng",
        "country_id": 240,
        "country_code": "VN",
        "country_name": "Vietnam",
        "latitude": "15.63201000",
        "longitude": "107.60267000",
        "timezone": null,
        "wikiDataId": "Q3711221"
    },
    {
        "id": 130394,
        "name": "Huyện Núi Thành",
        "state_id": 3806,
        "state_code": "DN",
        "state_name": "Đà Nẵng",
        "country_id": 240,
        "country_code": "VN",
        "country_name": "Vietnam",
        "latitude": "15.43345000",
        "longitude": "108.57438000",
        "timezone": null,
        "wikiDataId": "Q724739"
    },
    {
        "id": 130403,
        "name": "Huyện Phước Sơn",
        "state_id": 3806,
        "state_code": "DN",
        "state_name": "Đà Nẵng",
        "country_id": 240,
        "country_code": "VN",
        "country_name": "Vietnam",
        "latitude": "15.38806000",
        "longitude": "107.85766000",
        "timezone": null,
        "wikiDataId": "Q3091652"
    },
    {
        "id": 130457,
        "name": "Huyện Tiên Phước",
        "state_id": 3806,
        "state_code": "DN",
        "state_name": "Đà Nẵng",
        "country_id": 240,
        "country_code": "VN",
        "country_name": "Vietnam",
        "latitude": "15.47090000",
        "longitude": "108.28257000",
        "timezone": null,
        "wikiDataId": "Q3711538"
    },
    {
        "id": 130467,
        "name": "Huyện Trà My",
        "state_id": 3806,
        "state_code": "DN",
        "state_name": "Đà Nẵng",
        "country_id": 240,
        "country_code": "VN",
        "country_name": "Vietnam",
        "latitude": "15.25000000",
        "longitude": "108.08333000",
        "timezone": null,
        "wikiDataId": "Q7831038"
    },
    {
        "id": 130596,
        "name": "Tam Kỳ",
        "state_id": 3806,
        "state_code": "DN",
        "state_name": "Đà Nẵng",
        "country_id": 240,
        "country_code": "VN",
        "country_name": "Vietnam",
        "latitude": "15.57364000",
        "longitude": "108.47403000",
        "timezone": null,
        "wikiDataId": "Q1365138"
    },
    {
        "id": 130173,
        "name": "Buôn Ma Thuột",
        "state_id": 3829,
        "state_code": "33",
        "state_name": "Đắk Lắk",
        "country_id": 240,
        "country_code": "VN",
        "country_name": "Vietnam",
        "latitude": "12.66747000",
        "longitude": "108.03775000",
        "timezone": null,
        "wikiDataId": "Q33469"
    },
    {
        "id": 130217,
        "name": "Huyện Buôn Đôn",
        "state_id": 3829,
        "state_code": "33",
        "state_name": "Đắk Lắk",
        "country_id": 240,
        "country_code": "VN",
        "country_name": "Vietnam",
        "latitude": "12.90396000",
        "longitude": "107.73870000",
        "timezone": null,
        "wikiDataId": "Q3710671"
    },
    {
        "id": 130283,
        "name": "Huyện Ea H'Leo",
        "state_id": 3829,
        "state_code": "33",
        "state_name": "Đắk Lắk",
        "country_id": 240,
        "country_code": "VN",
        "country_name": "Vietnam",
        "latitude": "13.31814000",
        "longitude": "108.07148000",
        "timezone": null,
        "wikiDataId": "Q3031197"
    },
    {
        "id": 130284,
        "name": "Huyện Ea Súp",
        "state_id": 3829,
        "state_code": "33",
        "state_name": "Đắk Lắk",
        "country_id": 240,
        "country_code": "VN",
        "country_name": "Vietnam",
        "latitude": "13.18279000",
        "longitude": "107.79954000",
        "timezone": null,
        "wikiDataId": "Q3031197"
    },
    {
        "id": 130425,
        "name": "Huyện Sơn Hòa",
        "state_id": 3829,
        "state_code": "33",
        "state_name": "Đắk Lắk",
        "country_id": 240,
        "country_code": "VN",
        "country_name": "Vietnam",
        "latitude": "13.15868000",
        "longitude": "108.97281000",
        "timezone": null,
        "wikiDataId": "Q3711485"
    },
    {
        "id": 130421,
        "name": "Huyện Sông Hinh",
        "state_id": 3829,
        "state_code": "33",
        "state_name": "Đắk Lắk",
        "country_id": 240,
        "country_code": "VN",
        "country_name": "Vietnam",
        "latitude": "12.91667000",
        "longitude": "108.91667000",
        "timezone": null,
        "wikiDataId": "Q7395483"
    },
    {
        "id": 130593,
        "name": "Sông Cầu",
        "state_id": 3829,
        "state_code": "33",
        "state_name": "Đắk Lắk",
        "country_id": 240,
        "country_code": "VN",
        "country_name": "Vietnam",
        "latitude": "13.45560000",
        "longitude": "109.22348000",
        "timezone": null,
        "wikiDataId": "Q33418"
    },
    {
        "id": 130618,
        "name": "Tuy Hòa",
        "state_id": 3829,
        "state_code": "33",
        "state_name": "Đắk Lắk",
        "country_id": 240,
        "country_code": "VN",
        "country_name": "Vietnam",
        "latitude": "13.09546000",
        "longitude": "109.32094000",
        "timezone": null,
        "wikiDataId": "Q35747"
    },
    {
        "id": 130196,
        "name": "Dien Bien Phu",
        "state_id": 3773,
        "state_code": "71",
        "state_name": "Điện Biên",
        "country_id": 240,
        "country_code": "VN",
        "country_name": "Vietnam",
        "latitude": "21.38602000",
        "longitude": "103.02301000",
        "timezone": null,
        "wikiDataId": "Q36027"
    },
    {
        "id": 130528,
        "name": "Huyện Điện Biên Đông",
        "state_id": 3773,
        "state_code": "71",
        "state_name": "Điện Biên",
        "country_id": 240,
        "country_code": "VN",
        "country_name": "Vietnam",
        "latitude": "21.25266000",
        "longitude": "103.26900000",
        "timezone": null,
        "wikiDataId": "Q5295738"
    },
    {
        "id": 130365,
        "name": "Huyện Mường Nhé",
        "state_id": 3773,
        "state_code": "71",
        "state_name": "Điện Biên",
        "country_id": 240,
        "country_code": "VN",
        "country_name": "Vietnam",
        "latitude": "22.10353000",
        "longitude": "102.58465000",
        "timezone": null,
        "wikiDataId": "Q10796264"
    },
    {
        "id": 130493,
        "name": "Huyện Tủa Chùa",
        "state_id": 3773,
        "state_code": "71",
        "state_name": "Điện Biên",
        "country_id": 240,
        "country_code": "VN",
        "country_name": "Vietnam",
        "latitude": "21.95357000",
        "longitude": "103.37332000",
        "timezone": null,
        "wikiDataId": "Q7484836"
    },
    {
        "id": 130478,
        "name": "Huyện Tuần Giáo",
        "state_id": 3773,
        "state_code": "71",
        "state_name": "Điện Biên",
        "country_id": 240,
        "country_code": "VN",
        "country_name": "Vietnam",
        "latitude": "21.69481000",
        "longitude": "103.41758000",
        "timezone": null,
        "wikiDataId": "Q2232329"
    },
    {
        "id": 130611,
        "name": "Thị Xã Mưòng Lay",
        "state_id": 3773,
        "state_code": "71",
        "state_name": "Điện Biên",
        "country_id": 240,
        "country_code": "VN",
        "country_name": "Vietnam",
        "latitude": "22.03374000",
        "longitude": "103.12331000",
        "timezone": null,
        "wikiDataId": "Q3031171"
    },
    {
        "id": 130172,
        "name": "Biên Hòa",
        "state_id": 3821,
        "state_code": "39",
        "state_name": "Đồng Nai",
        "country_id": 240,
        "country_code": "VN",
        "country_name": "Vietnam",
        "latitude": "10.94469000",
        "longitude": "106.82432000",
        "timezone": null,
        "wikiDataId": "Q19316"
    },
    {
        "id": 130174,
        "name": "Bình Long",
        "state_id": 3821,
        "state_code": "39",
        "state_name": "Đồng Nai",
        "country_id": 240,
        "country_code": "VN",
        "country_name": "Vietnam",
        "latitude": "11.64711000",
        "longitude": "106.60586000",
        "timezone": null,
        "wikiDataId": "Q33469"
    },
    {
        "id": 130197,
        "name": "Don Luan",
        "state_id": 3821,
        "state_code": "39",
        "state_name": "Đồng Nai",
        "country_id": 240,
        "country_code": "VN",
        "country_name": "Vietnam",
        "latitude": "11.53495000",
        "longitude": "106.88324000",
        "timezone": null,
        "wikiDataId": "Q36027"
    },
    {
        "id": 130227,
        "name": "Huyện Bù Đốp",
        "state_id": 3821,
        "state_code": "39",
        "state_name": "Đồng Nai",
        "country_id": 240,
        "country_code": "VN",
        "country_name": "Vietnam",
        "latitude": "12.00374000",
        "longitude": "106.81545000",
        "timezone": null,
        "wikiDataId": "Q3710726"
    },
    {
        "id": 130256,
        "name": "Huyện Chơn Thành",
        "state_id": 3821,
        "state_code": "39",
        "state_name": "Đồng Nai",
        "country_id": 240,
        "country_code": "VN",
        "country_name": "Vietnam",
        "latitude": "11.46283000",
        "longitude": "106.66655000",
        "timezone": null,
        "wikiDataId": "Q1319826"
    },
    {
        "id": 130546,
        "name": "Huyện Định Quán",
        "state_id": 3821,
        "state_code": "39",
        "state_name": "Đồng Nai",
        "country_id": 240,
        "country_code": "VN",
        "country_name": "Vietnam",
        "latitude": "11.21866000",
        "longitude": "107.33959000",
        "timezone": null,
        "wikiDataId": "Q3593897"
    },
    {
        "id": 130547,
        "name": "Huyện Đồng Phú",
        "state_id": 3821,
        "state_code": "39",
        "state_name": "Đồng Nai",
        "country_id": 240,
        "country_code": "VN",
        "country_name": "Vietnam",
        "latitude": "11.50071000",
        "longitude": "107.01192000",
        "timezone": null,
        "wikiDataId": "Q3593897"
    },
    {
        "id": 130319,
        "name": "Huyện Hớn Quản",
        "state_id": 3821,
        "state_code": "39",
        "state_name": "Đồng Nai",
        "country_id": 240,
        "country_code": "VN",
        "country_name": "Vietnam",
        "latitude": "11.59718000",
        "longitude": "106.62739000",
        "timezone": null,
        "wikiDataId": "Q5942590"
    },
    {
        "id": 130344,
        "name": "Huyện Long Thành",
        "state_id": 3821,
        "state_code": "39",
        "state_name": "Đồng Nai",
        "country_id": 240,
        "country_code": "VN",
        "country_name": "Vietnam",
        "latitude": "10.76162000",
        "longitude": "107.02688000",
        "timezone": null,
        "wikiDataId": "Q3711115"
    },
    {
        "id": 130485,
        "name": "Huyện Tân Phú",
        "state_id": 3821,
        "state_code": "39",
        "state_name": "Đồng Nai",
        "country_id": 240,
        "country_code": "VN",
        "country_name": "Vietnam",
        "latitude": "11.39867000",
        "longitude": "107.39976000",
        "timezone": null,
        "wikiDataId": "Q3711512"
    },
    {
        "id": 130452,
        "name": "Huyện Thống Nhất",
        "state_id": 3821,
        "state_code": "39",
        "state_name": "Đồng Nai",
        "country_id": 240,
        "country_code": "VN",
        "country_name": "Vietnam",
        "latitude": "10.97764000",
        "longitude": "107.15909000",
        "timezone": null,
        "wikiDataId": "Q3711530"
    },
    {
        "id": 130471,
        "name": "Huyện Trảng Bom",
        "state_id": 3821,
        "state_code": "39",
        "state_name": "Đồng Nai",
        "country_id": 240,
        "country_code": "VN",
        "country_name": "Vietnam",
        "latitude": "10.96624000",
        "longitude": "107.03614000",
        "timezone": null,
        "wikiDataId": "Q7831038"
    },
    {
        "id": 130498,
        "name": "Huyện Vĩnh Cửu",
        "state_id": 3821,
        "state_code": "39",
        "state_name": "Đồng Nai",
        "country_id": 240,
        "country_code": "VN",
        "country_name": "Vietnam",
        "latitude": "11.25725000",
        "longitude": "107.02773000",
        "timezone": null,
        "wikiDataId": "Q7484836"
    },
    {
        "id": 130614,
        "name": "Thị Xã Phước Long",
        "state_id": 3821,
        "state_code": "39",
        "state_name": "Đồng Nai",
        "country_id": 240,
        "country_code": "VN",
        "country_name": "Vietnam",
        "latitude": "11.81142000",
        "longitude": "106.99670000",
        "timezone": null,
        "wikiDataId": "Q1320204"
    },
    {
        "id": 130184,
        "name": "Cao Lãnh",
        "state_id": 3769,
        "state_code": "45",
        "state_name": "Đồng Tháp",
        "country_id": 240,
        "country_code": "VN",
        "country_name": "Vietnam",
        "latitude": "10.46017000",
        "longitude": "105.63294000",
        "timezone": null,
        "wikiDataId": "Q35656"
    },
    {
        "id": 130266,
        "name": "Huyện Cái Bè",
        "state_id": 3769,
        "state_code": "45",
        "state_name": "Đồng Tháp",
        "country_id": 240,
        "country_code": "VN",
        "country_name": "Vietnam",
        "latitude": "10.38824000",
        "longitude": "105.94620000",
        "timezone": null,
        "wikiDataId": "Q800052"
    },
    {
        "id": 130241,
        "name": "Huyện Cai Lậy",
        "state_id": 3769,
        "state_code": "45",
        "state_name": "Đồng Tháp",
        "country_id": 240,
        "country_code": "VN",
        "country_name": "Vietnam",
        "latitude": "10.38943000",
        "longitude": "106.06774000",
        "timezone": null,
        "wikiDataId": "Q4838559"
    },
    {
        "id": 130252,
        "name": "Huyện Châu Thành",
        "state_id": 3769,
        "state_code": "45",
        "state_name": "Đồng Tháp",
        "country_id": 240,
        "country_code": "VN",
        "country_name": "Vietnam",
        "latitude": "10.38600000",
        "longitude": "106.27311000",
        "timezone": null,
        "wikiDataId": "Q3710806"
    },
    {
        "id": 130253,
        "name": "Huyện Châu Thành",
        "state_id": 3769,
        "state_code": "45",
        "state_name": "Đồng Tháp",
        "country_id": 240,
        "country_code": "VN",
        "country_name": "Vietnam",
        "latitude": "10.22543000",
        "longitude": "105.82380000",
        "timezone": null,
        "wikiDataId": "Q3710806"
    },
    {
        "id": 130260,
        "name": "Huyện Chợ Gạo",
        "state_id": 3769,
        "state_code": "45",
        "state_name": "Đồng Tháp",
        "country_id": 240,
        "country_code": "VN",
        "country_name": "Vietnam",
        "latitude": "10.37373000",
        "longitude": "106.44341000",
        "timezone": null,
        "wikiDataId": "Q1319826"
    },
    {
        "id": 130293,
        "name": "Huyện Gò Công Đông",
        "state_id": 3769,
        "state_code": "45",
        "state_name": "Đồng Tháp",
        "country_id": 240,
        "country_code": "VN",
        "country_name": "Vietnam",
        "latitude": "10.36784000",
        "longitude": "106.74592000",
        "timezone": null,
        "wikiDataId": "Q3710927"
    },
    {
        "id": 130292,
        "name": "Huyện Gò Công Tây",
        "state_id": 3769,
        "state_code": "45",
        "state_name": "Đồng Tháp",
        "country_id": 240,
        "country_code": "VN",
        "country_name": "Vietnam",
        "latitude": "10.34527000",
        "longitude": "106.59851000",
        "timezone": null,
        "wikiDataId": "Q3710927"
    },
    {
        "id": 130340,
        "name": "Huyện Lai Vung",
        "state_id": 3769,
        "state_code": "45",
        "state_name": "Đồng Tháp",
        "country_id": 240,
        "country_code": "VN",
        "country_name": "Vietnam",
        "latitude": "10.24051000",
        "longitude": "105.66327000",
        "timezone": null,
        "wikiDataId": "Q6473680"
    },
    {
        "id": 130351,
        "name": "Huyện Lấp Vò",
        "state_id": 3769,
        "state_code": "45",
        "state_name": "Đồng Tháp",
        "country_id": 240,
        "country_code": "VN",
        "country_name": "Vietnam",
        "latitude": "10.35918000",
        "longitude": "105.60611000",
        "timezone": null,
        "wikiDataId": "Q1320095"
    },
    {
        "id": 130430,
        "name": "Huyện Tam Nông",
        "state_id": 3769,
        "state_code": "45",
        "state_name": "Đồng Tháp",
        "country_id": 240,
        "country_code": "VN",
        "country_name": "Vietnam",
        "latitude": "10.72761000",
        "longitude": "105.52522000",
        "timezone": null,
        "wikiDataId": "Q3711485"
    },
    {
        "id": 130483,
        "name": "Huyện Tân Hồng",
        "state_id": 3769,
        "state_code": "45",
        "state_name": "Đồng Tháp",
        "country_id": 240,
        "country_code": "VN",
        "country_name": "Vietnam",
        "latitude": "10.87089000",
        "longitude": "105.49104000",
        "timezone": null,
        "wikiDataId": "Q3711512"
    },
    {
        "id": 130486,
        "name": "Huyện Tân Phước",
        "state_id": 3769,
        "state_code": "45",
        "state_name": "Đồng Tháp",
        "country_id": 240,
        "country_code": "VN",
        "country_name": "Vietnam",
        "latitude": "10.51489000",
        "longitude": "106.23312000",
        "timezone": null,
        "wikiDataId": "Q3711512"
    },
    {
        "id": 130435,
        "name": "Huyện Thanh Bình",
        "state_id": 3769,
        "state_code": "45",
        "state_name": "Đồng Tháp",
        "country_id": 240,
        "country_code": "VN",
        "country_name": "Vietnam",
        "latitude": "10.60137000",
        "longitude": "105.47811000",
        "timezone": null,
        "wikiDataId": "Q7710095"
    },
    {
        "id": 130443,
        "name": "Huyện Tháp Mười",
        "state_id": 3769,
        "state_code": "45",
        "state_name": "Đồng Tháp",
        "country_id": 240,
        "country_code": "VN",
        "country_name": "Vietnam",
        "latitude": "10.54398000",
        "longitude": "105.81875000",
        "timezone": null,
        "wikiDataId": "Q3711534"
    },
    {
        "id": 130574,
        "name": "Mỹ Tho",
        "state_id": 3769,
        "state_code": "45",
        "state_name": "Đồng Tháp",
        "country_id": 240,
        "country_code": "VN",
        "country_name": "Vietnam",
        "latitude": "10.36004000",
        "longitude": "106.35996000",
        "timezone": null,
        "wikiDataId": "Q33425"
    },
    {
        "id": 130589,
        "name": "Sa Dec",
        "state_id": 3769,
        "state_code": "45",
        "state_name": "Đồng Tháp",
        "country_id": 240,
        "country_code": "VN",
        "country_name": "Vietnam",
        "latitude": "10.29085000",
        "longitude": "105.75635000",
        "timezone": null,
        "wikiDataId": "Q36093"
    },
    {
        "id": 130599,
        "name": "Thành Phố Mỹ Tho",
        "state_id": 3769,
        "state_code": "45",
        "state_name": "Đồng Tháp",
        "country_id": 240,
        "country_code": "VN",
        "country_name": "Vietnam",
        "latitude": "10.36221000",
        "longitude": "106.36824000",
        "timezone": null,
        "wikiDataId": "Q36175"
    },
    {
        "id": 130607,
        "name": "Thị Trấn Tân Thành",
        "state_id": 3769,
        "state_code": "45",
        "state_name": "Đồng Tháp",
        "country_id": 240,
        "country_code": "VN",
        "country_name": "Vietnam",
        "latitude": "10.25616000",
        "longitude": "105.59280000",
        "timezone": null,
        "wikiDataId": "Q26581"
    },
    {
        "id": 130610,
        "name": "Thị Xã Gò Công",
        "state_id": 3769,
        "state_code": "45",
        "state_name": "Đồng Tháp",
        "country_id": 240,
        "country_code": "VN",
        "country_name": "Vietnam",
        "latitude": "10.40005000",
        "longitude": "106.65847000",
        "timezone": null,
        "wikiDataId": "Q3031171"
    },
    {
        "id": 130209,
        "name": "Huyện An Lão",
        "state_id": 3813,
        "state_code": "30",
        "state_name": "Gia Lai",
        "country_id": 240,
        "country_code": "VN",
        "country_name": "Vietnam",
        "latitude": "14.55676000",
        "longitude": "108.80100000",
        "timezone": null,
        "wikiDataId": "Q724711"
    },
    {
        "id": 130258,
        "name": "Huyện Chư Păh",
        "state_id": 3813,
        "state_code": "30",
        "state_name": "Gia Lai",
        "country_id": 240,
        "country_code": "VN",
        "country_name": "Vietnam",
        "latitude": "14.15941000",
        "longitude": "107.98411000",
        "timezone": null,
        "wikiDataId": "Q1319826"
    },
    {
        "id": 130257,
        "name": "Huyện Chư Prông",
        "state_id": 3813,
        "state_code": "30",
        "state_name": "Gia Lai",
        "country_id": 240,
        "country_code": "VN",
        "country_name": "Vietnam",
        "latitude": "13.59976000",
        "longitude": "107.81099000",
        "timezone": null,
        "wikiDataId": "Q1319826"
    },
    {
        "id": 130259,
        "name": "Huyện Chư Sê",
        "state_id": 3813,
        "state_code": "30",
        "state_name": "Gia Lai",
        "country_id": 240,
        "country_code": "VN",
        "country_name": "Vietnam",
        "latitude": "13.74254000",
        "longitude": "108.08663000",
        "timezone": null,
        "wikiDataId": "Q1319826"
    },
    {
        "id": 130549,
        "name": "Huyện Đức Cơ",
        "state_id": 3813,
        "state_code": "30",
        "state_name": "Gia Lai",
        "country_id": 240,
        "country_code": "VN",
        "country_name": "Vietnam",
        "latitude": "13.78454000",
        "longitude": "107.66970000",
        "timezone": null,
        "wikiDataId": "Q5295775"
    },
    {
        "id": 130298,
        "name": "Huyện Hoài Nhơn",
        "state_id": 3813,
        "state_code": "30",
        "state_name": "Gia Lai",
        "country_id": 240,
        "country_code": "VN",
        "country_name": "Vietnam",
        "latitude": "14.50535000",
        "longitude": "109.02315000",
        "timezone": null,
        "wikiDataId": "Q3710927"
    },
    {
        "id": 130320,
        "name": "Huyện Ia Grai",
        "state_id": 3813,
        "state_code": "30",
        "state_name": "Gia Lai",
        "country_id": 240,
        "country_code": "VN",
        "country_name": "Vietnam",
        "latitude": "13.98937000",
        "longitude": "107.73740000",
        "timezone": null,
        "wikiDataId": "Q5942590"
    },
    {
        "id": 130322,
        "name": "Huyện KBang",
        "state_id": 3813,
        "state_code": "30",
        "state_name": "Gia Lai",
        "country_id": 240,
        "country_code": "VN",
        "country_name": "Vietnam",
        "latitude": "14.30506000",
        "longitude": "108.49779000",
        "timezone": null,
        "wikiDataId": "Q20025812"
    },
    {
        "id": 130335,
        "name": "Huyện Kông Chro",
        "state_id": 3813,
        "state_code": "30",
        "state_name": "Gia Lai",
        "country_id": 240,
        "country_code": "VN",
        "country_name": "Vietnam",
        "latitude": "13.73519000",
        "longitude": "108.59697000",
        "timezone": null,
        "wikiDataId": "Q6405298"
    },
    {
        "id": 130334,
        "name": "Huyện Krông Pa",
        "state_id": 3813,
        "state_code": "30",
        "state_name": "Gia Lai",
        "country_id": 240,
        "country_code": "VN",
        "country_name": "Vietnam",
        "latitude": "13.23152000",
        "longitude": "108.65494000",
        "timezone": null,
        "wikiDataId": "Q6405298"
    },
    {
        "id": 130358,
        "name": "Huyện Mang Yang",
        "state_id": 3813,
        "state_code": "30",
        "state_name": "Gia Lai",
        "country_id": 240,
        "country_code": "VN",
        "country_name": "Vietnam",
        "latitude": "13.92840000",
        "longitude": "108.30246000",
        "timezone": null,
        "wikiDataId": "Q2226906"
    },
    {
        "id": 130397,
        "name": "Huyện Phù Mỹ",
        "state_id": 3813,
        "state_code": "30",
        "state_name": "Gia Lai",
        "country_id": 240,
        "country_code": "VN",
        "country_name": "Vietnam",
        "latitude": "14.22304000",
        "longitude": "109.08611000",
        "timezone": null,
        "wikiDataId": "Q724739"
    },
    {
        "id": 130490,
        "name": "Huyện Tây Sơn",
        "state_id": 3813,
        "state_code": "30",
        "state_name": "Gia Lai",
        "country_id": 240,
        "country_code": "VN",
        "country_name": "Vietnam",
        "latitude": "13.94306000",
        "longitude": "108.87999000",
        "timezone": null,
        "wikiDataId": "Q3711512"
    },
    {
        "id": 130476,
        "name": "Huyện Tuy Phước",
        "state_id": 3813,
        "state_code": "30",
        "state_name": "Gia Lai",
        "country_id": 240,
        "country_code": "VN",
        "country_name": "Vietnam",
        "latitude": "13.84564000",
        "longitude": "109.15275000",
        "timezone": null,
        "wikiDataId": "Q286486"
    },
    {
        "id": 130503,
        "name": "Huyện Vĩnh Thạnh",
        "state_id": 3813,
        "state_code": "30",
        "state_name": "Gia Lai",
        "country_id": 240,
        "country_code": "VN",
        "country_name": "Vietnam",
        "latitude": "14.21100000",
        "longitude": "108.74389000",
        "timezone": null,
        "wikiDataId": "Q7932536"
    },
    {
        "id": 130583,
        "name": "Pleiku",
        "state_id": 3813,
        "state_code": "30",
        "state_name": "Gia Lai",
        "country_id": 240,
        "country_code": "VN",
        "country_name": "Vietnam",
        "latitude": "13.98333000",
        "longitude": "108.00000000",
        "timezone": null,
        "wikiDataId": "Q30599"
    },
    {
        "id": 130584,
        "name": "Qui Nhon",
        "state_id": 3813,
        "state_code": "30",
        "state_name": "Gia Lai",
        "country_id": 240,
        "country_code": "VN",
        "country_name": "Vietnam",
        "latitude": "13.77648000",
        "longitude": "109.22367000",
        "timezone": null,
        "wikiDataId": "Q36081"
    },
    {
        "id": 130201,
        "name": "Ba Đình",
        "state_id": 3810,
        "state_code": "HN",
        "state_name": "Hà Nội",
        "country_id": 240,
        "country_code": "VN",
        "country_name": "Vietnam",
        "latitude": "21.03482330",
        "longitude": "105.80854700",
        "timezone": null,
        "wikiDataId": "Q890194"
    },
    {
        "id": 154453,
        "name": "Ba Vì",
        "state_id": 3810,
        "state_code": "HN",
        "state_name": "Hà Nội",
        "country_id": 240,
        "country_code": "VN",
        "country_name": "Vietnam",
        "latitude": "21.15590590",
        "longitude": "105.21463610",
        "timezone": null,
        "wikiDataId": "Q1048617"
    },
    {
        "id": 130412,
        "name": "Bắc Từ Liêm",
        "state_id": 3810,
        "state_code": "HN",
        "state_name": "Hà Nội",
        "country_id": 240,
        "country_code": "VN",
        "country_name": "Vietnam",
        "latitude": "21.07148680",
        "longitude": "105.71992260",
        "timezone": null,
        "wikiDataId": "Q16480194"
    },
    {
        "id": 130558,
        "name": "Cầu Giấy",
        "state_id": 3810,
        "state_code": "HN",
        "state_name": "Hà Nội",
        "country_id": 240,
        "country_code": "VN",
        "country_name": "Vietnam",
        "latitude": "21.03022160",
        "longitude": "105.74947330",
        "timezone": null,
        "wikiDataId": "Q267015"
    },
    {
        "id": 154454,
        "name": "Chương Mỹ",
        "state_id": 3810,
        "state_code": "HN",
        "state_name": "Hà Nội",
        "country_id": 240,
        "country_code": "VN",
        "country_name": "Vietnam",
        "latitude": "20.87863440",
        "longitude": "105.57313240",
        "timezone": null,
        "wikiDataId": "Q5116478"
    },
    {
        "id": 154455,
        "name": "Đan Phượng",
        "state_id": 3810,
        "state_code": "HN",
        "state_name": "Hà Nội",
        "country_id": 240,
        "country_code": "VN",
        "country_name": "Vietnam",
        "latitude": "21.12073370",
        "longitude": "105.59910760",
        "timezone": null,
        "wikiDataId": "Q5214204"
    },
    {
        "id": 154456,
        "name": "Đông Anh",
        "state_id": 3810,
        "state_code": "HN",
        "state_name": "Hà Nội",
        "country_id": 240,
        "country_code": "VN",
        "country_name": "Vietnam",
        "latitude": "21.13683310",
        "longitude": "105.74753240",
        "timezone": null,
        "wikiDataId": "Q864787"
    },
    {
        "id": 130586,
        "name": "Đống Đa",
        "state_id": 3810,
        "state_code": "HN",
        "state_name": "Hà Nội",
        "country_id": 240,
        "country_code": "VN",
        "country_name": "Vietnam",
        "latitude": "21.01466010",
        "longitude": "105.79955140",
        "timezone": null,
        "wikiDataId": "Q1048634"
    },
    {
        "id": 154457,
        "name": "Gia Lâm",
        "state_id": 3810,
        "state_code": "HN",
        "state_name": "Hà Nội",
        "country_id": 240,
        "country_code": "VN",
        "country_name": "Vietnam",
        "latitude": "21.02405790",
        "longitude": "105.78534730",
        "timezone": null,
        "wikiDataId": "Q1134500"
    },
    {
        "id": 130587,
        "name": "Hà Đông",
        "state_id": 3810,
        "state_code": "HN",
        "state_name": "Hà Nội",
        "country_id": 240,
        "country_code": "VN",
        "country_name": "Vietnam",
        "latitude": "20.95394960",
        "longitude": "105.71369010",
        "timezone": null,
        "wikiDataId": "Q546840"
    },
    {
        "id": 130595,
        "name": "Hai Bà Trưng",
        "state_id": 3810,
        "state_code": "HN",
        "state_name": "Hà Nội",
        "country_id": 240,
        "country_code": "VN",
        "country_name": "Vietnam",
        "latitude": "21.00675970",
        "longitude": "105.84126630",
        "timezone": null,
        "wikiDataId": "Q1134523"
    },
    {
        "id": 154458,
        "name": "Hoài Đức",
        "state_id": 3810,
        "state_code": "HN",
        "state_name": "Hà Nội",
        "country_id": 240,
        "country_code": "VN",
        "country_name": "Vietnam",
        "latitude": "21.02300260",
        "longitude": "105.61219450",
        "timezone": null,
        "wikiDataId": "Q864794"
    },
    {
        "id": 154446,
        "name": "Hoàn Kiếm ",
        "state_id": 3810,
        "state_code": "HN",
        "state_name": "Hà Nội",
        "country_id": 240,
        "country_code": "VN",
        "country_name": "Vietnam",
        "latitude": "21.03044570",
        "longitude": "105.83358610",
        "timezone": null,
        "wikiDataId": "Q1134529"
    },
    {
        "id": 154447,
        "name": "Hoàng Mai",
        "state_id": 3810,
        "state_code": "HN",
        "state_name": "Hà Nội",
        "country_id": 240,
        "country_code": "VN",
        "country_name": "Vietnam",
        "latitude": "20.97404710",
        "longitude": "105.81704700",
        "timezone": null,
        "wikiDataId": "Q864747"
    },
    {
        "id": 154448,
        "name": "Long Biên",
        "state_id": 3810,
        "state_code": "HN",
        "state_name": "Hà Nội",
        "country_id": 240,
        "country_code": "VN",
        "country_name": "Vietnam",
        "latitude": "21.03803170",
        "longitude": "105.84909840",
        "timezone": null,
        "wikiDataId": "Q864802"
    },
    {
        "id": 154459,
        "name": "Mê Linh",
        "state_id": 3810,
        "state_code": "HN",
        "state_name": "Hà Nội",
        "country_id": 240,
        "country_code": "VN",
        "country_name": "Vietnam",
        "latitude": "21.18078460",
        "longitude": "105.62112980",
        "timezone": null,
        "wikiDataId": "Q1048241"
    },
    {
        "id": 154460,
        "name": "Mỹ Đức",
        "state_id": 3810,
        "state_code": "HN",
        "state_name": "Hà Nội",
        "country_id": 240,
        "country_code": "VN",
        "country_name": "Vietnam",
        "latitude": "20.69745440",
        "longitude": "105.56582850",
        "timezone": null,
        "wikiDataId": "Q864775"
    },
    {
        "id": 154449,
        "name": "Nam Từ Liêm",
        "state_id": 3810,
        "state_code": "HN",
        "state_name": "Hà Nội",
        "country_id": 240,
        "country_code": "VN",
        "country_name": "Vietnam",
        "latitude": "21.01789090",
        "longitude": "105.72108680",
        "timezone": null,
        "wikiDataId": "Q16479957"
    },
    {
        "id": 154461,
        "name": "Phú Xuyên",
        "state_id": 3810,
        "state_code": "HN",
        "state_name": "Hà Nội",
        "country_id": 240,
        "country_code": "VN",
        "country_name": "Vietnam",
        "latitude": "20.72900540",
        "longitude": "105.81491120",
        "timezone": null,
        "wikiDataId": "Q524144"
    },
    {
        "id": 154462,
        "name": "Phúc Thọ",
        "state_id": 3810,
        "state_code": "HN",
        "state_name": "Hà Nội",
        "country_id": 240,
        "country_code": "VN",
        "country_name": "Vietnam",
        "latitude": "21.10993100",
        "longitude": "105.50059130",
        "timezone": null,
        "wikiDataId": "Q5370345"
    },
    {
        "id": 154463,
        "name": "Quốc Oai",
        "state_id": 3810,
        "state_code": "HN",
        "state_name": "Hà Nội",
        "country_id": 240,
        "country_code": "VN",
        "country_name": "Vietnam",
        "latitude": "20.97845600",
        "longitude": "105.43800930",
        "timezone": null,
        "wikiDataId": "Q5370368"
    },
    {
        "id": 154464,
        "name": "Sóc Sơn",
        "state_id": 3810,
        "state_code": "HN",
        "state_name": "Hà Nội",
        "country_id": 240,
        "country_code": "VN",
        "country_name": "Vietnam",
        "latitude": "21.28139310",
        "longitude": "105.66618880",
        "timezone": null,
        "wikiDataId": "Q5370348"
    },
    {
        "id": 154452,
        "name": "Sơn Tây",
        "state_id": 3810,
        "state_code": "HN",
        "state_name": "Hà Nội",
        "country_id": 240,
        "country_code": "VN",
        "country_name": "Vietnam",
        "latitude": "21.09683340",
        "longitude": "105.39385950",
        "timezone": null,
        "wikiDataId": "Q10823419"
    },
    {
        "id": 154450,
        "name": "Tây Hồ ",
        "state_id": 3810,
        "state_code": "HN",
        "state_name": "Hà Nội",
        "country_id": 240,
        "country_code": "VN",
        "country_name": "Vietnam",
        "latitude": "21.06882190",
        "longitude": "105.77920430",
        "timezone": null,
        "wikiDataId": "Q1048642"
    },
    {
        "id": 154465,
        "name": "Thạch Thất",
        "state_id": 3810,
        "state_code": "HN",
        "state_name": "Hà Nội",
        "country_id": 240,
        "country_code": "VN",
        "country_name": "Vietnam",
        "latitude": "21.02408830",
        "longitude": "105.35102500",
        "timezone": null,
        "wikiDataId": "Q5370376"
    },
    {
        "id": 154466,
        "name": "Thanh Oai",
        "state_id": 3810,
        "state_code": "HN",
        "state_name": "Hà Nội",
        "country_id": 240,
        "country_code": "VN",
        "country_name": "Vietnam",
        "latitude": "20.86002700",
        "longitude": "105.70158360",
        "timezone": null,
        "wikiDataId": "Q5370325"
    },
    {
        "id": 154467,
        "name": "Thanh Trì",
        "state_id": 3810,
        "state_code": "HN",
        "state_name": "Hà Nội",
        "country_id": 240,
        "country_code": "VN",
        "country_name": "Vietnam",
        "latitude": "20.94176020",
        "longitude": "105.76821790",
        "timezone": null,
        "wikiDataId": "Q4403404"
    },
    {
        "id": 154451,
        "name": "Thanh Xuân",
        "state_id": 3810,
        "state_code": "HN",
        "state_name": "Hà Nội",
        "country_id": 240,
        "country_code": "VN",
        "country_name": "Vietnam",
        "latitude": "20.99482550",
        "longitude": "105.79696040",
        "timezone": null,
        "wikiDataId": "Q864779"
    },
    {
        "id": 154468,
        "name": "Thường Tín",
        "state_id": 3810,
        "state_code": "HN",
        "state_name": "Hà Nội",
        "country_id": 240,
        "country_code": "VN",
        "country_name": "Vietnam",
        "latitude": "20.83223420",
        "longitude": "105.79192130",
        "timezone": null,
        "wikiDataId": "Q864581"
    },
    {
        "id": 154469,
        "name": "Ứng Hòa",
        "state_id": 3810,
        "state_code": "HN",
        "state_name": "Hà Nội",
        "country_id": 240,
        "country_code": "VN",
        "country_name": "Vietnam",
        "latitude": "20.71097910",
        "longitude": "105.63648520",
        "timezone": null,
        "wikiDataId": "Q864798"
    },
    {
        "id": 130557,
        "name": "Hà Tĩnh",
        "state_id": 3816,
        "state_code": "23",
        "state_name": "Hà Tĩnh",
        "country_id": 240,
        "country_code": "VN",
        "country_name": "Vietnam",
        "latitude": "18.34282000",
        "longitude": "105.90569000",
        "timezone": null,
        "wikiDataId": "Q33996"
    },
    {
        "id": 130277,
        "name": "Huyện Cẩm Xuyên",
        "state_id": 3816,
        "state_code": "23",
        "state_name": "Hà Tĩnh",
        "country_id": 240,
        "country_code": "VN",
        "country_name": "Vietnam",
        "latitude": "18.19059000",
        "longitude": "106.00186000",
        "timezone": null,
        "wikiDataId": "Q3031197"
    },
    {
        "id": 130243,
        "name": "Huyện Can Lộc",
        "state_id": 3816,
        "state_code": "23",
        "state_name": "Hà Tĩnh",
        "country_id": 240,
        "country_code": "VN",
        "country_name": "Vietnam",
        "latitude": "18.44414000",
        "longitude": "105.76350000",
        "timezone": null,
        "wikiDataId": "Q4838559"
    },
    {
        "id": 130525,
        "name": "Huyện Ðức Thọ",
        "state_id": 3816,
        "state_code": "23",
        "state_name": "Hà Tĩnh",
        "country_id": 240,
        "country_code": "VN",
        "country_name": "Vietnam",
        "latitude": "18.49699000",
        "longitude": "105.61016000",
        "timezone": null,
        "wikiDataId": "Q5295738"
    },
    {
        "id": 130337,
        "name": "Huyện Kỳ Anh",
        "state_id": 3816,
        "state_code": "23",
        "state_name": "Hà Tĩnh",
        "country_id": 240,
        "country_code": "VN",
        "country_name": "Vietnam",
        "latitude": "18.05805000",
        "longitude": "106.24580000",
        "timezone": null,
        "wikiDataId": "Q6405298"
    },
    {
        "id": 130382,
        "name": "Huyện Nghi Xuân",
        "state_id": 3816,
        "state_code": "23",
        "state_name": "Hà Tĩnh",
        "country_id": 240,
        "country_code": "VN",
        "country_name": "Vietnam",
        "latitude": "18.62419000",
        "longitude": "105.76829000",
        "timezone": null,
        "wikiDataId": "Q3031601"
    },
    {
        "id": 130447,
        "name": "Huyện Thạch Hà",
        "state_id": 3816,
        "state_code": "23",
        "state_name": "Hà Tĩnh",
        "country_id": 240,
        "country_code": "VN",
        "country_name": "Vietnam",
        "latitude": "18.35091000",
        "longitude": "105.81123000",
        "timezone": null,
        "wikiDataId": "Q3711534"
    },
    {
        "id": 130188,
        "name": "Cát Bà",
        "state_id": 3783,
        "state_code": "HP",
        "state_name": "Hải Phòng",
        "country_id": 240,
        "country_code": "VN",
        "country_name": "Vietnam",
        "latitude": "20.72779000",
        "longitude": "107.04819000",
        "timezone": null,
        "wikiDataId": "Q25262"
    },
    {
        "id": 130562,
        "name": "Hải Dương",
        "state_id": 3783,
        "state_code": "HP",
        "state_name": "Hải Phòng",
        "country_id": 240,
        "country_code": "VN",
        "country_name": "Vietnam",
        "latitude": "20.94099000",
        "longitude": "106.33302000",
        "timezone": null,
        "wikiDataId": "Q36354"
    },
    {
        "id": 130200,
        "name": "Haiphong",
        "state_id": 3783,
        "state_code": "HP",
        "state_name": "Hải Phòng",
        "country_id": 240,
        "country_code": "VN",
        "country_name": "Vietnam",
        "latitude": "20.86481000",
        "longitude": "106.68345000",
        "timezone": null,
        "wikiDataId": "Q3277075"
    },
    {
        "id": 130221,
        "name": "Huyện Bình Giang",
        "state_id": 3783,
        "state_code": "HP",
        "state_name": "Hải Phòng",
        "country_id": 240,
        "country_code": "VN",
        "country_name": "Vietnam",
        "latitude": "20.87586000",
        "longitude": "106.19138000",
        "timezone": null,
        "wikiDataId": "Q3031078"
    },
    {
        "id": 130274,
        "name": "Huyện Cẩm Giàng",
        "state_id": 3783,
        "state_code": "HP",
        "state_name": "Hải Phòng",
        "country_id": 240,
        "country_code": "VN",
        "country_name": "Vietnam",
        "latitude": "20.95000000",
        "longitude": "106.21667000",
        "timezone": null,
        "wikiDataId": "Q3031197"
    },
    {
        "id": 130286,
        "name": "Huyện Gia Lộc",
        "state_id": 3783,
        "state_code": "HP",
        "state_name": "Hải Phòng",
        "country_id": 240,
        "country_code": "VN",
        "country_name": "Vietnam",
        "latitude": "20.85164000",
        "longitude": "106.29130000",
        "timezone": null,
        "wikiDataId": "Q3031261"
    },
    {
        "id": 130329,
        "name": "Huyện Kinh Môn",
        "state_id": 3783,
        "state_code": "HP",
        "state_name": "Hải Phòng",
        "country_id": 240,
        "country_code": "VN",
        "country_name": "Vietnam",
        "latitude": "21.01634000",
        "longitude": "106.50384000",
        "timezone": null,
        "wikiDataId": "Q3031344"
    },
    {
        "id": 130376,
        "name": "Huyện Nam Sách",
        "state_id": 3783,
        "state_code": "HP",
        "state_name": "Hải Phòng",
        "country_id": 240,
        "country_code": "VN",
        "country_name": "Vietnam",
        "latitude": "21.00484000",
        "longitude": "106.34042000",
        "timezone": null,
        "wikiDataId": "Q3031601"
    },
    {
        "id": 130438,
        "name": "Huyện Thanh Miện",
        "state_id": 3783,
        "state_code": "HP",
        "state_name": "Hải Phòng",
        "country_id": 240,
        "country_code": "VN",
        "country_name": "Vietnam",
        "latitude": "20.77953000",
        "longitude": "106.22218000",
        "timezone": null,
        "wikiDataId": "Q3031911"
    },
    {
        "id": 130609,
        "name": "Thị Xã Chí Linh",
        "state_id": 3783,
        "state_code": "HP",
        "state_name": "Hải Phòng",
        "country_id": 240,
        "country_code": "VN",
        "country_name": "Vietnam",
        "latitude": "21.13722000",
        "longitude": "106.39638000",
        "timezone": null,
        "wikiDataId": "Q3031171"
    },
    {
        "id": 130191,
        "name": "Cần Giờ",
        "state_id": 3811,
        "state_code": "SG",
        "state_name": "Hồ Chí Minh",
        "country_id": 240,
        "country_code": "VN",
        "country_name": "Vietnam",
        "latitude": "10.41115000",
        "longitude": "106.95474000",
        "timezone": null,
        "wikiDataId": "Q25262"
    },
    {
        "id": 130189,
        "name": "Côn Sơn",
        "state_id": 3811,
        "state_code": "SG",
        "state_name": "Hồ Chí Minh",
        "country_id": 240,
        "country_code": "VN",
        "country_name": "Vietnam",
        "latitude": "8.68641000",
        "longitude": "106.60824000",
        "timezone": null,
        "wikiDataId": "Q25262"
    },
    {
        "id": 130194,
        "name": "Củ Chi",
        "state_id": 3811,
        "state_code": "SG",
        "state_name": "Hồ Chí Minh",
        "country_id": 240,
        "country_code": "VN",
        "country_name": "Vietnam",
        "latitude": "10.97333000",
        "longitude": "106.49325000",
        "timezone": null,
        "wikiDataId": "Q55963184"
    },
    {
        "id": 130198,
        "name": "Dĩ An",
        "state_id": 3811,
        "state_code": "SG",
        "state_name": "Hồ Chí Minh",
        "country_id": 240,
        "country_code": "VN",
        "country_name": "Vietnam",
        "latitude": "10.90682000",
        "longitude": "106.76940000",
        "timezone": null,
        "wikiDataId": "Q1320364"
    },
    {
        "id": 130202,
        "name": "Ho Chi Minh City",
        "state_id": 3811,
        "state_code": "SG",
        "state_name": "Hồ Chí Minh",
        "country_id": 240,
        "country_code": "VN",
        "country_name": "Vietnam",
        "latitude": "10.82302000",
        "longitude": "106.62965000",
        "timezone": null,
        "wikiDataId": "Q1854"
    },
    {
        "id": 130255,
        "name": "Huyện Châu Đức",
        "state_id": 3811,
        "state_code": "SG",
        "state_name": "Hồ Chí Minh",
        "country_id": 240,
        "country_code": "VN",
        "country_name": "Vietnam",
        "latitude": "10.65805000",
        "longitude": "107.25098000",
        "timezone": null,
        "wikiDataId": "Q1319826"
    },
    {
        "id": 130539,
        "name": "Huyện Đất Đỏ",
        "state_id": 3811,
        "state_code": "SG",
        "state_name": "Hồ Chí Minh",
        "country_id": 240,
        "country_code": "VN",
        "country_name": "Vietnam",
        "latitude": "10.48025000",
        "longitude": "107.27879000",
        "timezone": null,
        "wikiDataId": "Q2414015"
    },
    {
        "id": 130487,
        "name": "Huyện Tân Thành",
        "state_id": 3811,
        "state_code": "SG",
        "state_name": "Hồ Chí Minh",
        "country_id": 240,
        "country_code": "VN",
        "country_name": "Vietnam",
        "latitude": "10.57381000",
        "longitude": "107.10189000",
        "timezone": null,
        "wikiDataId": "Q3711512"
    },
    {
        "id": 130510,
        "name": "Huyện Xuyên Mộc",
        "state_id": 3811,
        "state_code": "SG",
        "state_name": "Hồ Chí Minh",
        "country_id": 240,
        "country_code": "VN",
        "country_name": "Vietnam",
        "latitude": "10.63048000",
        "longitude": "107.46568000",
        "timezone": null,
        "wikiDataId": "Q1758257"
    },
    {
        "id": 130604,
        "name": "Thành Phố Vũng Tàu",
        "state_id": 3811,
        "state_code": "SG",
        "state_name": "Hồ Chí Minh",
        "country_id": 240,
        "country_code": "VN",
        "country_name": "Vietnam",
        "latitude": "10.40239000",
        "longitude": "107.14239000",
        "timezone": null,
        "wikiDataId": "Q21194"
    },
    {
        "id": 130613,
        "name": "Thị Xã Phú Mỹ",
        "state_id": 3811,
        "state_code": "SG",
        "state_name": "Hồ Chí Minh",
        "country_id": 240,
        "country_code": "VN",
        "country_name": "Vietnam",
        "latitude": "10.56815000",
        "longitude": "107.12999000",
        "timezone": null,
        "wikiDataId": "Q1320204"
    },
    {
        "id": 130616,
        "name": "Thủ Dầu Một",
        "state_id": 3811,
        "state_code": "SG",
        "state_name": "Hồ Chí Minh",
        "country_id": 240,
        "country_code": "VN",
        "country_name": "Vietnam",
        "latitude": "10.98040000",
        "longitude": "106.65190000",
        "timezone": null,
        "wikiDataId": "Q1320204"
    },
    {
        "id": 130626,
        "name": "Vũng Tàu",
        "state_id": 3811,
        "state_code": "SG",
        "state_name": "Hồ Chí Minh",
        "country_id": 240,
        "country_code": "VN",
        "country_name": "Vietnam",
        "latitude": "10.34599000",
        "longitude": "107.08426000",
        "timezone": null,
        "wikiDataId": "Q36088"
    },
    {
        "id": 130560,
        "name": "Hưng Yên",
        "state_id": 3768,
        "state_code": "66",
        "state_name": "Hưng Yên",
        "country_id": 240,
        "country_code": "VN",
        "country_name": "Vietnam",
        "latitude": "20.64637000",
        "longitude": "106.05112000",
        "timezone": null,
        "wikiDataId": "Q36485"
    },
    {
        "id": 130523,
        "name": "Huyện Ân Thi",
        "state_id": 3768,
        "state_code": "66",
        "state_name": "Hưng Yên",
        "country_id": 240,
        "country_code": "VN",
        "country_name": "Vietnam",
        "latitude": "20.81086000",
        "longitude": "106.09995000",
        "timezone": null,
        "wikiDataId": "Q1924620"
    },
    {
        "id": 130524,
        "name": "Huyện Ðông Hưng",
        "state_id": 3768,
        "state_code": "66",
        "state_name": "Hưng Yên",
        "country_id": 240,
        "country_code": "VN",
        "country_name": "Vietnam",
        "latitude": "20.54388000",
        "longitude": "106.34090000",
        "timezone": null,
        "wikiDataId": "Q5295738"
    },
    {
        "id": 130309,
        "name": "Huyện Hưng Hà",
        "state_id": 3768,
        "state_code": "66",
        "state_name": "Hưng Yên",
        "country_id": 240,
        "country_code": "VN",
        "country_name": "Vietnam",
        "latitude": "20.59464000",
        "longitude": "106.21230000",
        "timezone": null,
        "wikiDataId": "Q5874252"
    },
    {
        "id": 130323,
        "name": "Huyện Khoái Châu",
        "state_id": 3768,
        "state_code": "66",
        "state_name": "Hưng Yên",
        "country_id": 240,
        "country_code": "VN",
        "country_name": "Vietnam",
        "latitude": "20.82170000",
        "longitude": "105.97455000",
        "timezone": null,
        "wikiDataId": "Q20025812"
    },
    {
        "id": 130331,
        "name": "Huyện Kiến Xương",
        "state_id": 3768,
        "state_code": "66",
        "state_name": "Hưng Yên",
        "country_id": 240,
        "country_code": "VN",
        "country_name": "Vietnam",
        "latitude": "20.40081000",
        "longitude": "106.42032000",
        "timezone": null,
        "wikiDataId": "Q6405298"
    },
    {
        "id": 130328,
        "name": "Huyện Kim Động",
        "state_id": 3768,
        "state_code": "66",
        "state_name": "Hưng Yên",
        "country_id": 240,
        "country_code": "VN",
        "country_name": "Vietnam",
        "latitude": "20.74645000",
        "longitude": "106.03632000",
        "timezone": null,
        "wikiDataId": "Q20025812"
    },
    {
        "id": 130369,
        "name": "Huyện Mỹ Hào",
        "state_id": 3768,
        "state_code": "66",
        "state_name": "Hưng Yên",
        "country_id": 240,
        "country_code": "VN",
        "country_name": "Vietnam",
        "latitude": "20.93210000",
        "longitude": "106.10630000",
        "timezone": null,
        "wikiDataId": "Q10796264"
    },
    {
        "id": 130396,
        "name": "Huyện Phù Cừ",
        "state_id": 3768,
        "state_code": "66",
        "state_name": "Hưng Yên",
        "country_id": 240,
        "country_code": "VN",
        "country_name": "Vietnam",
        "latitude": "20.70997000",
        "longitude": "106.19744000",
        "timezone": null,
        "wikiDataId": "Q724739"
    },
    {
        "id": 130417,
        "name": "Huyện Quỳnh Phụ",
        "state_id": 3768,
        "state_code": "66",
        "state_name": "Hưng Yên",
        "country_id": 240,
        "country_code": "VN",
        "country_name": "Vietnam",
        "latitude": "20.65095000",
        "longitude": "106.36359000",
        "timezone": null,
        "wikiDataId": "Q5370368"
    },
    {
        "id": 130442,
        "name": "Huyện Thái Thụy",
        "state_id": 3768,
        "state_code": "66",
        "state_name": "Hưng Yên",
        "country_id": 240,
        "country_code": "VN",
        "country_name": "Vietnam",
        "latitude": "20.53916000",
        "longitude": "106.51688000",
        "timezone": null,
        "wikiDataId": "Q3711534"
    },
    {
        "id": 130459,
        "name": "Huyện Tiền Hải",
        "state_id": 3768,
        "state_code": "66",
        "state_name": "Hưng Yên",
        "country_id": 240,
        "country_code": "VN",
        "country_name": "Vietnam",
        "latitude": "20.38465000",
        "longitude": "106.52882000",
        "timezone": null,
        "wikiDataId": "Q3711538"
    },
    {
        "id": 130456,
        "name": "Huyện Tiên Lữ",
        "state_id": 3768,
        "state_code": "66",
        "state_name": "Hưng Yên",
        "country_id": 240,
        "country_code": "VN",
        "country_name": "Vietnam",
        "latitude": "20.68490000",
        "longitude": "106.12513000",
        "timezone": null,
        "wikiDataId": "Q3711538"
    },
    {
        "id": 130504,
        "name": "Huyện Vũ Thư",
        "state_id": 3768,
        "state_code": "66",
        "state_name": "Hưng Yên",
        "country_id": 240,
        "country_code": "VN",
        "country_name": "Vietnam",
        "latitude": "20.43732000",
        "longitude": "106.26529000",
        "timezone": null,
        "wikiDataId": "Q7932536"
    },
    {
        "id": 130605,
        "name": "Thái Bình",
        "state_id": 3768,
        "state_code": "66",
        "state_name": "Hưng Yên",
        "country_id": 240,
        "country_code": "VN",
        "country_name": "Vietnam",
        "latitude": "20.45000000",
        "longitude": "106.34002000",
        "timezone": null,
        "wikiDataId": "Q36497"
    },
    {
        "id": 130182,
        "name": "Cam Ranh",
        "state_id": 3793,
        "state_code": "34",
        "state_name": "Khánh Hòa",
        "country_id": 240,
        "country_code": "VN",
        "country_name": "Vietnam",
        "latitude": "11.92144000",
        "longitude": "109.15913000",
        "timezone": null,
        "wikiDataId": "Q31887770"
    },
    {
        "id": 130278,
        "name": "Huyện Diên Khánh",
        "state_id": 3793,
        "state_code": "34",
        "state_name": "Khánh Hòa",
        "country_id": 240,
        "country_code": "VN",
        "country_name": "Vietnam",
        "latitude": "12.27341000",
        "longitude": "109.03890000",
        "timezone": null,
        "wikiDataId": "Q3031197"
    },
    {
        "id": 130324,
        "name": "Huyện Khánh Sơn",
        "state_id": 3793,
        "state_code": "34",
        "state_name": "Khánh Hòa",
        "country_id": 240,
        "country_code": "VN",
        "country_name": "Vietnam",
        "latitude": "12.02858000",
        "longitude": "108.90814000",
        "timezone": null,
        "wikiDataId": "Q20025812"
    },
    {
        "id": 130325,
        "name": "Huyện Khánh Vĩnh",
        "state_id": 3793,
        "state_code": "34",
        "state_name": "Khánh Hòa",
        "country_id": 240,
        "country_code": "VN",
        "country_name": "Vietnam",
        "latitude": "12.30593000",
        "longitude": "108.83073000",
        "timezone": null,
        "wikiDataId": "Q20025812"
    },
    {
        "id": 130506,
        "name": "Huyện Vạn Ninh",
        "state_id": 3793,
        "state_code": "34",
        "state_name": "Khánh Hòa",
        "country_id": 240,
        "country_code": "VN",
        "country_name": "Vietnam",
        "latitude": "12.72344000",
        "longitude": "109.24586000",
        "timezone": null,
        "wikiDataId": "Q7932536"
    },
    {
        "id": 130576,
        "name": "Nha Trang",
        "state_id": 3793,
        "state_code": "34",
        "state_name": "Khánh Hòa",
        "country_id": 240,
        "country_code": "VN",
        "country_name": "Vietnam",
        "latitude": "12.24507000",
        "longitude": "109.19432000",
        "timezone": null,
        "wikiDataId": "Q19491"
    },
    {
        "id": 130578,
        "name": "Phan Rang-Tháp Chàm",
        "state_id": 3793,
        "state_code": "34",
        "state_name": "Khánh Hòa",
        "country_id": 240,
        "country_code": "VN",
        "country_name": "Vietnam",
        "latitude": "11.56432000",
        "longitude": "108.98858000",
        "timezone": null,
        "wikiDataId": "Q19013"
    },
    {
        "id": 130598,
        "name": "Thành Phố Cam Ranh",
        "state_id": 3793,
        "state_code": "34",
        "state_name": "Khánh Hòa",
        "country_id": 240,
        "country_code": "VN",
        "country_name": "Vietnam",
        "latitude": "11.90707000",
        "longitude": "109.14861000",
        "timezone": null,
        "wikiDataId": "Q36175"
    },
    {
        "id": 130600,
        "name": "Thành Phố Nha Trang",
        "state_id": 3793,
        "state_code": "34",
        "state_name": "Khánh Hòa",
        "country_id": 240,
        "country_code": "VN",
        "country_name": "Vietnam",
        "latitude": "12.25458000",
        "longitude": "109.16655000",
        "timezone": null,
        "wikiDataId": "Q36175"
    },
    {
        "id": 130612,
        "name": "Thị Xã Ninh Hòa",
        "state_id": 3793,
        "state_code": "34",
        "state_name": "Khánh Hòa",
        "country_id": 240,
        "country_code": "VN",
        "country_name": "Vietnam",
        "latitude": "12.53796000",
        "longitude": "109.06057000",
        "timezone": null,
        "wikiDataId": "Q3031171"
    },
    {
        "id": 130361,
        "name": "Huyện Mưòng Tè",
        "state_id": 3825,
        "state_code": "01",
        "state_name": "Lai Châu",
        "country_id": 240,
        "country_code": "VN",
        "country_name": "Vietnam",
        "latitude": "22.37443000",
        "longitude": "102.73835000",
        "timezone": null,
        "wikiDataId": "Q10796264"
    },
    {
        "id": 130431,
        "name": "Huyện Tam Đường",
        "state_id": 3825,
        "state_code": "01",
        "state_name": "Lai Châu",
        "country_id": 240,
        "country_code": "VN",
        "country_name": "Vietnam",
        "latitude": "22.35391000",
        "longitude": "103.59342000",
        "timezone": null,
        "wikiDataId": "Q3711485"
    },
    {
        "id": 130433,
        "name": "Huyện Than Uyên",
        "state_id": 3825,
        "state_code": "01",
        "state_name": "Lai Châu",
        "country_id": 240,
        "country_code": "VN",
        "country_name": "Vietnam",
        "latitude": "21.91424000",
        "longitude": "103.82857000",
        "timezone": null,
        "wikiDataId": "Q7710095"
    },
    {
        "id": 130176,
        "name": "Bảo Lộc",
        "state_id": 3818,
        "state_code": "35",
        "state_name": "Lâm Đồng",
        "country_id": 240,
        "country_code": "VN",
        "country_name": "Vietnam",
        "latitude": "11.54798000",
        "longitude": "107.80772000",
        "timezone": null,
        "wikiDataId": "Q35620"
    },
    {
        "id": 130632,
        "name": "Đam Rong",
        "state_id": 3818,
        "state_code": "35",
        "state_name": "Lâm Đồng",
        "country_id": 240,
        "country_code": "VN",
        "country_name": "Vietnam",
        "latitude": "12.05409000",
        "longitude": "108.14941000",
        "timezone": null,
        "wikiDataId": "Q33343"
    },
    {
        "id": 130633,
        "name": "Đinh Văn",
        "state_id": 3818,
        "state_code": "35",
        "state_name": "Lâm Đồng",
        "country_id": 240,
        "country_code": "VN",
        "country_name": "Vietnam",
        "latitude": "11.78624000",
        "longitude": "108.24282000",
        "timezone": null,
        "wikiDataId": "Q33343"
    },
    {
        "id": 130634,
        "name": "Đưc Trọng",
        "state_id": 3818,
        "state_code": "35",
        "state_name": "Lâm Đồng",
        "country_id": 240,
        "country_code": "VN",
        "country_name": "Vietnam",
        "latitude": "11.73559000",
        "longitude": "108.37330000",
        "timezone": null,
        "wikiDataId": "Q33343"
    },
    {
        "id": 130630,
        "name": "Ðà Lạt",
        "state_id": 3818,
        "state_code": "35",
        "state_name": "Lâm Đồng",
        "country_id": 240,
        "country_code": "VN",
        "country_name": "Vietnam",
        "latitude": "11.94646000",
        "longitude": "108.44193000",
        "timezone": null,
        "wikiDataId": "Q25281"
    },
    {
        "id": 130233,
        "name": "Huyện Bắc Bình",
        "state_id": 3818,
        "state_code": "35",
        "state_name": "Lâm Đồng",
        "country_id": 240,
        "country_code": "VN",
        "country_name": "Vietnam",
        "latitude": "11.27571000",
        "longitude": "108.38506000",
        "timezone": null,
        "wikiDataId": "Q3710674"
    },
    {
        "id": 130230,
        "name": "Huyện Bảo Lâm",
        "state_id": 3818,
        "state_code": "35",
        "state_name": "Lâm Đồng",
        "country_id": 240,
        "country_code": "VN",
        "country_name": "Vietnam",
        "latitude": "11.71163000",
        "longitude": "107.75338000",
        "timezone": null,
        "wikiDataId": "Q3710674"
    },
    {
        "id": 130269,
        "name": "Huyện Cư Jút",
        "state_id": 3818,
        "state_code": "35",
        "state_name": "Lâm Đồng",
        "country_id": 240,
        "country_code": "VN",
        "country_name": "Vietnam",
        "latitude": "12.69591000",
        "longitude": "107.76316000",
        "timezone": null,
        "wikiDataId": "Q800052"
    },
    {
        "id": 130536,
        "name": "Huyện Đạ Huoai",
        "state_id": 3818,
        "state_code": "35",
        "state_name": "Lâm Đồng",
        "country_id": 240,
        "country_code": "VN",
        "country_name": "Vietnam",
        "latitude": "11.42465000",
        "longitude": "107.63825000",
        "timezone": null,
        "wikiDataId": "Q5295738"
    },
    {
        "id": 130537,
        "name": "Huyện Đạ Tẻh",
        "state_id": 3818,
        "state_code": "35",
        "state_name": "Lâm Đồng",
        "country_id": 240,
        "country_code": "VN",
        "country_name": "Vietnam",
        "latitude": "11.58446000",
        "longitude": "107.52792000",
        "timezone": null,
        "wikiDataId": "Q5295738"
    },
    {
        "id": 130544,
        "name": "Huyện Đắk R’Lấp",
        "state_id": 3818,
        "state_code": "35",
        "state_name": "Lâm Đồng",
        "country_id": 240,
        "country_code": "VN",
        "country_name": "Vietnam",
        "latitude": "11.87990000",
        "longitude": "107.52244000",
        "timezone": null,
        "wikiDataId": "Q3593897"
    },
    {
        "id": 130535,
        "name": "Huyện Đơn Dương",
        "state_id": 3818,
        "state_code": "35",
        "state_name": "Lâm Đồng",
        "country_id": 240,
        "country_code": "VN",
        "country_name": "Vietnam",
        "latitude": "11.75308000",
        "longitude": "108.55397000",
        "timezone": null,
        "wikiDataId": "Q5295738"
    },
    {
        "id": 130553,
        "name": "Huyện Đức Trọng",
        "state_id": 3818,
        "state_code": "35",
        "state_name": "Lâm Đồng",
        "country_id": 240,
        "country_code": "VN",
        "country_name": "Vietnam",
        "latitude": "11.62686000",
        "longitude": "108.35330000",
        "timezone": null,
        "wikiDataId": "Q5311201"
    },
    {
        "id": 130304,
        "name": "Huyện Hàm Tân",
        "state_id": 3818,
        "state_code": "35",
        "state_name": "Lâm Đồng",
        "country_id": 240,
        "country_code": "VN",
        "country_name": "Vietnam",
        "latitude": "10.76856000",
        "longitude": "107.64233000",
        "timezone": null,
        "wikiDataId": "Q5643878"
    },
    {
        "id": 130302,
        "name": "Huyện Hàm Thuận Bắc",
        "state_id": 3818,
        "state_code": "35",
        "state_name": "Lâm Đồng",
        "country_id": 240,
        "country_code": "VN",
        "country_name": "Vietnam",
        "latitude": "11.14703000",
        "longitude": "108.08172000",
        "timezone": null,
        "wikiDataId": "Q3710927"
    },
    {
        "id": 130303,
        "name": "Huyện Hàm Thuận Nam",
        "state_id": 3818,
        "state_code": "35",
        "state_name": "Lâm Đồng",
        "country_id": 240,
        "country_code": "VN",
        "country_name": "Vietnam",
        "latitude": "10.92101000",
        "longitude": "107.93325000",
        "timezone": null,
        "wikiDataId": "Q3710927"
    },
    {
        "id": 130333,
        "name": "Huyện Krông Nô",
        "state_id": 3818,
        "state_code": "35",
        "state_name": "Lâm Đồng",
        "country_id": 240,
        "country_code": "VN",
        "country_name": "Vietnam",
        "latitude": "12.36285000",
        "longitude": "107.83445000",
        "timezone": null,
        "wikiDataId": "Q6405298"
    },
    {
        "id": 130346,
        "name": "Huyện Lâm Hà",
        "state_id": 3818,
        "state_code": "35",
        "state_name": "Lâm Đồng",
        "country_id": 240,
        "country_code": "VN",
        "country_name": "Vietnam",
        "latitude": "11.81890000",
        "longitude": "108.21215000",
        "timezone": null,
        "wikiDataId": "Q3711115"
    },
    {
        "id": 130479,
        "name": "Huyện Tánh Linh",
        "state_id": 3818,
        "state_code": "35",
        "state_name": "Lâm Đồng",
        "country_id": 240,
        "country_code": "VN",
        "country_name": "Vietnam",
        "latitude": "11.11367000",
        "longitude": "107.68427000",
        "timezone": null,
        "wikiDataId": "Q2232329"
    },
    {
        "id": 130475,
        "name": "Huyện Tuy Phong",
        "state_id": 3818,
        "state_code": "35",
        "state_name": "Lâm Đồng",
        "country_id": 240,
        "country_code": "VN",
        "country_name": "Vietnam",
        "latitude": "11.34746000",
        "longitude": "108.70466000",
        "timezone": null,
        "wikiDataId": "Q286486"
    },
    {
        "id": 130567,
        "name": "La Gi",
        "state_id": 3818,
        "state_code": "35",
        "state_name": "Lâm Đồng",
        "country_id": 240,
        "country_code": "VN",
        "country_name": "Vietnam",
        "latitude": "10.65993000",
        "longitude": "107.77206000",
        "timezone": null,
        "wikiDataId": "Q6462754"
    },
    {
        "id": 130579,
        "name": "Phan Thiết",
        "state_id": 3818,
        "state_code": "35",
        "state_name": "Lâm Đồng",
        "country_id": 240,
        "country_code": "VN",
        "country_name": "Vietnam",
        "latitude": "10.92889000",
        "longitude": "108.10208000",
        "timezone": null,
        "wikiDataId": "Q19013"
    },
    {
        "id": 130601,
        "name": "Thành Phố Phan Thiết",
        "state_id": 3818,
        "state_code": "35",
        "state_name": "Lâm Đồng",
        "country_id": 240,
        "country_code": "VN",
        "country_name": "Vietnam",
        "latitude": "10.93700000",
        "longitude": "108.15778000",
        "timezone": null,
        "wikiDataId": "Q25315"
    },
    {
        "id": 130237,
        "name": "Huyện Bắc Sơn",
        "state_id": 3792,
        "state_code": "09",
        "state_name": "Lạng Sơn",
        "country_id": 240,
        "country_code": "VN",
        "country_name": "Vietnam",
        "latitude": "21.83801000",
        "longitude": "106.27690000",
        "timezone": null,
        "wikiDataId": "Q4838559"
    },
    {
        "id": 130220,
        "name": "Huyện Bình Gia",
        "state_id": 3792,
        "state_code": "09",
        "state_name": "Lạng Sơn",
        "country_id": 240,
        "country_code": "VN",
        "country_name": "Vietnam",
        "latitude": "22.07281000",
        "longitude": "106.30410000",
        "timezone": null,
        "wikiDataId": "Q3710671"
    },
    {
        "id": 130244,
        "name": "Huyện Cao Lộc",
        "state_id": 3792,
        "state_code": "09",
        "state_name": "Lạng Sơn",
        "country_id": 240,
        "country_code": "VN",
        "country_name": "Vietnam",
        "latitude": "21.89857000",
        "longitude": "106.85435000",
        "timezone": null,
        "wikiDataId": "Q4838559"
    },
    {
        "id": 130246,
        "name": "Huyện Chi Lăng",
        "state_id": 3792,
        "state_code": "09",
        "state_name": "Lạng Sơn",
        "country_id": 240,
        "country_code": "VN",
        "country_name": "Vietnam",
        "latitude": "21.67602000",
        "longitude": "106.62925000",
        "timezone": null,
        "wikiDataId": "Q4838559"
    },
    {
        "id": 130531,
        "name": "Huyện Đình Lập",
        "state_id": 3792,
        "state_code": "09",
        "state_name": "Lạng Sơn",
        "country_id": 240,
        "country_code": "VN",
        "country_name": "Vietnam",
        "latitude": "21.54210000",
        "longitude": "107.12925000",
        "timezone": null,
        "wikiDataId": "Q5295738"
    },
    {
        "id": 130308,
        "name": "Huyện Hũu Lũng",
        "state_id": 3792,
        "state_code": "09",
        "state_name": "Lạng Sơn",
        "country_id": 240,
        "country_code": "VN",
        "country_name": "Vietnam",
        "latitude": "21.54474000",
        "longitude": "106.34386000",
        "timezone": null,
        "wikiDataId": "Q5874252"
    },
    {
        "id": 130507,
        "name": "Huyện Vặn Quan",
        "state_id": 3792,
        "state_code": "09",
        "state_name": "Lạng Sơn",
        "country_id": 240,
        "country_code": "VN",
        "country_name": "Vietnam",
        "latitude": "21.83333000",
        "longitude": "106.54942000",
        "timezone": null,
        "wikiDataId": "Q7932536"
    },
    {
        "id": 130572,
        "name": "Lạng Sơn",
        "state_id": 3792,
        "state_code": "09",
        "state_name": "Lạng Sơn",
        "country_id": 240,
        "country_code": "VN",
        "country_name": "Vietnam",
        "latitude": "21.85264000",
        "longitude": "106.76101000",
        "timezone": null,
        "wikiDataId": "Q33383"
    },
    {
        "id": 130234,
        "name": "Huyện Bắc Hà",
        "state_id": 3817,
        "state_code": "02",
        "state_name": "Lào Cai",
        "country_id": 240,
        "country_code": "VN",
        "country_name": "Vietnam",
        "latitude": "22.50998000",
        "longitude": "104.30769000",
        "timezone": null,
        "wikiDataId": "Q4838559"
    },
    {
        "id": 130232,
        "name": "Huyện Bảo Yên",
        "state_id": 3817,
        "state_code": "02",
        "state_name": "Lào Cai",
        "country_id": 240,
        "country_code": "VN",
        "country_name": "Vietnam",
        "latitude": "22.26109000",
        "longitude": "104.46424000",
        "timezone": null,
        "wikiDataId": "Q3710674"
    },
    {
        "id": 130219,
        "name": "Huyện Bát Xát",
        "state_id": 3817,
        "state_code": "02",
        "state_name": "Lào Cai",
        "country_id": 240,
        "country_code": "VN",
        "country_name": "Vietnam",
        "latitude": "22.56767000",
        "longitude": "103.71339000",
        "timezone": null,
        "wikiDataId": "Q3710671"
    },
    {
        "id": 130355,
        "name": "Huyện Lục Yên",
        "state_id": 3817,
        "state_code": "02",
        "state_name": "Lào Cai",
        "country_id": 240,
        "country_code": "VN",
        "country_name": "Vietnam",
        "latitude": "22.10235000",
        "longitude": "104.72538000",
        "timezone": null,
        "wikiDataId": "Q2226906"
    },
    {
        "id": 130360,
        "name": "Huyện Mù Cang Chải",
        "state_id": 3817,
        "state_code": "02",
        "state_name": "Lào Cai",
        "country_id": 240,
        "country_code": "VN",
        "country_name": "Vietnam",
        "latitude": "21.78815000",
        "longitude": "104.11998000",
        "timezone": null,
        "wikiDataId": "Q10796264"
    },
    {
        "id": 130362,
        "name": "Huyện Mường Khương",
        "state_id": 3817,
        "state_code": "02",
        "state_name": "Lào Cai",
        "country_id": 240,
        "country_code": "VN",
        "country_name": "Vietnam",
        "latitude": "22.67111000",
        "longitude": "104.11772000",
        "timezone": null,
        "wikiDataId": "Q10796264"
    },