[
    {
        "id": 130639,
        "name": "Norsup",
        "state_id": 4775,
        "state_code": "MAP",
        "state_name": "Malampa",
        "country_id": 237,
        "country_code": "VU",
        "country_name": "Vanuatu",
        "latitude": "-16.06536000",
        "longitude": "167.39714000",
        "timezone": null,
        "wikiDataId": "Q876557"
    },
    {
        "id": 130638,
        "name": "Luganville",
        "state_id": 4776,
        "state_code": "SAM",
        "state_name": "Sanma",
        "country_id": 237,
        "country_code": "VU",
        "country_name": "Vanuatu",
        "latitude": "-15.51989000",
        "longitude": "167.16235000",
        "timezone": null,
        "wikiDataId": "Q876557"
    },
    {
        "id": 130640,
        "name": "Port-Olry",
        "state_id": 4776,
        "state_code": "SAM",
        "state_name": "Sanma",
        "country_id": 237,
        "country_code": "VU",
        "country_name": "Vanuatu",
        "latitude": "-15.04175000",
        "longitude": "167.07265000",
        "timezone": null,
        "wikiDataId": "Q1050300"
    },
    {
        "id": 130641,
        "name": "Port-Vila",
        "state_id": 4774,
        "state_code": "SEE",
        "state_name": "Shefa",
        "country_id": 237,
        "country_code": "VU",
        "country_name": "Vanuatu",
        "latitude": "-17.73648000",
        "longitude": "168.31366000",
        "timezone": null,
        "wikiDataId": "Q37806"
    },
    {
        "id": 130636,
        "name": "Isangel",
        "state_id": 4777,
        "state_code": "TAE",
        "state_name": "Tafea",
        "country_id": 237,
        "country_code": "VU",
        "country_name": "Vanuatu",
        "latitude": "-19.54167000",
        "longitude": "169.28167000",
        "timezone": null,
        "wikiDataId": "Q1070178"
    },
    {
        "id": 130642,
        "name": "Sola",
        "state_id": 4772,
        "state_code": "TOB",
        "state_name": "Torba",
        "country_id": 237,
        "country_code": "VU",
        "country_name": "Vanuatu",
        "latitude": "-13.87611000",
        "longitude": "167.55167000",
        "timezone": null,
        "wikiDataId": "Q1423143"
    }
]